$ADVER,3080,2.2
$GPRMC,140452.302,A,4028.4257,N,08353.5245,W,0.74,207.72,130620,,,A*7F
$GPRMC,140453.302,A,4028.4257,N,08353.5245,W,0.50,212.40,130620,,,A*7D
$GPRMC,140454.302,A,4028.4255,N,08353.5247,W,0.40,210.88,130620,,,A*7D
$GPRMC,140455.000,A,4028.4255,N,08353.5247,W,0.17,214.18,130620,,,A*72
$GPRMC,140456.000,A,4028.4254,N,08353.5248,W,0.22,206.62,130620,,,A*77
$GPRMC,140457.000,A,4028.4253,N,08353.5248,W,0.17,200.64,130620,,,A*77
$GPRMC,140458.000,A,4028.4258,N,08353.5247,W,0.13,0.77,130620,,,A*78
$GPRMC,140459.000,A,4028.4226,N,08353.5277,W,0.05,52.44,130620,,,A*43
$GPRMC,140500.000,A,4028.4219,N,08353.5282,W,0.06,76.99,130620,,,A*4D
$GPRMC,140501.000,A,4028.4217,N,08353.5284,W,0.06,70.47,130620,,,A*41
$GPRMC,140502.000,A,4028.4216,N,08353.5284,W,0.08,60.08,130620,,,A*47
$GPRMC,140503.000,A,4028.4215,N,08353.5285,W,0.12,36.05,130620,,,A*41
$GPRMC,140504.000,A,4028.4215,N,08353.5285,W,0.10,52.88,130620,,,A*43
$GPRMC,140505.000,A,4028.4215,N,08353.5285,W,0.04,66.21,130620,,,A*43
$GPRMC,140506.000,A,4028.4215,N,08353.5285,W,0.10,57.84,130620,,,A*48
$GPRMC,140507.000,A,4028.4215,N,08353.5285,W,0.07,67.30,130620,,,A*43
$GPRMC,140508.000,A,4028.4215,N,08353.5285,W,0.09,40.80,130620,,,A*4C
$GPRMC,140509.000,A,4028.4215,N,08353.5284,W,0.08,44.00,130620,,,A*41
$GPRMC,140510.000,A,4028.4218,N,08353.5282,W,0.04,104.99,130620,,,A*7B
$GPRMC,140511.000,A,4028.4215,N,08353.5282,W,0.10,184.16,130620,,,A*7D
$GPRMC,140512.000,A,4028.4217,N,08353.5280,W,0.33,44.18,130620,,,A*4C
$GPRMC,140513.000,A,4028.4221,N,08353.5275,W,0.08,185.45,130620,,,A*7E
$GPRMC,140514.000,A,4028.4224,N,08353.5271,W,0.10,51.36,130620,,,A*4D
$GPRMC,140515.000,A,4028.4225,N,08353.5270,W,0.24,64.44,130620,,,A*48
$GPRMC,140516.000,A,4028.4228,N,08353.5267,W,0.41,65.92,130620,,,A*49
$GPRMC,140517.000,A,4028.4231,N,08353.5264,W,0.56,62.55,130620,,,A*49
$GPRMC,140518.000,A,4028.4233,N,08353.5262,W,0.14,9.13,130620,,,A*7B
$GPRMC,140519.000,A,4028.4236,N,08353.5260,W,0.12,38.88,130620,,,A*4B
$GPRMC,140520.000,A,4028.4237,N,08353.5258,W,0.12,51.06,130620,,,A*42
$GPRMC,140521.000,A,4028.4236,N,08353.5260,W,0.50,215.03,130620,,,D*7D
$GPRMC,140522.000,A,4028.4234,N,08353.5263,W,0.13,180.21,130620,,,D*77
$GPRMC,140523.000,A,4028.4233,N,08353.5263,W,0.09,256.66,130620,,,D*71
$GPRMC,140524.000,A,4028.4234,N,08353.5258,W,0.18,64.07,130620,,,D*4D
$GPRMC,140525.000,A,4028.4235,N,08353.5257,W,0.31,76.22,130620,,,D*4D
$GPRMC,140526.000,A,4028.4236,N,08353.5256,W,0.06,27.62,130620,,,D*48
$GPRMC,140527.000,A,4028.4237,N,08353.5256,W,0.08,46.51,130620,,,D*41
$GPRMC,140528.000,A,4028.4237,N,08353.5256,W,0.13,56.51,130620,,,D*45
$GPRMC,140529.000,A,4028.4238,N,08353.5256,W,0.11,59.04,130620,,,D*46
$GPRMC,140530.000,A,4028.4238,N,08353.5255,W,0.37,72.83,130620,,,D*4F
$GPRMC,140531.000,A,4028.4239,N,08353.5254,W,0.11,45.77,130620,,,D*45
$GPRMC,140532.000,A,4028.4240,N,08353.5256,W,0.14,39.44,130620,,,D*44
$GPRMC,140533.000,A,4028.4241,N,08353.5259,W,0.26,31.79,130620,,,D*4C
$GPRMC,140534.000,A,4028.4241,N,08353.5260,W,0.16,31.01,130620,,,D*4D
$GPRMC,140535.000,A,4028.4241,N,08353.5261,W,0.10,18.09,130620,,,D*48
$GPRMC,140536.000,A,4028.4242,N,08353.5262,W,0.14,0.42,130620,,,D*79
$GPRMC,140537.000,A,4028.4242,N,08353.5265,W,0.04,22.72,130620,,,D*4D
$GPRMC,140538.000,A,4028.4242,N,08353.5268,W,0.07,323.37,130620,,,D*7F
$GPRMC,140539.000,A,4028.4243,N,08353.5271,W,0.14,356.28,130620,,,D*79
$GPRMC,140540.000,A,4028.4243,N,08353.5274,W,0.16,24.32,130620,,,D*4D
$GPRMC,140541.000,A,4028.4244,N,08353.5276,W,0.20,15.18,130620,,,D*46
$GPRMC,140542.000,A,4028.4245,N,08353.5277,W,0.21,24.00,130620,,,D*4F
$GPRMC,140543.000,A,4028.4246,N,08353.5279,W,0.25,7.67,130620,,,D*77
$GPRMC,140544.000,A,4028.4246,N,08353.5280,W,0.19,41.40,130620,,,D*4E
$GPRMC,140545.000,A,4028.4247,N,08353.5281,W,0.23,0.75,130620,,,D*75
$GPRMC,140546.000,A,4028.4248,N,08353.5285,W,0.17,20.71,130620,,,D*4C
$GPRMC,140547.000,A,4028.4249,N,08353.5289,W,0.26,303.71,130620,,,D*70
$GPRMC,140548.000,A,4028.4249,N,08353.5292,W,0.22,322.92,130620,,,D*7F
$GPRMC,140549.000,A,4028.4250,N,08353.5293,W,0.21,344.03,130620,,,D*7C
$GPRMC,140550.000,A,4028.4251,N,08353.5298,W,0.09,333.60,130620,,,D*71
$GPRMC,140551.000,A,4028.4252,N,08353.5301,W,0.13,359.18,130620,,,D*7A
$GPRMC,140552.000,A,4028.4252,N,08353.5303,W,0.17,319.55,130620,,,D*72
$GPRMC,140553.000,A,4028.4252,N,08353.5305,W,0.04,21.46,130620,,,D*4D
$GPRMC,140554.000,A,4028.4252,N,08353.5305,W,0.10,352.24,130620,,,D*7C
$GPRMC,140555.000,A,4028.4253,N,08353.5306,W,0.05,0.44,130620,,,D*79
$GPRMC,140556.000,A,4028.4253,N,08353.5306,W,0.05,26.75,130620,,,D*4C
$GPRMC,140557.000,A,4028.4253,N,08353.5307,W,0.06,10.09,130620,,,D*41
$GPRMC,140558.000,A,4028.4253,N,08353.5307,W,0.14,18.32,130620,,,D*4D
$GPRMC,140559.000,A,4028.4254,N,08353.5306,W,0.14,20.86,130620,,,D*4E
$GPRMC,140600.000,A,4028.4255,N,08353.5306,W,0.18,21.30,130620,,,D*40
$GPRMC,140601.000,A,4028.4255,N,08353.5306,W,0.16,17.30,130620,,,D*4A
$GPRMC,140602.000,A,4028.4256,N,08353.5305,W,0.16,29.98,130620,,,D*46
$GPRMC,140603.000,A,4028.4256,N,08353.5305,W,0.16,36.42,130620,,,D*4E
$GPRMC,140604.000,A,4028.4256,N,08353.5304,W,0.09,48.14,130620,,,D*4C
$GPRMC,140605.000,A,4028.4257,N,08353.5304,W,0.09,43.07,130620,,,D*45
$GPRMC,140606.000,A,4028.4257,N,08353.5304,W,0.07,56.12,130620,,,D*48
$GPRMC,140607.000,A,4028.4257,N,08353.5303,W,0.09,80.31,130620,,,D*4A
$GPRMC,140608.000,A,4028.4257,N,08353.5303,W,0.05,16.10,130620,,,D*45
$GPRMC,140609.000,A,4028.4258,N,08353.5303,W,0.04,80.75,130620,,,D*46
$GPRMC,140610.000,A,4028.4258,N,08353.5303,W,0.17,21.93,130620,,,D*4F
$GPRMC,140611.000,A,4028.4259,N,08353.5303,W,0.17,21.33,130620,,,D*45
$GPRMC,140612.000,A,4028.4259,N,08353.5302,W,0.16,25.52,130620,,,D*45
$GPRMC,140613.000,A,4028.4260,N,08353.5302,W,0.14,19.14,130620,,,D*41
$GPRMC,140614.000,A,4028.4260,N,08353.5302,W,0.14,30.41,130620,,,D*4D
$GPRMC,140615.000,A,4028.4260,N,08353.5301,W,0.15,46.62,130620,,,D*4E
$GPRMC,140616.000,A,4028.4260,N,08353.5301,W,0.09,92.95,130620,,,D*41
$GPRMC,140617.000,A,4028.4260,N,08353.5300,W,0.10,91.59,130620,,,D*4A
$GPRMC,140618.000,A,4028.4260,N,08353.5300,W,0.09,96.78,130620,,,D*49
$GPRMC,140619.000,A,4028.4260,N,08353.5300,W,0.09,90.46,130620,,,D*43
$GPRMC,140620.000,A,4028.4260,N,08353.5299,W,0.09,93.07,130620,,,D*4E
$GPRMC,140621.000,A,4028.4259,N,08353.5299,W,0.05,123.50,130620,,,D*71
$GPRMC,140622.000,A,4028.4259,N,08353.5298,W,0.26,57.99,130620,,,D*45
$GPRMC,140623.000,A,4028.4260,N,08353.5297,W,0.13,20.72,130620,,,D*42
$GPRMC,140624.000,A,4028.4260,N,08353.5297,W,0.10,314.64,130620,,,D*75
$GPRMC,140625.000,A,4028.4260,N,08353.5297,W,0.11,329.63,130620,,,D*7C
$GPRMC,140626.000,A,4028.4260,N,08353.5296,W,0.18,63.28,130620,,,D*45
$GPRMC,140627.000,A,4028.4260,N,08353.5295,W,0.17,44.29,130620,,,D*4C
$GPRMC,140628.000,A,4028.4260,N,08353.5294,W,0.12,108.77,130620,,,D*75
$GPRMC,140629.000,A,4028.4260,N,08353.5294,W,0.12,112.88,130620,,,D*7F
$GPRMC,140630.000,A,4028.4259,N,08353.5293,W,0.18,96.03,130620,,,D*4E
$GPRMC,140631.000,A,4028.4259,N,08353.5291,W,0.11,109.56,130620,,,D*73
$GPRMC,140632.000,A,4028.4258,N,08353.5290,W,0.12,100.13,130620,,,D*7B
$GPRMC,140633.000,A,4028.4258,N,08353.5289,W,0.07,153.46,130620,,,D*70
$GPRMC,140634.000,A,4028.4258,N,08353.5288,W,0.12,33.89,130620,,,D*46
$GPRMC,140635.000,A,4028.4258,N,08353.5288,W,0.08,15.89,130620,,,D*48
$GPRMC,140636.000,A,4028.4258,N,08353.5287,W,0.09,25.31,130620,,,D*45
$GPRMC,140637.000,A,4028.4258,N,08353.5287,W,0.10,28.26,130620,,,D*47
$GPRMC,140638.000,A,4028.4258,N,08353.5286,W,0.08,21.42,130620,,,D*4B
$GPRMC,140639.000,A,4028.4258,N,08353.5286,W,0.10,44.99,130620,,,D*46
$GPRMC,140640.000,A,4028.4258,N,08353.5285,W,0.12,111.09,130620,,,D*71
$GPRMC,140641.000,A,4028.4258,N,08353.5285,W,0.11,114.38,130620,,,D*74
$GPRMC,140642.000,A,4028.4258,N,08353.5284,W,0.11,119.14,130620,,,D*75
$GPRMC,140643.000,A,4028.4257,N,08353.5284,W,0.11,99.99,130620,,,D*47
$GPRMC,140644.000,A,4028.4257,N,08353.5283,W,0.11,101.56,130620,,,D*74
$GPRMC,140645.000,A,4028.4257,N,08353.5283,W,0.06,101.07,130620,,,D*77
$GPRMC,140646.000,A,4028.4257,N,08353.5283,W,0.09,359.49,130620,,,D*7E
$GPRMC,140647.000,A,4028.4257,N,08353.5282,W,0.12,9.11,130620,,,D*7F
$GPRMC,140648.000,A,4028.4257,N,08353.5282,W,0.09,10.48,130620,,,D*4E
$GPRMC,140649.000,A,4028.4257,N,08353.5282,W,0.08,11.65,130620,,,D*40
$GPRMC,140650.000,A,4028.4257,N,08353.5282,W,0.11,10.54,130620,,,D*43
$GPRMC,140651.000,A,4028.4258,N,08353.5282,W,0.11,33.02,130620,,,D*4F
$GPRMC,140652.000,A,4028.4257,N,08353.5281,W,0.10,124.27,130620,,,D*71
$GPRMC,140653.000,A,4028.4257,N,08353.5281,W,0.10,128.30,130620,,,D*7A
$GPRMC,140654.000,A,4028.4257,N,08353.5280,W,0.10,126.83,130620,,,D*7A
$GPRMC,140655.000,A,4028.4256,N,08353.5280,W,0.08,116.93,130620,,,D*71
$GPRMC,140656.000,A,4028.4256,N,08353.5280,W,0.09,118.55,130620,,,D*77
$GPRMC,140657.000,A,4028.4256,N,08353.5279,W,0.06,121.84,130620,,,D*79
$GPRMC,140658.000,A,4028.4256,N,08353.5279,W,0.13,11.96,130620,,,D*43
$GPRMC,140659.000,A,4028.4256,N,08353.5279,W,0.15,17.94,130620,,,D*40
$GPRMC,140700.000,A,4028.4257,N,08353.5279,W,0.12,14.65,130620,,,D*46
$GPRMC,140701.000,A,4028.4257,N,08353.5279,W,0.14,18.64,130620,,,D*4C
$GPRMC,140702.000,A,4028.4257,N,08353.5279,W,0.11,19.76,130620,,,D*48
$GPRMC,140703.000,A,4028.4257,N,08353.5278,W,0.17,36.89,130620,,,D*43
$GPRMC,140704.000,A,4028.4257,N,08353.5278,W,0.13,89.53,130620,,,D*43
$GPRMC,140705.000,A,4028.4257,N,08353.5278,W,0.10,109.30,130620,,,D*7D
$GPRMC,140706.000,A,4028.4257,N,08353.5278,W,0.08,119.93,130620,,,D*7F
$GPRMC,140707.000,A,4028.4256,N,08353.5277,W,0.13,89.92,130620,,,D*43
$GPRMC,140708.000,A,4028.4256,N,08353.5277,W,0.09,118.25,130620,,,D*72
$GPRMC,140709.000,A,4028.4256,N,08353.5277,W,0.05,86.46,130620,,,D*4C
$GPRMC,140710.000,A,4028.4256,N,08353.5277,W,0.12,0.74,130620,,,D*7D
$GPRMC,140711.000,A,4028.4256,N,08353.5277,W,0.16,9.81,130620,,,D*7B
$GPRMC,140712.000,A,4028.4256,N,08353.5277,W,0.13,12.20,130620,,,D*4C
$GPRMC,140713.000,A,4028.4257,N,08353.5277,W,0.13,12.24,130620,,,D*48
$GPRMC,140714.000,A,4028.4257,N,08353.5277,W,0.14,14.56,130620,,,D*4B
$GPRMC,140715.000,A,4028.4257,N,08353.5277,W,0.13,29.21,130620,,,D*43
$GPRMC,140716.000,A,4028.4257,N,08353.5277,W,0.10,102.27,130620,,,D*7D
$GPRMC,140717.000,A,4028.4257,N,08353.5277,W,0.09,107.60,130620,,,D*72
$GPRMC,140718.000,A,4028.4257,N,08353.5277,W,0.09,100.18,130620,,,D*75
$GPRMC,140719.000,A,4028.4257,N,08353.5277,W,0.06,113.43,130620,,,D*77
$GPRMC,140720.000,A,4028.4256,N,08353.5277,W,0.07,104.68,130620,,,D*72
$GPRMC,140721.000,A,4028.4256,N,08353.5278,W,0.04,73.30,130620,,,D*43
$GPRMC,140722.000,A,4028.4256,N,08353.5277,W,0.16,12.91,130620,,,D*40
$GPRMC,140723.000,A,4028.4257,N,08353.5277,W,0.15,5.61,130620,,,D*7A
$GPRMC,140724.000,A,4028.4257,N,08353.5277,W,0.16,3.43,130620,,,D*78
$GPRMC,140725.000,A,4028.4258,N,08353.5277,W,0.16,13.34,130620,,,D*47
$GPRMC,140726.000,A,4028.4258,N,08353.5275,W,0.17,30.43,130620,,,D*46
$GPRMC,140727.000,A,4028.4258,N,08353.5273,W,0.17,43.03,130620,,,D*41
$GPRMC,140728.000,A,4028.4257,N,08353.5271,W,0.18,110.13,130620,,,D*7A
$GPRMC,140729.000,A,4028.4257,N,08353.5269,W,0.15,122.38,130620,,,D*77
$GPRMC,140730.000,A,4028.4256,N,08353.5267,W,0.16,118.17,130620,,,D*77
$GPRMC,140731.000,A,4028.4256,N,08353.5266,W,0.16,117.07,130620,,,D*79
$GPRMC,140732.000,A,4028.4256,N,08353.5264,W,0.16,122.00,130620,,,D*79
$GPRMC,140733.000,A,4028.4255,N,08353.5263,W,0.11,135.40,130620,,,D*79
$GPRMC,140734.000,A,4028.4255,N,08353.5262,W,0.12,33.11,130620,,,D*4F
$GPRMC,140735.000,A,4028.4255,N,08353.5262,W,0.11,24.88,130620,,,D*4B
$GPRMC,140736.000,A,4028.4255,N,08353.5262,W,0.10,27.40,130620,,,D*4E
$GPRMC,140737.000,A,4028.4256,N,08353.5262,W,0.10,15.56,130620,,,D*4A
$GPRMC,140738.000,A,4028.4256,N,08353.5262,W,0.12,18.90,130620,,,D*40
$GPRMC,140739.000,A,4028.4256,N,08353.5262,W,0.12,26.35,130620,,,D*43
$GPRMC,140740.000,A,4028.4256,N,08353.5262,W,0.13,122.74,130620,,,D*7C
$GPRMC,140741.000,A,4028.4256,N,08353.5262,W,0.10,117.21,130620,,,D*78
$GPRMC,140742.000,A,4028.4255,N,08353.5262,W,0.11,113.34,130620,,,D*79
$GPRMC,140743.000,A,4028.4255,N,08353.5262,W,0.08,108.68,130620,,,D*73
$GPRMC,140744.000,A,4028.4255,N,08353.5263,W,0.08,129.21,130620,,,D*7B
$GPRMC,140745.000,A,4028.4255,N,08353.5263,W,0.09,75.88,130620,,,D*40
$GPRMC,140746.000,A,4028.4255,N,08353.5263,W,0.13,355.38,130620,,,D*72
$GPRMC,140747.000,A,4028.4255,N,08353.5263,W,0.15,3.49,130620,,,D*73
$GPRMC,140748.000,A,4028.4255,N,08353.5264,W,0.11,359.52,130620,,,D*79
$GPRMC,140749.000,A,4028.4256,N,08353.5264,W,0.13,0.36,130620,,,D*74
$GPRMC,140750.000,A,4028.4256,N,08353.5264,W,0.12,2.53,130620,,,D*7C
$GPRMC,140751.000,A,4028.4256,N,08353.5264,W,0.14,20.27,130620,,,D*48
$GPRMC,140752.000,A,4028.4256,N,08353.5264,W,0.10,98.41,130620,,,D*4C
$GPRMC,140753.000,A,4028.4256,N,08353.5264,W,0.09,101.86,130620,,,D*7F
$GPRMC,140754.000,A,4028.4256,N,08353.5265,W,0.09,120.21,130620,,,D*77
$GPRMC,140755.000,A,4028.4256,N,08353.5265,W,0.11,86.16,130620,,,D*46
$GPRMC,140756.000,A,4028.4256,N,08353.5264,W,0.13,87.17,130620,,,D*46
$GPRMC,140757.000,A,4028.4256,N,08353.5264,W,0.07,79.59,130620,,,D*49
$GPRMC,140758.000,A,4028.4256,N,08353.5265,W,0.07,358.29,130620,,,D*70
$GPRMC,140759.000,A,4028.4256,N,08353.5265,W,0.14,17.58,130620,,,D*4D
$GPRMC,140800.000,A,4028.4256,N,08353.5265,W,0.10,14.82,130620,,,D*4E
$GPRMC,140801.000,A,4028.4257,N,08353.5265,W,0.11,0.13,130620,,,D*72
$GPRMC,140802.000,A,4028.4257,N,08353.5265,W,0.08,19.98,130620,,,D*42
$GPRMC,140803.000,A,4028.4257,N,08353.5265,W,0.13,29.68,130620,,,D*45
$GPRMC,140804.000,A,4028.4257,N,08353.5265,W,0.09,76.18,130620,,,D*44
$GPRMC,140805.000,A,4028.4257,N,08353.5265,W,0.10,76.39,130620,,,D*4E
$GPRMC,140806.000,A,4028.4257,N,08353.5265,W,0.10,72.46,130620,,,D*41
$GPRMC,140807.000,A,4028.4257,N,08353.5265,W,0.11,64.48,130620,,,D*48
$GPRMC,140808.000,A,4028.4257,N,08353.5265,W,0.10,57.35,130620,,,D*4C
$GPRMC,140809.000,A,4028.4257,N,08353.5265,W,0.18,83.39,130620,,,D*40
$GPRMC,140810.000,A,4028.4257,N,08353.5265,W,0.11,295.62,130620,,,D*7A
$GPRMC,140811.000,A,4028.4258,N,08353.5266,W,0.16,285.53,130620,,,D*73
$GPRMC,140812.000,A,4028.4258,N,08353.5268,W,0.08,345.20,130620,,,D*78
$GPRMC,140813.000,A,4028.4258,N,08353.5269,W,0.08,359.76,130620,,,D*76
$GPRMC,140814.000,A,4028.4258,N,08353.5270,W,0.10,25.72,130620,,,D*4C
$GPRMC,140815.000,A,4028.4258,N,08353.5269,W,0.08,349.57,130620,,,D*72
$GPRMC,140816.000,A,4028.4258,N,08353.5268,W,0.20,75.69,130620,,,D*4B
$GPRMC,140817.000,A,4028.4258,N,08353.5266,W,0.28,76.42,130620,,,D*46
$GPRMC,140818.000,A,4028.4258,N,08353.5266,W,0.07,57.89,130620,,,D*40
$GPRMC,140819.000,A,4028.4258,N,08353.5265,W,0.03,263.80,130620,,,D*7A
$GPRMC,140820.000,A,4028.4257,N,08353.5265,W,0.07,276.59,130620,,,D*7B
$GPRMC,140821.000,A,4028.4257,N,08353.5265,W,0.08,248.48,130620,,,D*78
$GPRMC,140822.000,A,4028.4257,N,08353.5265,W,0.11,299.10,130620,,,D*72
$GPRMC,140823.000,A,4028.4257,N,08353.5264,W,0.12,55.13,130620,,,D*40
$GPRMC,140824.000,A,4028.4257,N,08353.5263,W,0.07,46.97,130620,,,D*4A
$GPRMC,140825.000,A,4028.4257,N,08353.5263,W,0.06,14.87,130620,,,D*4C
$GPRMC,140826.000,A,4028.4257,N,08353.5262,W,0.30,72.00,130620,,,D*44
$GPRMC,140827.000,A,4028.4257,N,08353.5263,W,0.07,21.27,130620,,,D*43
$GPRMC,140828.000,A,4028.4257,N,08353.5264,W,0.03,124.22,130620,,,D*7E
$GPRMC,140829.000,A,4028.4256,N,08353.5265,W,0.01,147.01,130620,,,D*79
$GPRMC,140830.000,A,4028.4256,N,08353.5266,W,0.06,69.67,130620,,,D*48
$GPRMC,140831.000,A,4028.4256,N,08353.5268,W,0.03,183.83,130620,,,D*7D
$GPRMC,140832.000,A,4028.4256,N,08353.5269,W,0.05,50.46,130620,,,D*4F
$GPRMC,140833.000,A,4028.4256,N,08353.5269,W,0.07,121.41,130620,,,D*7C
$GPRMC,140834.000,A,4028.4256,N,08353.5270,W,0.15,34.32,130620,,,D*41
$GPRMC,140835.000,A,4028.4256,N,08353.5270,W,0.17,35.69,130620,,,D*4D
$GPRMC,140836.000,A,4028.4256,N,08353.5271,W,0.11,40.26,130620,,,D*40
$GPRMC,140837.000,A,4028.4256,N,08353.5271,W,0.10,36.03,130620,,,D*46
$GPRMC,140838.000,A,4028.4256,N,08353.5272,W,0.14,41.00,130620,,,D*4D
$GPRMC,140839.000,A,4028.4257,N,08353.5272,W,0.09,5.28,130620,,,D*7B
$GPRMC,140840.000,A,4028.4257,N,08353.5273,W,0.12,52.43,130620,,,D*41
$GPRMC,140841.000,A,4028.4257,N,08353.5273,W,0.11,49.99,130620,,,D*4E
$GPRMC,140842.000,A,4028.4257,N,08353.5273,W,0.15,41.32,130620,,,D*40
$GPRMC,140843.000,A,4028.4257,N,08353.5273,W,0.18,33.15,130620,,,D*4C
$GPRMC,140844.000,A,4028.4257,N,08353.5273,W,0.14,42.23,130620,,,D*44
$GPRMC,140845.000,A,4028.4257,N,08353.5272,W,0.17,47.15,130620,,,D*47
$GPRMC,140846.000,A,4028.4257,N,08353.5273,W,0.06,41.55,130620,,,D*47
$GPRMC,140847.000,A,4028.4257,N,08353.5273,W,0.03,0.85,130620,,,D*7B
$GPRMC,140848.000,A,4028.4257,N,08353.5273,W,0.03,1.81,130620,,,D*71
$GPRMC,140849.000,A,4028.4256,N,08353.5273,W,0.06,24.67,130620,,,D*4B
$GPRMC,140850.000,A,4028.4256,N,08353.5274,W,0.01,67.19,130620,,,D*4D
$GPRMC,140851.000,A,4028.4256,N,08353.5274,W,0.04,286.38,130620,,,D*77
$GPRMC,140852.000,A,4028.4256,N,08353.5274,W,0.11,43.55,130620,,,D*40
$GPRMC,140853.000,A,4028.4256,N,08353.5275,W,0.09,37.50,130620,,,D*4F
$GPRMC,140854.000,A,4028.4255,N,08353.5275,W,0.10,43.01,130620,,,D*44
$GPRMC,140855.000,A,4028.4255,N,08353.5276,W,0.08,55.87,130620,,,D*46
$GPRMC,140856.000,A,4028.4255,N,08353.5276,W,0.08,33.26,130620,,,D*4E
$GPRMC,140857.000,A,4028.4255,N,08353.5276,W,0.14,46.77,130620,,,D*44
$GPRMC,140858.000,A,4028.4255,N,08353.5276,W,0.07,63.69,130620,,,D*41
$GPRMC,140859.000,A,4028.4255,N,08353.5276,W,0.08,24.22,130620,,,D*43
$GPRMC,140900.000,A,4028.4255,N,08353.5276,W,0.16,35.89,130620,,,D*40
$GPRMC,140901.000,A,4028.4256,N,08353.5276,W,0.10,34.18,130620,,,D*4D
$GPRMC,140902.000,A,4028.4256,N,08353.5276,W,0.13,49.04,130620,,,D*4A
$GPRMC,140903.000,A,4028.4256,N,08353.5276,W,0.09,25.26,130620,,,D*4A
$GPRMC,140904.000,A,4028.4256,N,08353.5277,W,0.10,27.27,130620,,,D*47
$GPRMC,140905.000,A,4028.4256,N,08353.5277,W,0.06,359.26,130620,,,D*7A
$GPRMC,140906.000,A,4028.4256,N,08353.5278,W,0.13,14.98,130620,,,D*4D
$GPRMC,140907.000,A,4028.4256,N,08353.5278,W,0.04,315.27,130620,,,D*7C
$GPRMC,140908.000,A,4028.4256,N,08353.5278,W,0.12,14.17,130620,,,D*45
$GPRMC,140909.000,A,4028.4256,N,08353.5279,W,0.07,5.26,130620,,,D*73
$GPRMC,140910.000,A,4028.4256,N,08353.5279,W,0.11,40.61,130620,,,D*4E
$GPRMC,140911.000,A,4028.4256,N,08353.5279,W,0.09,40.94,130620,,,D*4C
$GPRMC,140912.000,A,4028.4256,N,08353.5279,W,0.10,47.49,130620,,,D*40
$GPRMC,140913.000,A,4028.4256,N,08353.5279,W,0.11,45.66,130620,,,D*4F
$GPRMC,140914.000,A,4028.4256,N,08353.5278,W,0.10,43.65,130620,,,D*4D
$GPRMC,140915.000,A,4028.4256,N,08353.5279,W,0.08,39.22,130620,,,D*4A
$GPRMC,140916.000,A,4028.4256,N,08353.5279,W,0.03,32.33,130620,,,D*49
$GPRMC,140917.000,A,4028.4256,N,08353.5279,W,0.08,37.29,130620,,,D*4D
$GPRMC,140918.000,A,4028.4256,N,08353.5280,W,0.05,53.11,130620,,,D*40
$GPRMC,140919.000,A,4028.4256,N,08353.5280,W,0.05,26.99,130620,,,D*43
$GPRMC,140920.000,A,4028.4256,N,08353.5280,W,0.07,43.10,130620,,,D*49
$GPRMC,140921.000,A,4028.4256,N,08353.5279,W,0.13,43.50,130620,,,D*4F
$GPRMC,140922.000,A,4028.4256,N,08353.5279,W,0.13,22.60,130620,,,D*48
$GPRMC,140923.000,A,4028.4256,N,08353.5280,W,0.13,27.09,130620,,,D*45
$GPRMC,140924.000,A,4028.4256,N,08353.5280,W,0.10,21.14,130620,,,D*4B
$GPRMC,140925.000,A,4028.4256,N,08353.5280,W,0.14,28.80,130620,,,D*4A
$GPRMC,140926.000,A,4028.4256,N,08353.5280,W,0.12,27.36,130620,,,D*4D
$GPRMC,140927.000,A,4028.4256,N,08353.5281,W,0.08,31.77,130620,,,D*44
$GPRMC,140928.000,A,4028.4256,N,08353.5281,W,0.05,22.57,130620,,,D*46
$GPRMC,140929.000,A,4028.4255,N,08353.5281,W,0.06,19.49,130620,,,D*40
$GPRMC,140930.000,A,4028.4255,N,08353.5281,W,0.12,3.87,130620,,,D*74
$GPRMC,140931.000,A,4028.4255,N,08353.5281,W,0.02,17.87,130620,,,D*41
$GPRMC,140932.000,A,4028.4255,N,08353.5282,W,0.05,303.91,130620,,,D*77
$GPRMC,140933.000,A,4028.4255,N,08353.5282,W,0.16,57.98,130620,,,D*4F
$GPRMC,140934.000,A,4028.4255,N,08353.5282,W,0.07,332.55,130620,,,D*79
$GPRMC,140935.000,A,4028.4255,N,08353.5282,W,0.11,14.08,130620,,,D*40
$GPRMC,140936.000,A,4028.4255,N,08353.5282,W,0.08,307.86,130620,,,D*7C
$GPRMC,140937.000,A,4028.4255,N,08353.5283,W,0.06,305.70,130620,,,D*79
$GPRMC,140938.000,A,4028.4254,N,08353.5283,W,0.14,302.55,130620,,,D*74
$GPRMC,140939.000,A,4028.4254,N,08353.5283,W,0.04,114.19,130620,,,D*79
$GPRMC,140940.000,A,4028.4254,N,08353.5284,W,0.02,95.26,130620,,,D*42
$GPRMC,140941.000,A,4028.4254,N,08353.5283,W,0.08,71.19,130620,,,D*48
$GPRMC,140942.000,A,4028.4253,N,08353.5284,W,0.05,22.33,130620,,,D*48
$GPRMC,140943.000,A,4028.4253,N,08353.5284,W,0.05,127.59,130620,,,D*71
$GPRMC,140944.000,A,4028.4253,N,08353.5284,W,0.03,202.51,130620,,,D*7C
$GPRMC,140945.000,A,4028.4252,N,08353.5284,W,0.06,273.38,130620,,,D*70
$GPRMC,140946.000,A,4028.4252,N,08353.5285,W,0.14,248.00,130620,,,D*72
$GPRMC,140947.000,A,4028.4252,N,08353.5284,W,0.16,69.16,130620,,,D*46
$GPRMC,140948.000,A,4028.4252,N,08353.5284,W,0.14,28.26,130620,,,D*4D
$GPRMC,140949.000,A,4028.4253,N,08353.5284,W,0.21,23.17,130620,,,D*42
$GPRMC,140950.000,A,4028.4253,N,08353.5284,W,0.14,9.73,130620,,,D*76
$GPRMC,140951.000,A,4028.4253,N,08353.5284,W,0.12,224.24,130620,,,D*7E
$GPRMC,140952.000,A,4028.4253,N,08353.5284,W,0.18,76.43,130620,,,D*43
$GPRMC,140953.000,A,4028.4253,N,08353.5284,W,0.18,59.56,130620,,,D*4B
$GPRMC,140954.000,A,4028.4252,N,08353.5284,W,0.13,28.81,130620,,,D*4A
$GPRMC,140955.000,A,4028.4252,N,08353.5284,W,0.06,239.92,130620,,,D*7F
$GPRMC,140956.000,A,4028.4252,N,08353.5284,W,0.10,105.32,130620,,,D*7D
$GPRMC,140957.000,A,4028.4252,N,08353.5284,W,0.09,64.68,130620,,,D*4D
$GPRMC,140958.000,A,4028.4252,N,08353.5284,W,0.17,26.06,130620,,,D*43
$GPRMC,140959.000,A,4028.4253,N,08353.5284,W,0.24,20.99,130620,,,D*43
$GPRMC,141000.000,A,4028.4253,N,08353.5284,W,0.05,215.69,130620,,,D*7F
$GPRMC,141001.000,A,4028.4253,N,08353.5284,W,0.18,348.18,130620,,,D*7D
$GPRMC,141002.000,A,4028.4253,N,08353.5285,W,0.16,312.43,130620,,,D*70
$GPRMC,141003.000,A,4028.4254,N,08353.5285,W,0.15,20.86,130620,,,D*4E
$GPRMC,141004.000,A,4028.4253,N,08353.5285,W,0.08,195.79,130620,,,D*7D
$GPRMC,141005.000,A,4028.4253,N,08353.5285,W,0.29,226.76,130620,,,D*7B
$GPRMC,141006.000,A,4028.4252,N,08353.5286,W,0.30,242.42,130620,,,D*77
$GPRMC,141007.000,A,4028.4252,N,08353.5287,W,0.08,197.75,130620,,,D*73
$GPRMC,141008.000,A,4028.4251,N,08353.5288,W,0.05,156.41,130620,,,D*77
$GPRMC,141009.000,A,4028.4251,N,08353.5289,W,0.09,186.00,130620,,,D*73
$GPRMC,141010.000,A,4028.4251,N,08353.5289,W,0.14,30.54,130620,,,D*4A
$GPRMC,141011.000,A,4028.4252,N,08353.5288,W,0.31,32.05,130620,,,D*48
$GPRMC,141012.000,A,4028.4252,N,08353.5288,W,0.32,22.77,130620,,,D*4C
$GPRMC,141013.000,A,4028.4253,N,08353.5288,W,0.36,35.74,130620,,,D*4D
$GPRMC,141014.000,A,4028.4254,N,08353.5287,W,0.24,14.68,130620,,,D*4F
$GPRMC,141015.000,A,4028.4254,N,08353.5288,W,0.04,208.08,130620,,,D*7A
$GPRMC,141016.000,A,4028.4254,N,08353.5288,W,0.10,62.07,130620,,,D*4D
$GPRMC,141017.000,A,4028.4254,N,08353.5287,W,0.03,120.27,130620,,,D*74
$GPRMC,141018.000,A,4028.4253,N,08353.5288,W,0.13,211.19,130620,,,D*7E
$GPRMC,141019.000,A,4028.4253,N,08353.5288,W,0.05,249.73,130620,,,D*79
$GPRMC,141020.000,A,4028.4253,N,08353.5288,W,0.12,38.98,130620,,,D*44
$GPRMC,141021.000,A,4028.4253,N,08353.5287,W,0.03,164.41,130620,,,D*76
$GPRMC,141022.000,A,4028.4253,N,08353.5287,W,0.16,38.45,130620,,,D*4D
$GPRMC,141023.000,A,4028.4253,N,08353.5287,W,0.09,16.11,130620,,,D*4F
$GPRMC,141024.000,A,4028.4253,N,08353.5286,W,0.09,14.16,130620,,,D*4C
$GPRMC,141025.000,A,4028.4253,N,08353.5286,W,0.05,341.65,130620,,,D*76
$GPRMC,141026.000,A,4028.4254,N,08353.5286,W,0.29,31.04,130620,,,D*4F
$GPRMC,141027.000,A,4028.4254,N,08353.5285,W,0.19,36.13,130620,,,D*4F
$GPRMC,141028.000,A,4028.4254,N,08353.5285,W,0.09,203.40,130620,,,D*73
$GPRMC,141029.000,A,4028.4254,N,08353.5286,W,0.07,237.04,130620,,,D*78
$GPRMC,141030.000,A,4028.4253,N,08353.5286,W,0.05,257.85,130620,,,D*7A
$GPRMC,141031.000,A,4028.4253,N,08353.5286,W,0.17,186.16,130620,,,D*7D
$GPRMC,141032.000,A,4028.4252,N,08353.5286,W,0.17,174.91,130620,,,D*7D
$GPRMC,141033.000,A,4028.4252,N,08353.5286,W,0.11,58.28,130620,,,D*47
$GPRMC,141034.000,A,4028.4252,N,08353.5285,W,0.26,39.66,130620,,,D*4A
$GPRMC,141035.000,A,4028.4252,N,08353.5285,W,0.12,44.01,130620,,,D*47
$GPRMC,141036.000,A,4028.4252,N,08353.5285,W,0.07,126.97,130620,,,D*7A
$GPRMC,141037.000,A,4028.4252,N,08353.5285,W,0.07,100.96,130620,,,D*7E
$GPRMC,141038.000,A,4028.4252,N,08353.5284,W,0.03,138.83,130620,,,D*7B
$GPRMC,141039.000,A,4028.4252,N,08353.5284,W,0.02,91.82,130620,,,D*48
$GPRMC,141040.000,A,4028.4251,N,08353.5284,W,0.05,103.33,130620,,,D*72
$GPRMC,141041.000,A,4028.4251,N,08353.5284,W,0.16,152.22,130620,,,D*75
$GPRMC,141042.000,A,4028.4251,N,08353.5284,W,0.11,38.39,130620,,,D*46
$GPRMC,141043.000,A,4028.4250,N,08353.5284,W,0.16,155.68,130620,,,D*7F
$GPRMC,141044.000,A,4028.4250,N,08353.5284,W,0.19,165.60,130620,,,D*7C
$GPRMC,141045.000,A,4028.4250,N,08353.5284,W,0.15,25.69,130620,,,D*4D
$GPRMC,141046.000,A,4028.4250,N,08353.5284,W,0.15,18.04,130620,,,D*4B
$GPRMC,141047.000,A,4028.4250,N,08353.5284,W,0.07,41.42,130620,,,D*47
$GPRMC,141048.000,A,4028.4250,N,08353.5283,W,0.10,35.17,130620,,,D*4A
$GPRMC,141049.000,A,4028.4251,N,08353.5283,W,0.07,31.78,130620,,,D*41
$GPRMC,141050.000,A,4028.4251,N,08353.5283,W,0.13,43.55,130620,,,D*46
$GPRMC,141051.000,A,4028.4251,N,08353.5283,W,0.11,35.41,130620,,,D*41
$GPRMC,141052.000,A,4028.4251,N,08353.5283,W,0.08,66.45,130620,,,D*48
$GPRMC,141053.000,A,4028.4251,N,08353.5283,W,0.09,69.96,130620,,,D*49
$GPRMC,141054.000,A,4028.4251,N,08353.5283,W,0.08,75.14,130620,,,D*48
$GPRMC,141055.000,A,4028.4251,N,08353.5283,W,0.07,79.97,130620,,,D*41
$GPRMC,141056.000,A,4028.4251,N,08353.5283,W,0.09,79.53,130620,,,D*44
$GPRMC,141057.000,A,4028.4251,N,08353.5283,W,0.13,50.87,130620,,,D*4C
$GPRMC,141058.000,A,4028.4251,N,08353.5282,W,0.11,45.10,130620,,,D*4A
$GPRMC,141059.000,A,4028.4251,N,08353.5282,W,0.18,23.59,130620,,,D*4F
$GPRMC,141100.000,A,4028.4251,N,08353.5282,W,0.11,153.80,130620,,,D*79
$GPRMC,141101.000,A,4028.4251,N,08353.5282,W,0.06,40.61,130620,,,D*42
$GPRMC,141102.000,A,4028.4252,N,08353.5282,W,0.09,38.89,130620,,,D*44
$GPRMC,141103.000,A,4028.4252,N,08353.5282,W,0.07,40.48,130620,,,D*49
$GPRMC,141104.000,A,4028.4252,N,08353.5282,W,0.10,58.11,130620,,,D*4D
$GPRMC,141105.000,A,4028.4251,N,08353.5282,W,0.08,50.41,130620,,,D*4B
$GPRMC,141106.000,A,4028.4251,N,08353.5282,W,0.05,84.13,130620,,,D*4B
$GPRMC,141107.000,A,4028.4251,N,08353.5282,W,0.07,64.41,130620,,,D*41
$GPRMC,141108.000,A,4028.4251,N,08353.5282,W,0.07,70.49,130620,,,D*43
$GPRMC,141109.000,A,4028.4251,N,08353.5282,W,0.08,56.70,130620,,,D*43
$GPRMC,141110.000,A,4028.4251,N,08353.5282,W,0.09,55.82,130620,,,D*44
$GPRMC,141111.000,A,4028.4251,N,08353.5282,W,0.07,44.77,130620,,,D*41
$GPRMC,141112.000,A,4028.4251,N,08353.5282,W,0.09,40.66,130620,,,D*48
$GPRMC,141113.000,A,4028.4252,N,08353.5281,W,0.12,37.89,130620,,,D*42
$GPRMC,141114.000,A,4028.4252,N,08353.5281,W,0.11,38.84,130620,,,D*44
$GPRMC,141115.000,A,4028.4252,N,08353.5281,W,0.07,60.22,130620,,,D*43
$GPRMC,141116.000,A,4028.4252,N,08353.5281,W,0.07,48.94,130620,,,D*47
$GPRMC,141117.000,A,4028.4251,N,08353.5281,W,0.04,79.67,130620,,,D*48
$GPRMC,141118.000,A,4028.4251,N,08353.5281,W,0.07,77.09,130620,,,D*42
$GPRMC,141119.000,A,4028.4251,N,08353.5281,W,0.05,93.33,130620,,,D*42
$GPRMC,141120.000,A,4028.4251,N,08353.5282,W,0.05,113.19,130620,,,D*7A
$GPRMC,141121.000,A,4028.4250,N,08353.5281,W,0.23,43.48,130620,,,D*4D
$GPRMC,141122.000,A,4028.4251,N,08353.5281,W,0.15,31.15,130620,,,D*47
$GPRMC,141123.000,A,4028.4251,N,08353.5281,W,0.22,36.82,130620,,,D*4B
$GPRMC,141124.000,A,4028.4251,N,08353.5281,W,0.12,36.29,130620,,,D*4E
$GPRMC,141125.000,A,4028.4252,N,08353.5280,W,0.17,35.26,130620,,,D*44
$GPRMC,141126.000,A,4028.4253,N,08353.5279,W,0.21,37.80,130620,,,D*4B
$GPRMC,141127.000,A,4028.4254,N,08353.5279,W,0.12,34.94,130620,,,D*4B
$GPRMC,141128.000,A,4028.4254,N,08353.5279,W,0.03,80.05,130620,,,D*43
$GPRMC,141129.000,A,4028.4254,N,08353.5279,W,0.05,82.14,130620,,,D*46
$GPRMC,141130.000,A,4028.4254,N,08353.5279,W,0.07,139.94,130620,,,D*75
$GPRMC,141131.000,A,4028.4253,N,08353.5279,W,0.08,152.18,130620,,,D*75
$GPRMC,141132.000,A,4028.4253,N,08353.5280,W,0.17,181.23,130620,,,D*78
$GPRMC,141133.000,A,4028.4251,N,08353.5280,W,0.07,153.53,130620,,,D*72
$GPRMC,141134.000,A,4028.4249,N,08353.5282,W,0.02,10.96,130620,,,D*44
$GPRMC,141135.000,A,4028.4248,N,08353.5284,W,0.02,38.67,130620,,,D*46
$GPRMC,141136.000,A,4028.4246,N,08353.5286,W,0.06,48.66,130620,,,D*4B
$GPRMC,141137.000,A,4028.4245,N,08353.5288,W,0.09,48.85,130620,,,D*45
$GPRMC,141138.000,A,4028.4243,N,08353.5289,W,0.11,45.10,130620,,,D*45
$GPRMC,141139.000,A,4028.4242,N,08353.5290,W,0.08,81.93,130620,,,D*46
$GPRMC,141140.000,A,4028.4242,N,08353.5290,W,0.15,56.70,130620,,,D*43
$GPRMC,141141.000,A,4028.4242,N,08353.5290,W,0.14,60.57,130620,,,D*43
$GPRMC,141142.000,A,4028.4242,N,08353.5290,W,0.07,103.34,130620,,,D*73
$GPRMC,141143.000,A,4028.4244,N,08353.5288,W,0.02,123.89,130620,,,D*7C
$GPRMC,141144.000,A,4028.4246,N,08353.5286,W,0.08,78.82,130620,,,D*49
$GPRMC,141145.000,A,4028.4247,N,08353.5285,W,0.10,44.30,130620,,,D*45
$GPRMC,141146.000,A,4028.4249,N,08353.5284,W,0.22,41.08,130620,,,D*46
$GPRMC,141147.000,A,4028.4250,N,08353.5282,W,0.28,42.86,130620,,,D*46
$GPRMC,141148.000,A,4028.4251,N,08353.5282,W,0.11,42.15,130620,,,D*48
$GPRMC,141149.000,A,4028.4252,N,08353.5281,W,0.11,50.80,130620,,,D*46
$GPRMC,141150.000,A,4028.4253,N,08353.5280,W,0.13,48.25,130620,,,D*4A
$GPRMC,141151.000,A,4028.4253,N,08353.5280,W,0.09,66.70,130620,,,D*4C
$GPRMC,141152.000,A,4028.4253,N,08353.5280,W,0.06,85.82,130620,,,D*40
$GPRMC,141153.000,A,4028.4253,N,08353.5280,W,0.06,141.45,130620,,,D*73
$GPRMC,141154.000,A,4028.4253,N,08353.5280,W,0.08,74.62,130620,,,D*48
$GPRMC,141155.000,A,4028.4253,N,08353.5280,W,0.04,88.16,130620,,,D*45
$GPRMC,141156.000,A,4028.4253,N,08353.5280,W,0.20,53.18,130620,,,D*48
$GPRMC,141157.000,A,4028.4254,N,08353.5280,W,0.10,42.55,130620,,,D*44
$GPRMC,141158.000,A,4028.4254,N,08353.5280,W,0.12,26.17,130620,,,D*4D
$GPRMC,141159.000,A,4028.4254,N,08353.5280,W,0.13,25.89,130620,,,D*49
$GPRMC,141200.000,A,4028.4254,N,08353.5280,W,0.13,32.84,130620,,,D*4D
$GPRMC,141201.000,A,4028.4254,N,08353.5280,W,0.12,30.01,130620,,,D*42
$GPRMC,141202.000,A,4028.4255,N,08353.5280,W,0.13,34.78,130620,,,D*4B
$GPRMC,141203.000,A,4028.4255,N,08353.5280,W,0.10,40.59,130620,,,D*49
$GPRMC,141204.000,A,4028.4255,N,08353.5281,W,0.08,63.82,130620,,,D*41
$GPRMC,141205.000,A,4028.4254,N,08353.5281,W,0.06,55.31,130620,,,D*42
$GPRMC,141206.000,A,4028.4254,N,08353.5281,W,0.07,52.44,130620,,,D*45
$GPRMC,141207.000,A,4028.4254,N,08353.5282,W,0.07,52.39,130620,,,D*4D
$GPRMC,141208.000,A,4028.4254,N,08353.5282,W,0.04,50.90,130620,,,D*40
$GPRMC,141209.000,A,4028.4254,N,08353.5282,W,0.08,35.01,130620,,,D*46
$GPRMC,141210.000,A,4028.4254,N,08353.5282,W,0.08,56.37,130620,,,D*4E
$GPRMC,141211.000,A,4028.4253,N,08353.5283,W,0.06,69.97,130620,,,D*41
$GPRMC,141212.000,A,4028.4253,N,08353.5283,W,0.17,49.08,130620,,,D*46
$GPRMC,141213.000,A,4028.4253,N,08353.5283,W,0.20,49.64,130620,,,D*49
$GPRMC,141214.000,A,4028.4253,N,08353.5283,W,0.11,52.76,130620,,,D*45
$GPRMC,141215.000,A,4028.4253,N,08353.5283,W,0.12,199.52,130620,,,D*77
$GPRMC,141216.000,A,4028.4252,N,08353.5283,W,0.16,39.86,130620,,,D*43
$GPRMC,141217.000,A,4028.4253,N,08353.5284,W,0.14,39.08,130620,,,D*40
$GPRMC,141218.000,A,4028.4252,N,08353.5284,W,0.09,29.81,130620,,,D*42
$GPRMC,141219.000,A,4028.4252,N,08353.5284,W,0.03,221.84,130620,,,D*76
$GPRMC,141220.000,A,4028.4252,N,08353.5285,W,0.15,33.78,130620,,,D*48
$GPRMC,141221.000,A,4028.4252,N,08353.5285,W,0.02,0.62,130620,,,D*74
$GPRMC,141222.000,A,4028.4252,N,08353.5286,W,0.00,264.15,130620,,,D*76
$GPRMC,141223.000,A,4028.4252,N,08353.5286,W,0.19,40.51,130620,,,D*4B
$GPRMC,141224.000,A,4028.4252,N,08353.5286,W,0.18,45.31,130620,,,D*4E
$GPRMC,141225.000,A,4028.4252,N,08353.5286,W,0.11,43.91,130620,,,D*4A
$GPRMC,141226.000,A,4028.4251,N,08353.5286,W,0.05,62.41,130620,,,D*41
$GPRMC,141227.000,A,4028.4251,N,08353.5287,W,0.03,94.13,130620,,,D*49
$GPRMC,141228.000,A,4028.4251,N,08353.5287,W,0.05,70.60,130620,,,D*4E
$GPRMC,141229.000,A,4028.4250,N,08353.5287,W,0.04,77.13,130620,,,D*4C
$GPRMC,141230.000,A,4028.4250,N,08353.5288,W,0.03,78.43,130620,,,D*46
$GPRMC,141231.000,A,4028.4250,N,08353.5289,W,0.14,213.59,130620,,,D*74
$GPRMC,141232.000,A,4028.4249,N,08353.5289,W,0.08,207.27,130620,,,D*7E
$GPRMC,141233.000,A,4028.4249,N,08353.5290,W,0.02,35.51,130620,,,D*4F
$GPRMC,141234.000,A,4028.4249,N,08353.5290,W,0.06,41.44,130620,,,D*4B
$GPRMC,141235.000,A,4028.4249,N,08353.5290,W,0.03,48.31,130620,,,D*44
$GPRMC,141236.000,A,4028.4248,N,08353.5290,W,0.04,52.52,130620,,,D*4F
$GPRMC,141237.000,A,4028.4248,N,08353.5291,W,0.04,73.35,130620,,,D*4D
$GPRMC,141238.000,A,4028.4248,N,08353.5291,W,0.03,62.36,130620,,,D*46
$GPRMC,141239.000,A,4028.4248,N,08353.5291,W,0.10,58.76,130620,,,D*48
$GPRMC,141240.000,A,4028.4248,N,08353.5291,W,0.11,57.07,130620,,,D*4E
$GPRMC,141241.000,A,4028.4248,N,08353.5291,W,0.06,57.97,130620,,,D*40
$GPRMC,141242.000,A,4028.4248,N,08353.5291,W,0.08,52.54,130620,,,D*47
$GPRMC,141243.000,A,4028.4248,N,08353.5291,W,0.14,55.45,130620,,,D*4C
$GPRMC,141244.000,A,4028.4248,N,08353.5292,W,0.04,61.89,130620,,,D*4E
$GPRMC,141245.000,A,4028.4248,N,08353.5292,W,0.06,27.67,130620,,,D*4F
$GPRMC,141246.000,A,4028.4248,N,08353.5292,W,0.08,31.86,130620,,,D*4A
$GPRMC,141247.000,A,4028.4248,N,08353.5292,W,0.09,40.07,130620,,,D*45
$GPRMC,141248.000,A,4028.4248,N,08353.5292,W,0.14,45.77,130620,,,D*44
$GPRMC,141249.000,A,4028.4248,N,08353.5292,W,0.03,71.08,130620,,,D*4C
$GPRMC,141250.000,A,4028.4248,N,08353.5292,W,0.09,49.98,130620,,,D*4C
$GPRMC,141251.000,A,4028.4248,N,08353.5292,W,0.08,66.10,130620,,,D*41
$GPRMC,141252.000,A,4028.4248,N,08353.5292,W,0.05,70.64,130620,,,D*4B
$GPRMC,141253.000,A,4028.4248,N,08353.5292,W,0.03,56.58,130620,,,D*47
$GPRMC,141254.000,A,4028.4248,N,08353.5293,W,0.03,114.02,130620,,,D*79
$GPRMC,141255.000,A,4028.4248,N,08353.5293,W,0.04,47.91,130620,,,D*42
$GPRMC,141256.000,A,4028.4248,N,08353.5293,W,0.03,46.95,130620,,,D*43
$GPRMC,141257.000,A,4028.4248,N,08353.5293,W,0.11,55.06,130620,,,D*49
$GPRMC,141258.000,A,4028.4248,N,08353.5293,W,0.21,46.75,130620,,,D*43
$GPRMC,141259.000,A,4028.4248,N,08353.5293,W,0.16,49.16,130620,,,D*4C
$GPRMC,141300.000,A,4028.4248,N,08353.5293,W,0.09,67.60,130620,,,D*42
$GPRMC,141301.000,A,4028.4248,N,08353.5293,W,0.06,98.52,130620,,,D*4D
$GPRMC,141302.000,A,4028.4248,N,08353.5293,W,0.09,56.96,130620,,,D*4B
$GPRMC,141303.000,A,4028.4248,N,08353.5292,W,0.06,75.27,130620,,,D*4F
$GPRMC,141304.000,A,4028.4248,N,08353.5293,W,0.02,64.80,130620,,,D*40
$GPRMC,141305.000,A,4028.4248,N,08353.5293,W,0.04,55.14,130620,,,D*48
$GPRMC,141306.000,A,4028.4248,N,08353.5293,W,0.05,52.60,130620,,,D*4E
$GPRMC,141307.000,A,4028.4248,N,08353.5293,W,0.02,52.64,130620,,,D*4C
$GPRMC,141308.000,A,4028.4248,N,08353.5293,W,0.15,41.74,130620,,,D*46
$GPRMC,141309.000,A,4028.4248,N,08353.5292,W,0.30,42.15,130620,,,D*45
$GPRMC,141310.000,A,4028.4249,N,08353.5292,W,0.29,45.36,130620,,,D*42
$GPRMC,141311.000,A,4028.4249,N,08353.5292,W,0.07,93.08,130620,,,D*49
$GPRMC,141312.000,A,4028.4249,N,08353.5291,W,0.15,64.90,130620,,,D*43
$GPRMC,141313.000,A,4028.4248,N,08353.5291,W,0.04,105.15,130620,,,D*78
$GPRMC,141314.000,A,4028.4248,N,08353.5291,W,0.09,160.88,130620,,,D*75
$GPRMC,141315.000,A,4028.4248,N,08353.5292,W,0.17,196.80,130620,,,D*79
$GPRMC,141316.000,A,4028.4247,N,08353.5292,W,0.10,226.80,130620,,,D*7A
$GPRMC,141317.000,A,4028.4247,N,08353.5292,W,0.05,227.76,130620,,,D*77
$GPRMC,141318.000,A,4028.4247,N,08353.5292,W,0.02,18.20,130620,,,D*42
$GPRMC,141319.000,A,4028.4247,N,08353.5293,W,0.04,19.16,130620,,,D*40
$GPRMC,141320.000,A,4028.4247,N,08353.5293,W,0.01,4.72,130620,,,D*71
$GPRMC,141321.000,A,4028.4247,N,08353.5293,W,0.11,38.63,130620,,,D*4E
$GPRMC,141322.000,A,4028.4247,N,08353.5293,W,0.15,49.11,130620,,,D*4A
$GPRMC,141323.000,A,4028.4247,N,08353.5292,W,0.13,54.10,130620,,,D*41
$GPRMC,141324.000,A,4028.4247,N,08353.5292,W,0.09,65.52,130620,,,D*49
$GPRMC,141325.000,A,4028.4247,N,08353.5292,W,0.14,51.51,130620,,,D*40
$GPRMC,141326.000,A,4028.4248,N,08353.5292,W,0.12,52.07,130620,,,D*4A
$GPRMC,141327.000,A,4028.4248,N,08353.5292,W,0.05,84.53,130620,,,D*47
$GPRMC,141328.000,A,4028.4247,N,08353.5292,W,0.02,153.07,130620,,,D*7A
$GPRMC,141329.000,A,4028.4247,N,08353.5292,W,0.03,60.63,130620,,,D*49
$GPRMC,141330.000,A,4028.4247,N,08353.5292,W,0.02,55.09,130620,,,D*4A
$GPRMC,141331.000,A,4028.4247,N,08353.5292,W,0.07,36.77,130620,,,D*42
$GPRMC,141332.000,A,4028.4247,N,08353.5292,W,0.03,60.64,130620,,,D*44
$GPRMC,141333.000,A,4028.4247,N,08353.5292,W,0.17,45.29,130620,,,D*4E
$GPRMC,141334.000,A,4028.4247,N,08353.5292,W,0.13,64.49,130620,,,D*48
$GPRMC,141335.000,A,4028.4247,N,08353.5292,W,0.13,67.89,130620,,,D*46
$GPRMC,141336.000,A,4028.4247,N,08353.5292,W,0.09,93.98,130620,,,D*45
$GPRMC,141337.000,A,4028.4246,N,08353.5292,W,0.13,64.65,130620,,,D*44
$GPRMC,141338.000,A,4028.4246,N,08353.5292,W,0.08,77.77,130620,,,D*40
$GPRMC,141339.000,A,4028.4246,N,08353.5291,W,0.08,76.75,130620,,,D*41
$GPRMC,141340.000,A,4028.4246,N,08353.5292,W,0.01,41.78,130620,,,D*4C
$GPRMC,141341.000,A,4028.4246,N,08353.5292,W,0.05,3.64,130620,,,D*72
$GPRMC,141342.000,A,4028.4246,N,08353.5292,W,0.03,27.49,130620,,,D*4E
$GPRMC,141343.000,A,4028.4245,N,08353.5292,W,0.04,19.13,130620,,,D*49
$GPRMC,141344.000,A,4028.4245,N,08353.5293,W,0.03,38.22,130620,,,D*49
$GPRMC,141345.000,A,4028.4245,N,08353.5293,W,0.09,39.56,130620,,,D*40
$GPRMC,141346.000,A,4028.4245,N,08353.5293,W,0.20,57.27,130620,,,D*46
$GPRMC,141347.000,A,4028.4246,N,08353.5292,W,0.14,53.54,130620,,,D*42
$GPRMC,141348.000,A,4028.4244,N,08353.5293,W,0.09,77.27,130620,,,D*40
$GPRMC,141349.000,A,4028.4244,N,08353.5293,W,0.09,82.99,130620,,,D*4E
$GPRMC,141350.000,A,4028.4244,N,08353.5293,W,0.10,75.91,130620,,,D*4E
$GPRMC,141351.000,A,4028.4244,N,08353.5293,W,0.06,120.26,130620,,,D*75
$GPRMC,141352.000,A,4028.4244,N,08353.5293,W,0.06,23.24,130620,,,D*46
$GPRMC,141353.000,A,4028.4244,N,08353.5293,W,0.04,19.79,130620,,,D*44
$GPRMC,141354.000,A,4028.4244,N,08353.5293,W,0.08,29.57,130620,,,D*40
$GPRMC,141355.000,A,4028.4244,N,08353.5293,W,0.06,36.42,130620,,,D*45
$GPRMC,141356.000,A,4028.4244,N,08353.5293,W,0.08,22.34,130620,,,D*4C
$GPRMC,141357.000,A,4028.4244,N,08353.5293,W,0.13,39.47,130620,,,D*49
$GPRMC,141358.000,A,4028.4244,N,08353.5293,W,0.11,67.28,130620,,,D*46
$GPRMC,141359.000,A,4028.4244,N,08353.5293,W,0.13,61.19,130620,,,D*41
$GPRMC,141400.000,A,4028.4244,N,08353.5293,W,0.12,66.13,130620,,,D*46
$GPRMC,141401.000,A,4028.4244,N,08353.5293,W,0.10,69.03,130620,,,D*4B
$GPRMC,141402.000,A,4028.4244,N,08353.5293,W,0.12,66.03,130620,,,D*45
$GPRMC,141403.000,A,4028.4244,N,08353.5293,W,0.06,87.16,130620,,,D*4A
$GPRMC,141404.000,A,4028.4244,N,08353.5293,W,0.01,3.21,130620,,,D*72
$GPRMC,141405.000,A,4028.4243,N,08353.5293,W,0.02,0.18,130620,,,D*7E
$GPRMC,141406.000,A,4028.4243,N,08353.5293,W,0.04,19.71,130620,,,D*4C
$GPRMC,141407.000,A,4028.4243,N,08353.5293,W,0.03,20.18,130620,,,D*4F
$GPRMC,141408.000,A,4028.4243,N,08353.5294,W,0.02,31.47,130620,,,D*4C
$GPRMC,141409.000,A,4028.4243,N,08353.5294,W,0.09,38.64,130620,,,D*4E
$GPRMC,141410.000,A,4028.4243,N,08353.5294,W,0.11,67.28,130620,,,D*4D
$GPRMC,141411.000,A,4028.4243,N,08353.5294,W,0.10,68.13,130620,,,D*4A
$GPRMC,141412.000,A,4028.4243,N,08353.5293,W,0.12,68.93,130620,,,D*44
$GPRMC,141413.000,A,4028.4243,N,08353.5293,W,0.11,71.34,130620,,,D*43
$GPRMC,141414.000,A,4028.4243,N,08353.5293,W,0.11,65.70,130620,,,D*41
$GPRMC,141415.000,A,4028.4243,N,08353.5293,W,0.07,92.87,130620,,,D*47
$GPRMC,141416.000,A,4028.4243,N,08353.5293,W,0.00,120.92,130620,,,D*7F
$GPRMC,141417.000,A,4028.4242,N,08353.5293,W,0.03,347.91,130620,,,D*7C
$GPRMC,141418.000,A,4028.4242,N,08353.5294,W,0.01,61.35,130620,,,D*4F
$GPRMC,141419.000,A,4028.4242,N,08353.5294,W,0.02,38.69,130620,,,D*48
$GPRMC,141420.000,A,4028.4242,N,08353.5294,W,0.01,91.73,130620,,,D*49
$GPRMC,141421.000,A,4028.4242,N,08353.5294,W,0.07,36.21,130620,,,D*44
$GPRMC,141422.000,A,4028.4242,N,08353.5294,W,0.08,59.24,130620,,,D*44
$GPRMC,141423.000,A,4028.4242,N,08353.5294,W,0.07,63.85,130620,,,D*48
$GPRMC,141424.000,A,4028.4242,N,08353.5294,W,0.11,52.73,130620,,,D*43
$GPRMC,141425.000,A,4028.4242,N,08353.5294,W,0.08,67.26,130620,,,D*4C
$GPRMC,141426.000,A,4028.4242,N,08353.5294,W,0.08,61.65,130620,,,D*4E
$GPRMC,141427.000,A,4028.4242,N,08353.5294,W,0.08,72.78,130620,,,D*41
$GPRMC,141428.000,A,4028.4242,N,08353.5294,W,0.04,29.96,130620,,,D*4C
$GPRMC,141429.000,A,4028.4242,N,08353.5294,W,0.04,42.73,130620,,,D*4B
$GPRMC,141430.000,A,4028.4242,N,08353.5294,W,0.00,10.84,130620,,,D*48
$GPRMC,141431.000,A,4028.4242,N,08353.5295,W,0.01,164.57,130620,,,D*75
$GPRMC,141432.000,A,4028.4242,N,08353.5295,W,0.03,31.61,130620,,,D*40
$GPRMC,141433.000,A,4028.4242,N,08353.5295,W,0.03,346.73,130620,,,D*71
$GPRMC,141434.000,A,4028.4242,N,08353.5295,W,0.07,71.48,130620,,,D*4D
$GPRMC,141435.000,A,4028.4242,N,08353.5295,W,0.07,66.19,130620,,,D*4E
$GPRMC,141436.000,A,4028.4242,N,08353.5295,W,0.08,65.33,130620,,,D*49
$GPRMC,141437.000,A,4028.4242,N,08353.5295,W,0.07,90.59,130620,,,D*41
$GPRMC,141438.000,A,4028.4242,N,08353.5295,W,0.09,53.29,130620,,,D*48
$GPRMC,141439.000,A,4028.4242,N,08353.5295,W,0.07,98.16,130620,,,D*4C
$GPRMC,141440.000,A,4028.4241,N,08353.5295,W,0.04,40.77,130620,,,D*40
$GPRMC,141441.000,A,4028.4241,N,08353.5295,W,0.03,33.19,130620,,,D*4A
$GPRMC,141442.000,A,4028.4241,N,08353.5296,W,0.02,341.76,130620,,,D*74
$GPRMC,141443.000,A,4028.4241,N,08353.5296,W,0.03,26.54,130620,,,D*46
$GPRMC,141444.000,A,4028.4241,N,08353.5296,W,0.02,52.76,130620,,,D*43
$GPRMC,141445.000,A,4028.4241,N,08353.5296,W,0.08,13.59,130620,,,D*40
$GPRMC,141446.000,A,4028.4242,N,08353.5296,W,0.08,47.86,130620,,,D*43
$GPRMC,141447.000,A,4028.4242,N,08353.5296,W,0.09,73.48,130620,,,D*46
$GPRMC,141448.000,A,4028.4242,N,08353.5296,W,0.10,46.70,130620,,,D*4C
$GPRMC,141449.000,A,4028.4242,N,08353.5296,W,0.07,65.73,130620,,,D*49
$GPRMC,141450.000,A,4028.4242,N,08353.5296,W,0.09,70.32,130620,,,D*4E
$GPRMC,141451.000,A,4028.4242,N,08353.5296,W,0.08,77.39,130620,,,D*42
$GPRMC,141452.000,A,4028.4242,N,08353.5296,W,0.03,46.16,130620,,,D*45
$GPRMC,141453.000,A,4028.4242,N,08353.5296,W,0.05,48.90,130620,,,D*42
$GPRMC,141454.000,A,4028.4242,N,08353.5296,W,0.04,15.39,130620,,,D*4F
$GPRMC,141455.000,A,4028.4242,N,08353.5297,W,0.02,67.70,130620,,,D*41
$GPRMC,141456.000,A,4028.4242,N,08353.5297,W,0.02,3.07,130620,,,D*70
$GPRMC,141457.000,A,4028.4242,N,08353.5297,W,0.06,7.89,130620,,,D*77
$GPRMC,141458.000,A,4028.4242,N,08353.5297,W,0.08,63.87,130620,,,D*4A
$GPRMC,141459.000,A,4028.4242,N,08353.5297,W,0.07,58.84,130620,,,D*4F
$GPRMC,141500.000,A,4028.4242,N,08353.5297,W,0.09,62.65,130620,,,D*4A
$GPRMC,141501.000,A,4028.4242,N,08353.5297,W,0.08,62.28,130620,,,D*43
$GPRMC,141502.000,A,4028.4242,N,08353.5297,W,0.08,61.96,130620,,,D*46
$GPRMC,141503.000,A,4028.4242,N,08353.5297,W,0.08,84.77,130620,,,D*43
$GPRMC,141504.000,A,4028.4242,N,08353.5297,W,0.08,199.97,130620,,,D*77
$GPRMC,141505.000,A,4028.4241,N,08353.5297,W,0.05,244.57,130620,,,D*77
$GPRMC,141506.000,A,4028.4241,N,08353.5298,W,0.02,36.03,130620,,,D*4A
$GPRMC,141507.000,A,4028.4241,N,08353.5298,W,0.04,26.35,130620,,,D*49
$GPRMC,141508.000,A,4028.4241,N,08353.5298,W,0.03,4.23,130620,,,D*76
$GPRMC,141509.000,A,4028.4241,N,08353.5298,W,0.03,355.51,130620,,,D*75
$GPRMC,141510.000,A,4028.4241,N,08353.5298,W,0.08,64.29,130620,,,D*48
$GPRMC,141511.000,A,4028.4241,N,08353.5298,W,0.08,63.53,130620,,,D*43
$GPRMC,141512.000,A,4028.4241,N,08353.5298,W,0.08,57.85,130620,,,D*4C
$GPRMC,141513.000,A,4028.4242,N,08353.5298,W,0.09,62.39,130620,,,D*4E
$GPRMC,141514.000,A,4028.4242,N,08353.5298,W,0.08,57.95,130620,,,D*48
$GPRMC,141515.000,A,4028.4242,N,08353.5297,W,0.09,108.78,130620,,,D*7F
$GPRMC,141516.000,A,4028.4242,N,08353.5297,W,0.01,356.03,130620,,,D*71
$GPRMC,141517.000,A,4028.4242,N,08353.5298,W,0.02,50.86,130620,,,D*44
$GPRMC,141518.000,A,4028.4242,N,08353.5298,W,0.02,9.06,130620,,,D*7F
$GPRMC,141519.000,A,4028.4242,N,08353.5298,W,0.02,357.68,130620,,,D*7E
$GPRMC,141520.000,A,4028.4242,N,08353.5298,W,0.01,48.35,130620,,,D*42
$GPRMC,141521.000,A,4028.4242,N,08353.5298,W,0.07,6.81,130620,,,D*70
$GPRMC,141522.000,A,4028.4242,N,08353.5298,W,0.08,68.89,130620,,,D*4C
$GPRMC,141523.000,A,4028.4242,N,08353.5298,W,0.10,63.95,130620,,,D*42
$GPRMC,141524.000,A,4028.4242,N,08353.5297,W,0.09,57.92,130620,,,D*42
$GPRMC,141525.000,A,4028.4242,N,08353.5297,W,0.09,71.70,130620,,,D*4B
$GPRMC,141526.000,A,4028.4243,N,08353.5297,W,0.10,49.00,130620,,,D*4D
$GPRMC,141527.000,A,4028.4243,N,08353.5297,W,0.08,93.68,130620,,,D*4C
$GPRMC,141528.000,A,4028.4243,N,08353.5297,W,0.03,170.48,130620,,,D*76
$GPRMC,141529.000,A,4028.4243,N,08353.5297,W,0.02,68.02,130620,,,D*40
$GPRMC,141530.000,A,4028.4243,N,08353.5297,W,0.01,352.46,130620,,,D*71
$GPRMC,141531.000,A,4028.4242,N,08353.5297,W,0.10,224.92,130620,,,D*78
$GPRMC,141532.000,A,4028.4242,N,08353.5298,W,0.14,212.41,130620,,,D*7B
$GPRMC,141533.000,A,4028.4242,N,08353.5298,W,0.10,23.32,130620,,,D*4A
$GPRMC,141534.000,A,4028.4242,N,08353.5297,W,0.09,73.41,130620,,,D*4B
$GPRMC,141535.000,A,4028.4242,N,08353.5297,W,0.08,78.81,130620,,,D*4C
$GPRMC,141536.000,A,4028.4242,N,08353.5297,W,0.02,228.58,130620,,,D*76
$GPRMC,141537.000,A,4028.4242,N,08353.5297,W,0.10,172.46,130620,,,D*77
$GPRMC,141538.000,A,4028.4242,N,08353.5296,W,0.05,201.56,130620,,,D*7B
$GPRMC,141539.000,A,4028.4242,N,08353.5296,W,0.20,195.33,130620,,,D*70
$GPRMC,141540.000,A,4028.4241,N,08353.5297,W,0.09,207.04,130620,,,D*7B
$GPRMC,141541.000,A,4028.4241,N,08353.5296,W,0.04,58.26,130620,,,D*4E
$GPRMC,141542.000,A,4028.4241,N,08353.5296,W,0.07,223.15,130620,,,D*70
$GPRMC,141543.000,A,4028.4241,N,08353.5297,W,0.02,355.53,130620,,,D*77
$GPRMC,141544.000,A,4028.4241,N,08353.5297,W,0.16,210.78,130620,,,D*7C
$GPRMC,141545.000,A,4028.4241,N,08353.5297,W,0.15,17.80,130620,,,D*4C
$GPRMC,141546.000,A,4028.4242,N,08353.5296,W,0.16,57.81,130620,,,D*4B
$GPRMC,141547.000,A,4028.4242,N,08353.5296,W,0.03,66.24,130620,,,D*43
$GPRMC,141548.000,A,4028.4242,N,08353.5296,W,0.08,192.46,130620,,,D*79
$GPRMC,141549.000,A,4028.4242,N,08353.5296,W,0.03,134.63,130620,,,D*78
$GPRMC,141550.000,A,4028.4241,N,08353.5296,W,0.08,198.77,130620,,,D*7B
$GPRMC,141551.000,A,4028.4241,N,08353.5296,W,0.08,82.81,130620,,,D*49
$GPRMC,141552.000,A,4028.4241,N,08353.5296,W,0.05,46.83,130620,,,D*4D
$GPRMC,141553.000,A,4028.4242,N,08353.5296,W,0.09,46.43,130620,,,D*4F
$GPRMC,141554.000,A,4028.4242,N,08353.5295,W,0.17,49.01,130620,,,D*4D
$GPRMC,141555.000,A,4028.4242,N,08353.5295,W,0.07,327.14,130620,,,D*72
$GPRMC,141556.000,A,4028.4242,N,08353.5295,W,0.06,63.02,130620,,,D*44
$GPRMC,141557.000,A,4028.4242,N,08353.5295,W,0.04,278.48,130620,,,D*71
$GPRMC,141558.000,A,4028.4242,N,08353.5295,W,0.08,3.74,130620,,,D*73
$GPRMC,141559.000,A,4028.4242,N,08353.5295,W,0.05,72.13,130620,,,D*48
$GPRMC,141600.000,A,4028.4243,N,08353.5295,W,0.06,59.46,130620,,,D*4C
$GPRMC,141601.000,A,4028.4243,N,08353.5295,W,0.03,83.82,130620,,,D*47
$GPRMC,141602.000,A,4028.4243,N,08353.5295,W,0.07,65.83,130620,,,D*49
$GPRMC,141603.000,A,4028.4243,N,08353.5295,W,0.11,90.25,130620,,,D*49
$GPRMC,141604.000,A,4028.4243,N,08353.5294,W,0.09,55.87,130620,,,D*47
$GPRMC,141605.000,A,4028.4243,N,08353.5294,W,0.08,60.11,130620,,,D*4E
$GPRMC,141606.000,A,4028.4243,N,08353.5294,W,0.08,46.74,130620,,,D*4A
$GPRMC,141607.000,A,4028.4243,N,08353.5294,W,0.07,50.76,130620,,,D*41
$GPRMC,141608.000,A,4028.4243,N,08353.5294,W,0.06,60.07,130620,,,D*4A
$GPRMC,141609.000,A,4028.4243,N,08353.5294,W,0.05,18.36,130620,,,D*45
$GPRMC,141606.000,A,4028.4243,N,08353.5294,W,0.18,44.12,130620,,,D*49
$GPRMC,141607.000,A,4028.4243,N,08353.5294,W,0.05,143.14,130620,,,D*74
$GPRMC,141608.000,A,4028.4243,N,08353.5293,W,0.06,115.43,130620,,,D*7E
$GPRMC,141609.000,A,4028.4243,N,08353.5293,W,0.08,74.32,130620,,,D*41
$GPRMC,141610.000,A,4028.4243,N,08353.5293,W,0.06,78.25,130620,,,D*4D
$GPRMC,141611.000,A,4028.4243,N,08353.5293,W,0.12,99.46,130620,,,D*43
$GPRMC,141612.000,A,4028.4243,N,08353.5293,W,0.06,107.86,130620,,,D*7F
$GPRMC,141613.000,A,4028.4243,N,08353.5293,W,0.04,124.62,130620,,,D*77
$GPRMC,141614.000,A,4028.4243,N,08353.5293,W,0.04,88.76,130620,,,D*42
$GPRMC,141615.000,A,4028.4243,N,08353.5293,W,0.04,74.65,130620,,,D*42
$GPRMC,141616.000,A,4028.4243,N,08353.5293,W,0.05,103.36,130620,,,D*77
$GPRMC,141617.000,A,4028.4243,N,08353.5293,W,0.03,336.02,130620,,,D*73
$GPRMC,141618.000,A,4028.4243,N,08353.5293,W,0.10,48.25,130620,,,D*41
$GPRMC,141619.000,A,4028.4243,N,08353.5293,W,0.05,55.48,130620,,,D*43
$GPRMC,141620.000,A,4028.4243,N,08353.5293,W,0.05,54.62,130620,,,D*40
$GPRMC,141621.000,A,4028.4243,N,08353.5293,W,0.05,44.82,130620,,,D*4E
$GPRMC,141622.000,A,4028.4243,N,08353.5293,W,0.05,61.93,130620,,,D*4A
$GPRMC,141623.000,A,4028.4243,N,08353.5293,W,0.08,84.64,130620,,,D*45
$GPRMC,141624.000,A,4028.4243,N,08353.5293,W,0.05,112.00,130620,,,D*73
$GPRMC,141625.000,A,4028.4242,N,08353.5293,W,0.07,101.23,130620,,,D*72
$GPRMC,141626.000,A,4028.4242,N,08353.5293,W,0.06,104.27,130620,,,D*71
$GPRMC,141627.000,A,4028.4242,N,08353.5293,W,0.08,100.53,130620,,,D*79
$GPRMC,141628.000,A,4028.4242,N,08353.5292,W,0.07,101.59,130620,,,D*73
$GPRMC,141629.000,A,4028.4242,N,08353.5293,W,0.02,55.01,130620,,,D*4B
$GPRMC,141630.000,A,4028.4242,N,08353.5292,W,0.08,48.15,130620,,,D*41
$GPRMC,141631.000,A,4028.4242,N,08353.5292,W,0.04,61.08,130620,,,D*4B
$GPRMC,141632.000,A,4028.4242,N,08353.5292,W,0.04,57.01,130620,,,D*44
$GPRMC,141633.000,A,4028.4243,N,08353.5292,W,0.04,57.86,130620,,,D*4B
$GPRMC,141634.000,A,4028.4243,N,08353.5292,W,0.09,183.31,130620,,,D*75
$GPRMC,141635.000,A,4028.4243,N,08353.5292,W,0.09,72.86,130620,,,D*47
$GPRMC,141636.000,A,4028.4243,N,08353.5291,W,0.06,120.49,130620,,,D*7D
$GPRMC,141637.000,A,4028.4243,N,08353.5291,W,0.06,96.72,130620,,,D*48
$GPRMC,141638.000,A,4028.4243,N,08353.5291,W,0.07,103.11,130620,,,D*7E
$GPRMC,141639.000,A,4028.4243,N,08353.5291,W,0.06,89.59,130620,,,D*41
$GPRMC,141640.000,A,4028.4243,N,08353.5291,W,0.06,100.60,130620,,,D*75
$GPRMC,141641.000,A,4028.4243,N,08353.5291,W,0.04,70.15,130620,,,D*42
$GPRMC,141642.000,A,4028.4243,N,08353.5291,W,0.06,60.03,130620,,,D*45
$GPRMC,141643.000,A,4028.4243,N,08353.5291,W,0.04,54.26,130620,,,D*46
$GPRMC,141644.000,A,4028.4243,N,08353.5290,W,0.05,52.19,130620,,,D*4B
$GPRMC,141645.000,A,4028.4244,N,08353.5290,W,0.05,63.79,130620,,,D*49
$GPRMC,141646.000,A,4028.4244,N,08353.5290,W,0.05,73.98,130620,,,D*44
$GPRMC,141647.000,A,4028.4244,N,08353.5290,W,0.07,74.03,130620,,,D*42
$GPRMC,141648.000,A,4028.4244,N,08353.5289,W,0.06,142.96,130620,,,D*7C
$GPRMC,141649.000,A,4028.4244,N,08353.5289,W,0.08,90.63,130620,,,D*47
$GPRMC,141650.000,A,4028.4244,N,08353.5289,W,0.08,91.61,130620,,,D*4C
$GPRMC,141651.000,A,4028.4244,N,08353.5289,W,0.06,108.26,130620,,,D*71
$GPRMC,141652.000,A,4028.4244,N,08353.5289,W,0.07,109.55,130620,,,D*76
$GPRMC,141653.000,A,4028.4244,N,08353.5288,W,0.12,70.11,130620,,,D*4D
$GPRMC,141654.000,A,4028.4244,N,08353.5288,W,0.04,82.59,130620,,,D*4C
$GPRMC,141655.000,A,4028.4244,N,08353.5288,W,0.05,102.14,130620,,,D*7C
$GPRMC,141656.000,A,4028.4244,N,08353.5289,W,0.06,113.35,130620,,,D*7E
$GPRMC,141657.000,A,4028.4243,N,08353.5289,W,0.09,81.03,130620,,,D*48
$GPRMC,141658.000,A,4028.4243,N,08353.5289,W,0.08,89.55,130620,,,D*4D
$GPRMC,141659.000,A,4028.4242,N,08353.5289,W,0.05,79.93,130620,,,D*45
$GPRMC,141700.000,A,4028.4242,N,08353.5290,W,0.01,220.36,130620,,,D*75
$GPRMC,141701.000,A,4028.4241,N,08353.5290,W,0.02,86.09,130620,,,D*46
$GPRMC,141702.000,A,4028.4241,N,08353.5291,W,0.04,50.69,130620,,,D*4F
$GPRMC,141703.000,A,4028.4241,N,08353.5291,W,0.00,1.79,130620,,,D*7F
$GPRMC,141704.000,A,4028.4240,N,08353.5291,W,0.01,103.11,130620,,,D*75
$GPRMC,141705.000,A,4028.4240,N,08353.5292,W,0.04,66.96,130620,,,D*4F
$GPRMC,141706.000,A,4028.4240,N,08353.5291,W,0.11,64.48,130620,,,D*4A
$GPRMC,141707.000,A,4028.4240,N,08353.5291,W,0.05,99.41,130620,,,D*45
$GPRMC,141708.000,A,4028.4240,N,08353.5291,W,0.08,75.24,130620,,,D*46
$GPRMC,141709.000,A,4028.4240,N,08353.5291,W,0.08,80.93,130620,,,D*41
$GPRMC,141710.000,A,4028.4240,N,08353.5291,W,0.08,75.71,130620,,,D*4F
$GPRMC,141711.000,A,4028.4240,N,08353.5291,W,0.05,104.20,130620,,,D*70
$GPRMC,141712.000,A,4028.4240,N,08353.5291,W,0.03,46.25,130620,,,D*47
$GPRMC,141713.000,A,4028.4239,N,08353.5291,W,0.00,250.74,130620,,,D*7A
$GPRMC,141714.000,A,4028.4239,N,08353.5291,W,0.01,62.48,130620,,,D*40
$GPRMC,141715.000,A,4028.4239,N,08353.5291,W,0.03,49.17,130620,,,D*40
$GPRMC,141716.000,A,4028.4239,N,08353.5291,W,0.01,88.01,130620,,,D*4B
$GPRMC,141717.000,A,4028.4239,N,08353.5291,W,0.07,52.67,130620,,,D*4B
$GPRMC,141718.000,A,4028.4239,N,08353.5291,W,0.09,79.33,130620,,,D*42
$GPRMC,141719.000,A,4028.4240,N,08353.5291,W,0.08,77.66,130620,,,D*42
$GPRMC,141720.000,A,4028.4240,N,08353.5290,W,0.07,88.23,130620,,,D*47
$GPRMC,141721.000,A,4028.4240,N,08353.5290,W,0.07,88.22,130620,,,D*47
$GPRMC,141722.000,A,4028.4240,N,08353.5290,W,0.06,65.76,130620,,,D*47
$GPRMC,141723.000,A,4028.4240,N,08353.5290,W,0.07,86.90,130620,,,D*42
$GPRMC,141724.000,A,4028.4240,N,08353.5290,W,0.01,38.31,130620,,,D*4D
$GPRMC,141725.000,A,4028.4240,N,08353.5290,W,0.02,17.90,130620,,,D*49
$GPRMC,141726.000,A,4028.4240,N,08353.5290,W,0.02,93.12,130620,,,D*4C
$GPRMC,141727.000,A,4028.4239,N,08353.5290,W,0.03,66.75,130620,,,D*49
$GPRMC,141728.000,A,4028.4240,N,08353.5290,W,0.04,23.64,130620,,,D*4E
$GPRMC,141729.000,A,4028.4241,N,08353.5290,W,0.09,340.71,130620,,,D*71
$GPRMC,141730.000,A,4028.4241,N,08353.5290,W,0.08,87.78,130620,,,D*49
$GPRMC,141731.000,A,4028.4242,N,08353.5290,W,0.39,322.32,130620,,,D*7B
$GPRMC,141732.000,A,4028.4245,N,08353.5292,W,1.14,315.92,130620,,,D*7D
$GPRMC,141733.000,A,4028.4248,N,08353.5294,W,0.90,314.80,130620,,,D*78
$GPRMC,141734.000,A,4028.4250,N,08353.5295,W,0.57,317.60,130620,,,D*71
$GPRMC,141735.000,A,4028.4252,N,08353.5297,W,0.74,326.32,130620,,,D*74
$GPRMC,141736.000,A,4028.4254,N,08353.5299,W,0.89,319.13,130620,,,D*72
$GPRMC,141737.000,A,4028.4256,N,08353.5301,W,1.14,322.13,130620,,,D*7C
$GPRMC,141738.000,A,4028.4259,N,08353.5304,W,1.41,328.32,130620,,,D*70
$GPRMC,141739.000,A,4028.4263,N,08353.5306,W,1.33,334.44,130620,,,D*73
$GPRMC,141740.000,A,4028.4266,N,08353.5308,W,1.29,340.70,130620,,,D*79
$GPRMC,141741.000,A,4028.4269,N,08353.5309,W,1.37,346.51,130620,,,D*7C
$GPRMC,141742.000,A,4028.4273,N,08353.5310,W,1.46,359.89,130620,,,D*71
$GPRMC,141743.000,A,4028.4277,N,08353.5310,W,1.66,5.66,130620,,,D*7D
$GPRMC,141744.000,A,4028.4282,N,08353.5309,W,1.69,11.43,130620,,,D*45
$GPRMC,141745.000,A,4028.4286,N,08353.5308,W,1.61,12.85,130620,,,D*40
$GPRMC,141746.000,A,4028.4291,N,08353.5306,W,1.72,21.31,130620,,,D*46
$GPRMC,141747.000,A,4028.4295,N,08353.5304,W,1.45,23.98,130620,,,D*44
$GPRMC,141748.000,A,4028.4299,N,08353.5301,W,1.89,25.59,130620,,,D*49
$GPRMC,141749.000,A,4028.4304,N,08353.5298,W,1.98,27.47,130620,,,D*41
$GPRMC,141750.000,A,4028.4310,N,08353.5294,W,2.29,27.23,130620,,,D*4B
$GPRMC,141751.000,A,4028.4315,N,08353.5291,W,2.06,26.44,130620,,,D*47
$GPRMC,141752.000,A,4028.4320,N,08353.5288,W,1.77,25.34,130620,,,D*4B
$GPRMC,141753.000,A,4028.4325,N,08353.5285,W,1.61,26.81,130620,,,D*48
$GPRMC,141754.000,A,4028.4329,N,08353.5283,W,1.99,22.17,130620,,,D*49
$GPRMC,141755.000,A,4028.4335,N,08353.5281,W,2.05,21.72,130620,,,D*41
$GPRMC,141756.000,A,4028.4339,N,08353.5279,W,1.61,20.04,130620,,,D*48
$GPRMC,141757.000,A,4028.4344,N,08353.5277,W,1.60,18.10,130620,,,D*42
$GPRMC,141758.000,A,4028.4348,N,08353.5275,W,1.63,14.48,130620,,,D*41
$GPRMC,141759.000,A,4028.4353,N,08353.5274,W,1.59,15.00,130620,,,D*4F
$GPRMC,141800.000,A,4028.4357,N,08353.5272,W,1.55,10.39,130620,,,D*4D
$GPRMC,141801.000,A,4028.4362,N,08353.5271,W,1.44,9.39,130620,,,D*71
$GPRMC,141802.000,A,4028.4367,N,08353.5270,W,1.67,12.09,130620,,,D*4E
$GPRMC,141803.000,A,4028.4373,N,08353.5268,W,2.15,10.71,130620,,,D*48
$GPRMC,141804.000,A,4028.4379,N,08353.5267,W,2.13,5.19,130620,,,D*76
$GPRMC,141805.000,A,4028.4386,N,08353.5266,W,2.20,3.30,130620,,,D*7B
$GPRMC,141806.000,A,4028.4393,N,08353.5266,W,2.10,2.23,130620,,,D*7C
$GPRMC,141807.000,A,4028.4399,N,08353.5265,W,2.03,2.06,130620,,,D*71
$GPRMC,141808.000,A,4028.4405,N,08353.5265,W,2.03,2.40,130620,,,D*7E
$GPRMC,141809.000,A,4028.4411,N,08353.5265,W,2.02,0.23,130620,,,D*7C
$GPRMC,141810.000,A,4028.4417,N,08353.5264,W,2.23,4.57,130620,,,D*77
$GPRMC,141811.000,A,4028.4424,N,08353.5263,W,2.36,7.28,130620,,,D*7E
$GPRMC,141812.000,A,4028.4430,N,08353.5263,W,2.32,4.29,130620,,,D*7E
$GPRMC,141813.000,A,4028.4437,N,08353.5262,W,2.14,3.37,130620,,,D*75
$GPRMC,141814.000,A,4028.4443,N,08353.5262,W,1.99,4.27,130620,,,D*71
$GPRMC,141815.000,A,4028.4449,N,08353.5262,W,1.89,358.90,130620,,,D*7D
$GPRMC,141816.000,A,4028.4454,N,08353.5262,W,1.99,351.52,130620,,,D*74
$GPRMC,141817.000,A,4028.4459,N,08353.5264,W,1.53,338.21,130620,,,D*73
$GPRMC,141818.000,A,4028.4463,N,08353.5266,W,1.29,329.86,130620,,,D*77
$GPRMC,141819.000,A,4028.4466,N,08353.5269,W,1.17,320.12,130620,,,D*75
$GPRMC,141820.000,A,4028.4468,N,08353.5272,W,1.10,311.43,130620,,,D*7A
$GPRMC,141821.000,A,4028.4470,N,08353.5275,W,1.12,295.05,130620,,,D*78
$GPRMC,141822.000,A,4028.4471,N,08353.5279,W,1.18,285.79,130620,,,D*76
$GPRMC,141823.000,A,4028.4472,N,08353.5283,W,0.97,274.57,130620,,,D*75
$GPRMC,141824.000,A,4028.4471,N,08353.5288,W,1.68,249.32,130620,,,D*76
$GPRMC,141825.000,A,4028.4471,N,08353.5292,W,0.92,262.32,130620,,,D*71
$GPRMC,141826.000,A,4028.4471,N,08353.5296,W,1.00,252.52,130620,,,D*79
$GPRMC,141827.000,A,4028.4470,N,08353.5299,W,1.20,238.19,130620,,,D*77
$GPRMC,141828.000,A,4028.4468,N,08353.5303,W,1.15,233.29,130620,,,D*7D
$GPRMC,141829.000,A,4028.4467,N,08353.5305,W,0.32,237.51,130620,,,D*7A
$GPRMC,141830.000,A,4028.4468,N,08353.5305,W,0.45,48.30,130620,,,D*40
$GPRMC,141831.000,A,4028.4469,N,08353.5303,W,0.52,50.92,130620,,,D*41
$GPRMC,141832.000,A,4028.4470,N,08353.5302,W,0.41,49.30,130620,,,D*49
$GPRMC,141833.000,A,4028.4471,N,08353.5301,W,0.31,49.00,130620,,,D*4E
$GPRMC,141834.000,A,4028.4471,N,08353.5301,W,0.04,286.30,130620,,,D*7D
$GPRMC,141835.000,A,4028.4472,N,08353.5301,W,0.16,48.55,130620,,,D*4F
$GPRMC,141836.000,A,4028.4472,N,08353.5301,W,0.03,67.72,130620,,,D*40
$GPRMC,141837.000,A,4028.4472,N,08353.5301,W,0.03,67.71,130620,,,D*42
$GPRMC,141838.000,A,4028.4472,N,08353.5301,W,0.11,56.44,130620,,,D*4A
$GPRMC,141839.000,A,4028.4473,N,08353.5300,W,0.71,52.40,130620,,,D*4D
$GPRMC,141840.000,A,4028.4474,N,08353.5298,W,0.68,52.71,130620,,,D*4E
$GPRMC,141841.000,A,4028.4475,N,08353.5296,W,0.84,52.76,130620,,,D*45
$GPRMC,141842.000,A,4028.4477,N,08353.5293,W,1.38,47.17,130620,,,D*44
$GPRMC,141843.000,A,4028.4480,N,08353.5289,W,1.47,47.49,130620,,,D*45
$GPRMC,141844.000,A,4028.4483,N,08353.5286,W,1.34,48.19,130620,,,D*40
$GPRMC,141845.000,A,4028.4486,N,08353.5282,W,1.52,48.66,130620,,,D*48
$GPRMC,141846.000,A,4028.4489,N,08353.5277,W,1.68,48.93,130620,,,D*4D
$GPRMC,141847.000,A,4028.4492,N,08353.5273,W,1.61,47.32,130620,,,D*4F
$GPRMC,141848.000,A,4028.4495,N,08353.5269,W,1.51,49.65,130620,,,D*43
$GPRMC,141849.000,A,4028.4498,N,08353.5265,W,1.51,49.80,130620,,,D*48
$GPRMC,141850.000,A,4028.4500,N,08353.5261,W,1.41,45.97,130620,,,D*4F
$GPRMC,141851.000,A,4028.4503,N,08353.5258,W,1.10,47.72,130620,,,D*4A
$GPRMC,141852.000,A,4028.4505,N,08353.5255,W,0.93,48.99,130620,,,D*42
$GPRMC,141853.000,A,4028.4506,N,08353.5253,W,0.75,49.98,130620,,,D*4E
$GPRMC,141854.000,A,4028.4508,N,08353.5251,W,1.10,46.27,130620,,,D*4C
$GPRMC,141855.000,A,4028.4510,N,08353.5248,W,1.01,48.35,130620,,,D*41
$GPRMC,141856.000,A,4028.4512,N,08353.5245,W,1.18,48.67,130620,,,D*42
$GPRMC,141857.000,A,4028.4514,N,08353.5242,W,0.96,47.92,130620,,,D*40
$GPRMC,141858.000,A,4028.4516,N,08353.5240,W,0.94,49.63,130620,,,D*4D
$GPRMC,141859.000,A,4028.4518,N,08353.5237,W,1.00,45.90,130620,,,D*4E
$GPRMC,141900.000,A,4028.4519,N,08353.5235,W,0.65,49.68,130620,,,D*49
$GPRMC,141901.000,A,4028.4520,N,08353.5234,W,0.36,48.04,130620,,,D*4E
