$ADVER,3080,2.2
$GPRMC,150928.260,A,4028.4555,N,08353.5762,W,0.10,354.96,130620,,,A*71
$GPRMC,150929.260,A,4028.4556,N,08353.5762,W,0.04,238.82,130620,,,A*78
$GPRMC,150930.260,A,4028.4557,N,08353.5761,W,0.11,352.34,130620,,,A*76
$GPRMC,150931.260,A,4028.4558,N,08353.5759,W,0.10,336.32,130620,,,A*76
$GPRMC,150932.260,A,4028.4558,N,08353.5758,W,0.05,350.53,130620,,,A*77
$GPRMC,150933.260,A,4028.4559,N,08353.5757,W,0.07,302.26,130620,,,A*7F
$GPRMC,150934.260,A,4028.4217,N,08353.5411,W,0.08,333.27,130620,,,A*78
$GPRMC,150935.260,A,4028.4216,N,08353.5408,W,0.04,248.86,130620,,,A*7A
$GPRMC,150936.000,A,4028.4215,N,08353.5407,W,0.05,179.99,130620,,,A*7F
$GPRMC,150937.000,A,4028.4215,N,08353.5406,W,0.06,258.12,130620,,,A*7F
$GPRMC,150938.000,A,4028.4214,N,08353.5406,W,0.06,185.86,130620,,,A*7F
$GPRMC,150939.000,A,4028.4213,N,08353.5405,W,0.02,266.67,130620,,,A*7F
$GPRMC,150940.000,A,4028.4213,N,08353.5404,W,0.08,173.57,130620,,,A*7E
$GPRMC,150941.000,A,4028.4212,N,08353.5403,W,0.03,197.21,130620,,,A*79
$GPRMC,150942.000,A,4028.4212,N,08353.5402,W,0.06,158.79,130620,,,A*70
$GPRMC,150943.000,A,4028.4211,N,08353.5401,W,0.03,166.26,130620,,,A*73
$GPRMC,150944.000,A,4028.4211,N,08353.5400,W,0.06,133.87,130620,,,A*7B
$GPRMC,150945.000,A,4028.4211,N,08353.5401,W,0.05,150.69,130620,,,A*7D
$GPRMC,150946.000,A,4028.4211,N,08353.5401,W,0.07,137.36,130620,,,A*77
$GPRMC,150947.000,A,4028.4211,N,08353.5402,W,0.03,212.54,130620,,,A*71
$GPRMC,150948.000,A,4028.4211,N,08353.5402,W,0.04,195.19,130620,,,A*7C
$GPRMC,150949.000,A,4028.4210,N,08353.5400,W,0.06,132.61,130620,,,A*7E
$GPRMC,150950.000,A,4028.4210,N,08353.5398,W,0.09,117.00,130620,,,A*7F
$GPRMC,150951.000,A,4028.4210,N,08353.5396,W,0.11,128.73,130620,,,A*71
$GPRMC,150952.000,A,4028.4209,N,08353.5394,W,0.12,118.49,130620,,,A*71
$GPRMC,150953.000,A,4028.4213,N,08353.5401,W,0.08,119.49,130620,,,A*7A
$GPRMC,150954.000,A,4028.4215,N,08353.5404,W,0.09,112.87,130620,,,A*76
$GPRMC,150955.000,A,4028.4216,N,08353.5405,W,0.09,124.97,130620,,,A*71
$GPRMC,150956.000,A,4028.4217,N,08353.5406,W,0.11,113.58,130620,,,A*7E
$GPRMC,150957.000,A,4028.4218,N,08353.5406,W,0.12,121.75,130620,,,A*7D
$GPRMC,150958.000,A,4028.4219,N,08353.5405,W,0.11,131.89,130620,,,A*71
$GPRMC,150959.000,A,4028.4219,N,08353.5405,W,0.12,114.17,130620,,,A*73
$GPRMC,151000.000,A,4028.4220,N,08353.5404,W,0.11,114.16,130620,,,A*7E
$GPRMC,151001.000,A,4028.4219,N,08353.5405,W,0.10,133.36,130620,,,A*72
$GPRMC,151002.000,A,4028.4219,N,08353.5406,W,0.10,123.99,130620,,,A*76
$GPRMC,151003.000,A,4028.4219,N,08353.5406,W,0.14,173.28,130620,,,A*7C
$GPRMC,151004.000,A,4028.4219,N,08353.5406,W,0.18,189.80,130620,,,A*70
$GPRMC,151005.000,A,4028.4218,N,08353.5406,W,0.21,192.38,130620,,,A*73
$GPRMC,151006.000,A,4028.4217,N,08353.5407,W,0.27,206.42,130620,,,A*7B
$GPRMC,151007.000,A,4028.4217,N,08353.5407,W,0.11,114.00,130620,,,A*79
$GPRMC,151008.000,A,4028.4217,N,08353.5407,W,0.15,169.02,130620,,,A*7A
$GPRMC,151009.000,A,4028.4216,N,08353.5407,W,0.21,193.40,130620,,,A*7E
$GPRMC,151010.000,A,4028.4216,N,08353.5406,W,0.14,162.34,130620,,,A*7C
$GPRMC,151011.000,A,4028.4217,N,08353.5405,W,0.24,73.35,130620,,,A*4C
$GPRMC,151012.000,A,4028.4217,N,08353.5405,W,0.18,119.07,130620,,,A*7C
$GPRMC,151013.000,A,4028.4216,N,08353.5405,W,0.17,193.80,130620,,,A*7E
$GPRMC,151014.000,A,4028.4216,N,08353.5406,W,0.17,156.39,130620,,,A*71
$GPRMC,151015.000,A,4028.4216,N,08353.5406,W,0.11,134.55,130620,,,A*78
$GPRMC,151016.000,A,4028.4216,N,08353.5406,W,0.18,94.52,130620,,,A*4E
$GPRMC,151017.000,A,4028.4216,N,08353.5406,W,0.17,168.59,130620,,,A*79
$GPRMC,151018.000,A,4028.4215,N,08353.5406,W,0.22,88.24,130620,,,A*46
$GPRMC,151019.000,A,4028.4216,N,08353.5405,W,0.25,81.38,130620,,,A*44
$GPRMC,151020.000,A,4028.4216,N,08353.5404,W,0.12,147.21,130620,,,A*78
$GPRMC,151021.000,A,4028.4216,N,08353.5403,W,0.17,147.52,130620,,,A*7F
$GPRMC,151022.000,A,4028.4216,N,08353.5402,W,0.16,97.64,130620,,,A*45
$GPRMC,151023.000,A,4028.4217,N,08353.5401,W,0.28,78.85,130620,,,A*45
$GPRMC,151024.000,A,4028.4217,N,08353.5400,W,0.29,73.12,130620,,,A*47
$GPRMC,151025.000,A,4028.4218,N,08353.5399,W,0.11,159.23,130620,,,A*7E
$GPRMC,151026.000,A,4028.4217,N,08353.5400,W,0.18,193.04,130620,,,A*7F
$GPRMC,151027.000,A,4028.4217,N,08353.5400,W,0.14,150.76,130620,,,A*78
$GPRMC,151028.000,A,4028.4217,N,08353.5399,W,0.12,155.15,130620,,,A*76
$GPRMC,151029.000,A,4028.4218,N,08353.5399,W,0.08,145.24,130620,,,A*70
$GPRMC,151030.000,A,4028.4218,N,08353.5398,W,0.21,202.14,130620,,,A*71
$GPRMC,151031.000,A,4028.4218,N,08353.5398,W,0.14,120.86,130620,,,A*7E
$GPRMC,151032.000,A,4028.4218,N,08353.5397,W,0.15,121.12,130620,,,A*7F
$GPRMC,151033.000,A,4028.4218,N,08353.5396,W,0.15,115.40,130620,,,A*7F
$GPRMC,151034.000,A,4028.4218,N,08353.5396,W,0.13,114.78,130620,,,A*74
$GPRMC,151035.000,A,4028.4218,N,08353.5395,W,0.15,151.54,130620,,,A*7F
$GPRMC,151036.000,A,4028.4218,N,08353.5394,W,0.22,88.55,130620,,,A*4D
$GPRMC,151037.000,A,4028.4219,N,08353.5393,W,0.14,105.73,130620,,,A*7F
$GPRMC,151038.000,A,4028.4219,N,08353.5393,W,0.12,135.87,130620,,,A*7E
$GPRMC,151039.000,A,4028.4219,N,08353.5392,W,0.12,117.59,130620,,,A*7D
$GPRMC,151040.000,A,4028.4219,N,08353.5392,W,0.13,104.41,130620,,,A*79
$GPRMC,151041.000,A,4028.4219,N,08353.5391,W,0.12,125.14,130620,,,A*79
$GPRMC,151042.000,A,4028.4219,N,08353.5391,W,0.12,126.40,130620,,,A*78
$GPRMC,151043.000,A,4028.4219,N,08353.5390,W,0.13,114.83,130620,,,A*77
$GPRMC,151044.000,A,4028.4219,N,08353.5390,W,0.10,131.20,130620,,,A*7D
$GPRMC,151045.000,A,4028.4220,N,08353.5390,W,0.11,114.69,130620,,,A*7D
$GPRMC,151046.000,A,4028.4220,N,08353.5389,W,0.16,124.66,130620,,,A*7D
$GPRMC,151047.000,A,4028.4219,N,08353.5390,W,0.07,94.43,130620,,,A*43
$GPRMC,151048.000,A,4028.4219,N,08353.5391,W,0.10,97.02,130620,,,A*4D
$GPRMC,151049.000,A,4028.4219,N,08353.5390,W,0.10,99.83,130620,,,A*4A
$GPRMC,151050.000,A,4028.4219,N,08353.5389,W,0.17,81.91,130620,,,A*47
$GPRMC,151051.000,A,4028.4220,N,08353.5388,W,0.21,66.52,130620,,,A*4E
$GPRMC,151052.000,A,4028.4219,N,08353.5382,W,0.23,145.66,130620,,,A*78
$GPRMC,151053.000,A,4028.4218,N,08353.5377,W,0.22,173.43,130620,,,A*71
$GPRMC,151054.000,A,4028.4217,N,08353.5373,W,0.17,132.49,130620,,,A*74
$GPRMC,151055.000,A,4028.4216,N,08353.5371,W,0.19,104.51,130620,,,A*74
$GPRMC,151056.000,A,4028.4215,N,08353.5369,W,0.18,149.11,130620,,,A*71
$GPRMC,151057.000,A,4028.4215,N,08353.5368,W,0.26,96.85,130620,,,A*42
$GPRMC,151058.000,A,4028.4214,N,08353.5367,W,0.17,124.91,130620,,,A*7C
$GPRMC,151059.000,A,4028.4214,N,08353.5366,W,0.19,157.83,130620,,,A*75
$GPRMC,151100.000,A,4028.4213,N,08353.5365,W,0.22,98.71,130620,,,A*4B
$GPRMC,151101.000,A,4028.4213,N,08353.5364,W,0.16,128.15,130620,,,A*74
$GPRMC,151102.000,A,4028.4213,N,08353.5363,W,0.21,90.86,130620,,,A*4C
$GPRMC,151103.000,A,4028.4213,N,08353.5362,W,0.19,108.24,130620,,,A*7F
$GPRMC,151104.000,A,4028.4213,N,08353.5362,W,0.16,123.86,130620,,,A*76
$GPRMC,151105.000,A,4028.4213,N,08353.5361,W,0.17,102.75,130620,,,A*7A
$GPRMC,151106.000,A,4028.4213,N,08353.5361,W,0.18,107.38,130620,,,A*7A
$GPRMC,151107.000,A,4028.4213,N,08353.5361,W,0.16,107.49,130620,,,A*73
$GPRMC,151108.000,A,4028.4213,N,08353.5360,W,0.16,104.83,130620,,,A*78
$GPRMC,151109.000,A,4028.4213,N,08353.5360,W,0.15,104.50,130620,,,A*74
$GPRMC,151110.000,A,4028.4213,N,08353.5360,W,0.10,138.80,130620,,,A*7B
$GPRMC,151111.000,A,4028.4214,N,08353.5361,W,0.12,108.45,130620,,,A*74
$GPRMC,151112.000,A,4028.4214,N,08353.5361,W,0.14,115.17,130620,,,A*7A
$GPRMC,151113.000,A,4028.4214,N,08353.5361,W,0.14,115.23,130620,,,A*7C
$GPRMC,151114.000,A,4028.4214,N,08353.5361,W,0.12,111.06,130620,,,A*7E
$GPRMC,151115.000,A,4028.4214,N,08353.5361,W,0.12,122.65,130620,,,A*7A
$GPRMC,151116.000,A,4028.4214,N,08353.5361,W,0.13,118.87,130620,,,A*7D
$GPRMC,151117.000,A,4028.4214,N,08353.5361,W,0.11,126.47,130620,,,A*7F
$GPRMC,151118.000,A,4028.4214,N,08353.5361,W,0.13,118.27,130620,,,A*79
$GPRMC,151119.000,A,4028.4215,N,08353.5361,W,0.10,127.25,130620,,,A*74
$GPRMC,151120.000,A,4028.4215,N,08353.5361,W,0.10,122.22,130620,,,A*7C
$GPRMC,151121.000,A,4028.4215,N,08353.5362,W,0.11,129.13,130620,,,A*76
$GPRMC,151122.000,A,4028.4215,N,08353.5364,W,0.09,158.35,130620,,,A*78
$GPRMC,151123.000,A,4028.4215,N,08353.5365,W,0.09,136.02,130620,,,A*74
$GPRMC,151124.000,A,4028.4215,N,08353.5366,W,0.08,156.96,130620,,,A*7A
$GPRMC,151125.000,A,4028.4215,N,08353.5367,W,0.08,153.45,130620,,,A*71
$GPRMC,151126.000,A,4028.4215,N,08353.5367,W,0.09,133.35,130620,,,A*72
$GPRMC,151127.000,A,4028.4215,N,08353.5368,W,0.10,171.58,130620,,,A*79
$GPRMC,151128.000,A,4028.4215,N,08353.5369,W,0.08,147.37,130620,,,A*72
$GPRMC,151129.000,A,4028.4215,N,08353.5370,W,0.08,164.95,130620,,,A*72
$GPRMC,151130.000,A,4028.4215,N,08353.5370,W,0.08,155.72,130620,,,A*71
$GPRMC,151131.000,A,4028.4215,N,08353.5371,W,0.09,158.13,130620,,,A*7A
$GPRMC,151132.000,A,4028.4217,N,08353.5367,W,0.12,115.60,130620,,,A*7B
$GPRMC,151133.000,A,4028.4219,N,08353.5364,W,0.12,102.42,130620,,,A*71
$GPRMC,151134.000,A,4028.4220,N,08353.5361,W,0.15,105.62,130620,,,A*7B
$GPRMC,151135.000,A,4028.4221,N,08353.5359,W,0.16,107.39,130620,,,A*7F
$GPRMC,151136.000,A,4028.4222,N,08353.5356,W,0.14,111.40,130620,,,A*7B
$GPRMC,151137.000,A,4028.4223,N,08353.5354,W,0.16,106.45,130620,,,A*78
$GPRMC,151138.000,A,4028.4223,N,08353.5356,W,0.11,110.70,130620,,,A*73
$GPRMC,151139.000,A,4028.4223,N,08353.5357,W,0.10,127.08,130620,,,A*79
$GPRMC,151140.000,A,4028.4223,N,08353.5359,W,0.08,155.68,130620,,,A*73
$GPRMC,151141.000,A,4028.4223,N,08353.5360,W,0.10,140.34,130620,,,A*7C
$GPRMC,151142.000,A,4028.4223,N,08353.5362,W,0.09,149.50,130620,,,A*7E
$GPRMC,151143.000,A,4028.4223,N,08353.5363,W,0.08,146.42,130620,,,A*73
$GPRMC,151144.000,A,4028.4222,N,08353.5364,W,0.09,150.86,130620,,,A*7C
$GPRMC,151145.000,A,4028.4222,N,08353.5365,W,0.08,184.11,130620,,,A*7A
$GPRMC,151146.000,A,4028.4222,N,08353.5366,W,0.08,170.20,130620,,,A*73
$GPRMC,151147.000,A,4028.4222,N,08353.5367,W,0.27,214.62,130620,,,A*79
$GPRMC,151148.000,A,4028.4221,N,08353.5369,W,0.24,218.03,130620,,,A*73
$GPRMC,151149.000,A,4028.4221,N,08353.5370,W,0.34,218.43,130620,,,A*7F
$GPRMC,151150.000,A,4028.4220,N,08353.5372,W,0.31,222.34,130620,,,A*78
$GPRMC,151151.000,A,4028.4220,N,08353.5372,W,0.21,60.84,130620,,,A*47
$GPRMC,151152.000,A,4028.4220,N,08353.5372,W,0.15,68.93,130620,,,A*4D
$GPRMC,151153.000,A,4028.4221,N,08353.5372,W,0.15,210.00,130620,,,A*7A
$GPRMC,151154.000,A,4028.4220,N,08353.5373,W,0.06,115.42,130620,,,A*7F
$GPRMC,151155.000,A,4028.4220,N,08353.5373,W,0.13,210.77,130620,,,A*7A
$GPRMC,151156.000,A,4028.4220,N,08353.5373,W,0.07,114.34,130620,,,A*7C
$GPRMC,151157.000,A,4028.4221,N,08353.5373,W,0.07,139.37,130620,,,A*70
$GPRMC,151158.000,A,4028.4221,N,08353.5373,W,0.20,62.17,130620,,,A*47
$GPRMC,151159.000,A,4028.4221,N,08353.5373,W,0.09,139.76,130620,,,A*75
$GPRMC,151200.000,A,4028.4221,N,08353.5373,W,0.09,118.85,130620,,,A*75
$GPRMC,151201.000,A,4028.4221,N,08353.5373,W,0.15,202.50,130620,,,A*79
$GPRMC,151202.000,A,4028.4221,N,08353.5373,W,0.24,67.17,130620,,,A*4A
$GPRMC,151203.000,A,4028.4221,N,08353.5373,W,0.18,203.01,130620,,,A*73
$GPRMC,151204.000,A,4028.4221,N,08353.5374,W,0.26,219.40,130620,,,A*70
$GPRMC,151205.000,A,4028.4220,N,08353.5374,W,0.09,187.97,130620,,,A*73
$GPRMC,151206.000,A,4028.4220,N,08353.5375,W,0.09,160.51,130620,,,A*72
$GPRMC,151207.000,A,4028.4220,N,08353.5375,W,0.11,106.10,130620,,,A*7F
$GPRMC,151208.000,A,4028.4220,N,08353.5374,W,0.09,94.11,130620,,,A*43
$GPRMC,151209.000,A,4028.4220,N,08353.5375,W,0.29,217.61,130620,,,A*7F
$GPRMC,151210.000,A,4028.4220,N,08353.5376,W,0.37,218.33,130620,,,A*73
$GPRMC,151211.000,A,4028.4219,N,08353.5376,W,0.13,209.94,130620,,,A*73
$GPRMC,151212.000,A,4028.4219,N,08353.5376,W,0.10,104.86,130620,,,A*7E
$GPRMC,151213.000,A,4028.4219,N,08353.5376,W,0.31,223.51,130620,,,A*70
$GPRMC,151214.000,A,4028.4219,N,08353.5377,W,0.10,175.53,130620,,,A*77
$GPRMC,151215.000,A,4028.4219,N,08353.5376,W,0.09,148.22,130620,,,A*77
$GPRMC,151216.000,A,4028.4219,N,08353.5376,W,0.18,83.84,130620,,,A*4E
$GPRMC,151217.000,A,4028.4219,N,08353.5375,W,0.10,172.86,130620,,,A*79
$GPRMC,151218.000,A,4028.4219,N,08353.5375,W,0.15,190.54,130620,,,A*70
$GPRMC,151219.000,A,4028.4219,N,08353.5375,W,0.09,144.29,130620,,,A*7F
$GPRMC,151220.000,A,4028.4219,N,08353.5374,W,0.23,79.10,130620,,,A*49
$GPRMC,151221.000,A,4028.4220,N,08353.5373,W,0.26,80.74,130620,,,A*44
$GPRMC,151222.000,A,4028.4220,N,08353.5373,W,0.11,162.47,130620,,,A*7E
$GPRMC,151223.000,A,4028.4220,N,08353.5373,W,0.27,209.57,130620,,,A*75
$GPRMC,151224.000,A,4028.4220,N,08353.5372,W,0.13,100.27,130620,,,A*79
$GPRMC,151225.000,A,4028.4220,N,08353.5372,W,0.16,185.18,130620,,,A*7C
$GPRMC,151226.000,A,4028.4220,N,08353.5372,W,0.10,136.16,130620,,,A*7F
$GPRMC,151227.000,A,4028.4220,N,08353.5371,W,0.15,108.27,130620,,,A*77
$GPRMC,151228.000,A,4028.4220,N,08353.5371,W,0.27,77.83,130620,,,A*4E
$GPRMC,151229.000,A,4028.4220,N,08353.5370,W,0.21,86.84,130620,,,A*41
$GPRMC,151230.000,A,4028.4220,N,08353.5369,W,0.11,116.75,130620,,,A*74
$GPRMC,151231.000,A,4028.4221,N,08353.5369,W,0.24,84.28,130620,,,A*40
$GPRMC,151232.000,A,4028.4221,N,08353.5368,W,0.22,85.48,130620,,,A*43
$GPRMC,151233.000,A,4028.4221,N,08353.5368,W,0.18,196.32,130620,,,A*75
$GPRMC,151234.000,A,4028.4221,N,08353.5368,W,0.10,144.75,130620,,,A*76
$GPRMC,151235.000,A,4028.4221,N,08353.5367,W,0.13,117.17,130620,,,A*79
$GPRMC,151236.000,A,4028.4221,N,08353.5367,W,0.10,118.93,130620,,,A*7A
$GPRMC,151237.000,A,4028.4222,N,08353.5367,W,0.11,133.18,130620,,,A*73
$GPRMC,151238.000,A,4028.4222,N,08353.5366,W,0.13,124.30,130620,,,A*73
$GPRMC,151239.000,A,4028.4222,N,08353.5366,W,0.13,124.82,130620,,,A*7B
$GPRMC,151240.000,A,4028.4222,N,08353.5365,W,0.10,132.73,130620,,,A*7C
$GPRMC,151241.000,A,4028.4222,N,08353.5365,W,0.10,128.42,130620,,,A*74
$GPRMC,151242.000,A,4028.4222,N,08353.5365,W,0.12,133.02,130620,,,A*7B
$GPRMC,151243.000,A,4028.4222,N,08353.5365,W,0.12,121.69,130620,,,A*74
$GPRMC,151244.000,A,4028.4222,N,08353.5365,W,0.12,122.04,130620,,,A*7B
$GPRMC,151245.000,A,4028.4222,N,08353.5364,W,0.11,121.99,130620,,,A*7F
$GPRMC,151246.000,A,4028.4222,N,08353.5364,W,0.14,132.22,130620,,,A*7B
$GPRMC,151247.000,A,4028.4222,N,08353.5364,W,0.09,127.24,130620,,,A*74
$GPRMC,151248.000,A,4028.4222,N,08353.5364,W,0.12,128.46,130620,,,A*7A
$GPRMC,151249.000,A,4028.4223,N,08353.5364,W,0.10,124.73,130620,,,A*72
$GPRMC,151250.000,A,4028.4223,N,08353.5364,W,0.12,157.41,130620,,,A*7D
$GPRMC,151251.000,A,4028.4222,N,08353.5364,W,0.13,125.55,130620,,,A*7C
$GPRMC,151252.000,A,4028.4222,N,08353.5364,W,0.10,130.57,130620,,,A*7A
$GPRMC,151253.000,A,4028.4223,N,08353.5364,W,0.12,111.64,130620,,,A*7B
$GPRMC,151254.000,A,4028.4223,N,08353.5364,W,0.11,133.10,130620,,,A*7C
$GPRMC,151255.000,A,4028.4223,N,08353.5364,W,0.12,147.58,130620,,,A*71
$GPRMC,151256.000,A,4028.4223,N,08353.5364,W,0.12,125.85,130620,,,A*76
$GPRMC,151257.000,A,4028.4223,N,08353.5364,W,0.11,113.21,130620,,,A*7F
$GPRMC,151258.000,A,4028.4223,N,08353.5364,W,0.12,137.55,130620,,,A*76
$GPRMC,151259.000,A,4028.4223,N,08353.5364,W,0.14,114.26,130620,,,A*74
$GPRMC,151300.000,A,4028.4223,N,08353.5364,W,0.11,135.13,130620,,,A*79
$GPRMC,151301.000,A,4028.4222,N,08353.5364,W,0.12,121.81,130620,,,A*74
$GPRMC,151302.000,A,4028.4222,N,08353.5363,W,0.13,128.33,130620,,,A*71
$GPRMC,151303.000,A,4028.4222,N,08353.5363,W,0.12,130.71,130620,,,A*7E
$GPRMC,151304.000,A,4028.4222,N,08353.5363,W,0.14,121.61,130620,,,A*7E
$GPRMC,151305.000,A,4028.4222,N,08353.5363,W,0.11,124.36,130620,,,A*7D
$GPRMC,151306.000,A,4028.4222,N,08353.5363,W,0.11,130.81,130620,,,A*77
$GPRMC,151307.000,A,4028.4222,N,08353.5363,W,0.12,131.28,130620,,,A*77
$GPRMC,151308.000,A,4028.4222,N,08353.5363,W,0.12,122.64,130620,,,A*72
$GPRMC,151309.000,A,4028.4222,N,08353.5363,W,0.12,125.05,130620,,,A*73
$GPRMC,151310.000,A,4028.4222,N,08353.5363,W,0.11,124.46,130620,,,A*7E
$GPRMC,151311.000,A,4028.4222,N,08353.5363,W,0.13,119.14,130620,,,A*74
$GPRMC,151312.000,A,4028.4222,N,08353.5363,W,0.12,142.58,130620,,,A*70
$GPRMC,151313.000,A,4028.4222,N,08353.5363,W,0.12,121.64,130620,,,A*7B
$GPRMC,151314.000,A,4028.4222,N,08353.5363,W,0.11,145.72,130620,,,A*7A
$GPRMC,151315.000,A,4028.4222,N,08353.5363,W,0.11,119.29,130620,,,A*7C
$GPRMC,151316.000,A,4028.4222,N,08353.5363,W,0.13,175.24,130620,,,A*7A
$GPRMC,151317.000,A,4028.4222,N,08353.5363,W,0.12,130.63,130620,,,A*78
$GPRMC,151318.000,A,4028.4221,N,08353.5363,W,0.13,122.96,130620,,,A*7C
$GPRMC,151319.000,A,4028.4222,N,08353.5363,W,0.13,12.50,130620,,,A*46
$GPRMC,151320.000,A,4028.4223,N,08353.5363,W,0.87,23.97,130620,,,A*49
$GPRMC,151321.000,A,4028.4226,N,08353.5362,W,1.03,19.65,130620,,,A*45
$GPRMC,151322.000,A,4028.4227,N,08353.5364,W,0.52,10.11,130620,,,A*4E
$GPRMC,151323.000,A,4028.4228,N,08353.5362,W,0.47,28.11,130620,,,A*49
$GPRMC,151324.000,A,4028.4227,N,08353.5357,W,0.24,29.84,130620,,,A*4F
$GPRMC,151325.000,A,4028.4229,N,08353.5358,W,0.44,322.74,130620,,,A*7E
$GPRMC,151326.000,A,4028.4229,N,08353.5356,W,0.71,31.50,130620,,,A*42
$GPRMC,151327.000,A,4028.4229,N,08353.5351,W,1.25,40.94,130620,,,A*4A
$GPRMC,151328.000,A,4028.4234,N,08353.5350,W,1.75,23.57,130620,,,A*47
$GPRMC,151329.000,A,4028.4239,N,08353.5346,W,2.18,30.60,130620,,,A*42
$GPRMC,151330.000,A,4028.4244,N,08353.5340,W,2.25,29.03,130620,,,A*45
$GPRMC,151331.000,A,4028.4249,N,08353.5336,W,2.29,25.86,130620,,,A*45
$GPRMC,151332.000,A,4028.4256,N,08353.5332,W,2.63,28.66,130620,,,A*41
$GPRMC,151333.000,A,4028.4263,N,08353.5328,W,2.78,28.49,130620,,,A*4A
$GPRMC,151334.000,A,4028.4269,N,08353.5326,W,2.61,26.83,130620,,,A*49
$GPRMC,151335.000,A,4028.4276,N,08353.5322,W,2.61,27.42,130620,,,A*4E
$GPRMC,151336.000,A,4028.4281,N,08353.5321,W,2.64,28.44,130620,,,A*4A
$GPRMC,151337.000,A,4028.4288,N,08353.5319,W,2.61,26.89,130620,,,A*43
$GPRMC,151338.000,A,4028.4290,N,08353.5314,W,2.34,30.35,130620,,,A*48
$GPRMC,151339.000,A,4028.4296,N,08353.5308,W,2.28,34.22,130620,,,A*4D
$GPRMC,151340.000,A,4028.4302,N,08353.5303,W,2.37,24.31,130620,,,A*49
$GPRMC,151341.000,A,4028.4311,N,08353.5306,W,2.39,25.99,130620,,,A*42
$GPRMC,151342.000,A,4028.4318,N,08353.5306,W,2.39,26.25,130620,,,A*4C
$GPRMC,151343.000,A,4028.4326,N,08353.5305,W,2.35,19.62,130620,,,A*40
$GPRMC,151344.000,A,4028.4333,N,08353.5305,W,2.13,15.53,130620,,,A*49
$GPRMC,151345.000,A,4028.4341,N,08353.5304,W,2.05,11.01,130620,,,A*48
$GPRMC,151346.000,A,4028.4348,N,08353.5303,W,1.96,12.01,130620,,,A*4F
$GPRMC,151347.000,A,4028.4354,N,08353.5302,W,2.06,15.49,130620,,,A*43
$GPRMC,151348.000,A,4028.4361,N,08353.5300,W,2.45,23.62,130620,,,A*43
$GPRMC,151349.000,A,4028.4368,N,08353.5297,W,2.37,23.60,130620,,,A*43
$GPRMC,151350.000,A,4028.4375,N,08353.5294,W,2.26,23.37,130620,,,A*46
$GPRMC,151351.000,A,4028.4382,N,08353.5292,W,2.27,13.61,130620,,,A*48
$GPRMC,151352.000,A,4028.4389,N,08353.5291,W,2.31,1.81,130620,,,A*79
$GPRMC,151353.000,A,4028.4396,N,08353.5292,W,2.39,351.94,130620,,,A*7F
$GPRMC,151354.000,A,4028.4403,N,08353.5294,W,2.29,347.70,130620,,,A*79
$GPRMC,151355.000,A,4028.4410,N,08353.5297,W,2.34,348.58,130620,,,A*70
$GPRMC,151356.000,A,4028.4417,N,08353.5299,W,2.25,346.76,130620,,,A*78
$GPRMC,151357.000,A,4028.4424,N,08353.5302,W,2.12,340.83,130620,,,A*72
$GPRMC,151358.000,A,4028.4430,N,08353.5304,W,2.14,336.66,130620,,,A*72
$GPRMC,151359.000,A,4028.4436,N,08353.5307,W,2.08,329.67,130620,,,A*74
$GPRMC,151400.000,A,4028.4440,N,08353.5311,W,1.93,319.36,130620,,,A*7F
$GPRMC,151401.000,A,4028.4444,N,08353.5315,W,1.40,309.17,130620,,,A*72
$GPRMC,151402.000,A,4028.4446,N,08353.5318,W,0.82,295.90,130620,,,A*7A
$GPRMC,151403.000,A,4028.4447,N,08353.5318,W,0.27,298.41,130620,,,A*74
$GPRMC,151404.000,A,4028.4447,N,08353.5317,W,0.21,135.23,130620,,,A*7A
$GPRMC,151405.000,A,4028.4447,N,08353.5316,W,0.26,126.21,130620,,,A*7D
$GPRMC,151406.000,A,4028.4447,N,08353.5314,W,0.25,76.68,130620,,,A*46
$GPRMC,151407.000,A,4028.4448,N,08353.5313,W,0.89,32.45,130620,,,A*46
$GPRMC,151408.000,A,4028.4451,N,08353.5309,W,1.47,47.85,130620,,,A*47
$GPRMC,151409.000,A,4028.4455,N,08353.5304,W,2.02,52.45,130620,,,A*45
$GPRMC,151410.000,A,4028.4458,N,08353.5297,W,2.32,54.57,130620,,,A*4D
$GPRMC,151411.000,A,4028.4463,N,08353.5289,W,2.54,52.75,130620,,,A*4D
$GPRMC,151412.000,A,4028.4468,N,08353.5281,W,2.42,51.65,130620,,,A*48
$GPRMC,151413.000,A,4028.4472,N,08353.5274,W,2.20,52.13,130620,,,A*4E
$GPRMC,151414.000,A,4028.4477,N,08353.5267,W,2.55,51.72,130620,,,A*48
$GPRMC,151415.000,A,4028.4481,N,08353.5259,W,2.57,51.79,130620,,,A*44
$GPRMC,151416.000,A,4028.4486,N,08353.5251,W,2.53,50.85,130620,,,A*4E
$GPRMC,151417.000,A,4028.4491,N,08353.5244,W,2.47,49.35,130620,,,A*4B
$GPRMC,151418.000,A,4028.4495,N,08353.5237,W,2.21,50.90,130620,,,A*43
$GPRMC,151419.000,A,4028.4499,N,08353.5232,W,1.91,43.42,130620,,,A*4E
$GPRMC,151420.000,A,4028.4503,N,08353.5227,W,1.46,50.20,130620,,,A*4E
$GPRMC,151421.000,A,4028.4505,N,08353.5222,W,1.70,59.19,130620,,,A*4A
$GPRMC,151422.000,A,4028.4508,N,08353.5217,W,1.74,59.74,130620,,,A*4D
$GPRMC,151423.000,A,4028.4510,N,08353.5212,W,1.39,63.89,130620,,,A*42
$GPRMC,151424.000,A,4028.4512,N,08353.5208,W,1.00,61.26,130620,,,A*41
$GPRMC,151425.000,A,4028.4513,N,08353.5206,W,0.50,62.28,130620,,,A*46
$GPRMC,151426.000,A,4028.4513,N,08353.5205,W,0.34,72.15,130620,,,A*4B
$GPRMC,151427.000,A,4028.4513,N,08353.5204,W,0.25,76.28,130620,,,A*41
$GPRMC,151428.000,A,4028.4514,N,08353.5203,W,0.51,62.27,130620,,,A*47
$GPRMC,151429.000,A,4028.4514,N,08353.5202,W,0.38,72.70,130620,,,A*4B
$GPRMC,151430.000,A,4028.4515,N,08353.5201,W,0.21,80.78,130620,,,A*4C
$GPRMC,151431.000,A,4028.4515,N,08353.5201,W,0.10,94.44,130620,,,A*45
$GPRMC,151432.000,A,4028.4514,N,08353.5201,W,0.14,110.27,130620,,,A*7B
$GPRMC,151433.000,A,4028.4514,N,08353.5201,W,0.13,107.86,130620,,,A*70
$GPRMC,151434.000,A,4028.4514,N,08353.5200,W,0.14,93.14,130620,,,A*46
$GPRMC,151435.000,A,4028.4514,N,08353.5200,W,0.13,109.21,130620,,,A*74
$GPRMC,151436.000,A,4028.4514,N,08353.5200,W,0.15,105.32,130620,,,A*7F
$GPRMC,151437.000,A,4028.4514,N,08353.5199,W,0.13,116.32,130620,,,A*79
$GPRMC,151438.000,A,4028.4514,N,08353.5199,W,0.13,118.15,130620,,,A*7D
$GPRMC,151439.000,A,4028.4513,N,08353.5199,W,0.13,119.86,130620,,,A*70
$GPRMC,151440.000,A,4028.4513,N,08353.5199,W,0.11,138.17,130620,,,A*77
$GPRMC,151441.000,A,4028.4512,N,08353.5199,W,0.26,171.89,130620,,,A*79
$GPRMC,151442.000,A,4028.4511,N,08353.5200,W,0.28,171.27,130620,,,A*70
$GPRMC,151443.000,A,4028.4512,N,08353.5199,W,0.19,70.75,130620,,,A*44
$GPRMC,151444.000,A,4028.4517,N,08353.5197,W,0.24,42.88,130620,,,A*45
$GPRMC,151445.000,A,4028.4521,N,08353.5195,W,0.37,50.22,130620,,,A*42
$GPRMC,151446.000,A,4028.4525,N,08353.5192,W,0.46,45.18,130620,,,A*49
$GPRMC,151447.000,A,4028.4529,N,08353.5190,W,0.37,45.78,130620,,,A*46
$GPRMC,151448.000,A,4028.4534,N,08353.5188,W,0.43,46.30,130620,,,A*40
$GPRMC,151449.000,A,4028.4538,N,08353.5186,W,0.44,48.27,130620,,,A*4C
$GPRMC,151450.000,A,4028.4542,N,08353.5184,W,0.50,43.78,130620,,,A*4F
$GPRMC,151451.000,A,4028.4545,N,08353.5182,W,0.59,44.37,130620,,,A*4A
$GPRMC,151452.000,A,4028.4548,N,08353.5180,W,0.51,46.33,130620,,,A*48
$GPRMC,151453.000,A,4028.4551,N,08353.5179,W,0.36,50.80,130620,,,A*49
$GPRMC,151454.000,A,4028.4553,N,08353.5178,W,0.18,71.69,130620,,,A*45
$GPRMC,151455.000,A,4028.4555,N,08353.5177,W,0.13,174.88,130620,,,A*7D
$GPRMC,151456.000,A,4028.4556,N,08353.5177,W,0.26,71.52,130620,,,A*48
$GPRMC,151457.000,A,4028.4557,N,08353.5176,W,0.41,60.38,130620,,,A*44
$GPRMC,151458.000,A,4028.4559,N,08353.5175,W,0.39,52.33,130620,,,A*43
$GPRMC,151459.000,A,4028.4560,N,08353.5175,W,0.30,56.04,130620,,,A*41
$GPRMC,151500.000,A,4028.4560,N,08353.5174,W,0.14,129.87,130620,,,A*79
$GPRMC,151501.000,A,4028.4560,N,08353.5174,W,0.13,125.12,130620,,,A*7F
$GPRMC,151502.000,A,4028.4561,N,08353.5174,W,0.30,66.24,130620,,,A*4F
$GPRMC,151503.000,A,4028.4561,N,08353.5174,W,0.25,69.72,130620,,,A*46
$GPRMC,151504.000,A,4028.4561,N,08353.5174,W,0.18,89.69,130620,,,A*4B
$GPRMC,151505.000,A,4028.4561,N,08353.5174,W,0.19,163.67,130620,,,A*70
$GPRMC,151506.000,A,4028.4560,N,08353.5174,W,0.17,164.92,130620,,,A*71
$GPRMC,151507.000,A,4028.4560,N,08353.5175,W,0.26,184.66,130620,,,A*76
$GPRMC,151508.000,A,4028.4559,N,08353.5175,W,0.29,183.21,130620,,,A*78
$GPRMC,151509.000,A,4028.4558,N,08353.5176,W,0.32,188.85,130620,,,A*74
$GPRMC,151510.000,A,4028.4558,N,08353.5176,W,0.19,195.74,130620,,,A*77
$GPRMC,151511.000,A,4028.4557,N,08353.5177,W,0.27,73.12,130620,,,A*4C
$GPRMC,151512.000,A,4028.4557,N,08353.5177,W,0.43,64.72,130620,,,A*4D
$GPRMC,151513.000,A,4028.4558,N,08353.5176,W,0.37,62.54,130620,,,A*43
$GPRMC,151514.000,A,4028.4557,N,08353.5176,W,0.29,78.99,130620,,,A*4E
$GPRMC,151515.000,A,4028.4557,N,08353.5176,W,0.34,61.98,130620,,,A*4A
$GPRMC,151516.000,A,4028.4557,N,08353.5176,W,0.15,98.99,130620,,,A*4D
$GPRMC,151517.000,A,4028.4557,N,08353.5176,W,0.18,89.20,130620,,,A*43
$GPRMC,151518.000,A,4028.4557,N,08353.5177,W,0.23,89.11,130620,,,A*47
$GPRMC,151519.000,A,4028.4557,N,08353.5177,W,0.23,55.79,130620,,,A*49
$GPRMC,151520.000,A,4028.4555,N,08353.5177,W,0.26,106.49,130620,,,A*70
$GPRMC,151521.000,A,4028.4554,N,08353.5178,W,0.17,100.71,130620,,,A*70
$GPRMC,151522.000,A,4028.4553,N,08353.5179,W,0.12,162.01,130620,,,A*73
$GPRMC,151523.000,A,4028.4551,N,08353.5179,W,0.29,182.39,130620,,,A*7D
$GPRMC,151524.000,A,4028.4550,N,08353.5180,W,0.33,185.05,130620,,,A*7E
$GPRMC,151525.000,A,4028.4548,N,08353.5182,W,0.12,100.42,130620,,,A*79
$GPRMC,151526.000,A,4028.4546,N,08353.5183,W,0.23,173.40,130620,,,A*71
$GPRMC,151527.000,A,4028.4544,N,08353.5184,W,0.31,189.76,130620,,,A*76
$GPRMC,151528.000,A,4028.4542,N,08353.5185,W,0.31,189.08,130620,,,A*77
$GPRMC,151529.000,A,4028.4541,N,08353.5186,W,0.20,192.30,130620,,,A*77
$GPRMC,151530.000,A,4028.4540,N,08353.5187,W,0.33,202.28,130620,,,A*7E
$GPRMC,151531.000,A,4028.4539,N,08353.5188,W,0.36,214.39,130620,,,A*7C
$GPRMC,151532.000,A,4028.4539,N,08353.5188,W,0.31,198.75,130620,,,A*77
$GPRMC,151533.000,A,4028.4538,N,08353.5189,W,0.13,187.34,130620,,,A*7D
$GPRMC,151534.000,A,4028.4539,N,08353.5189,W,0.06,89.11,130620,,,A*47
$GPRMC,151535.000,A,4028.4539,N,08353.5189,W,0.16,90.89,130620,,,A*4E
$GPRMC,151536.000,A,4028.4539,N,08353.5189,W,0.21,86.85,130620,,,A*42
$GPRMC,151537.000,A,4028.4540,N,08353.5189,W,0.17,64.96,130620,,,A*46
$GPRMC,151538.000,A,4028.4540,N,08353.5189,W,0.18,90.82,130620,,,A*48
$GPRMC,151539.000,A,4028.4540,N,08353.5188,W,0.17,157.07,130620,,,A*70
$GPRMC,151540.000,A,4028.4540,N,08353.5188,W,0.17,110.01,130620,,,A*7B
$GPRMC,151541.000,A,4028.4541,N,08353.5188,W,0.15,73.10,130620,,,A*4D
$GPRMC,151542.000,A,4028.4541,N,08353.5188,W,0.18,110.93,130620,,,A*7C
$GPRMC,151543.000,A,4028.4541,N,08353.5188,W,0.21,123.21,130620,,,A*7E
$GPRMC,151544.000,A,4028.4541,N,08353.5187,W,0.30,87.14,130620,,,A*4F
$GPRMC,151545.000,A,4028.4541,N,08353.5187,W,0.23,89.95,130620,,,A*4B
$GPRMC,151546.000,A,4028.4541,N,08353.5187,W,0.24,150.97,130620,,,A*78
$GPRMC,151547.000,A,4028.4541,N,08353.5187,W,0.24,199.43,130620,,,A*75
$GPRMC,151548.000,A,4028.4540,N,08353.5188,W,0.16,140.63,130620,,,A*73
$GPRMC,151549.000,A,4028.4540,N,08353.5188,W,0.13,160.13,130620,,,A*72
$GPRMC,151550.000,A,4028.4540,N,08353.5188,W,0.19,106.48,130620,,,A*7E
$GPRMC,151551.000,A,4028.4541,N,08353.5187,W,0.27,70.29,130620,,,A*4B
$GPRMC,151552.000,A,4028.4541,N,08353.5187,W,0.12,143.71,130620,,,A*72
$GPRMC,151553.000,A,4028.4541,N,08353.5187,W,0.13,164.42,130620,,,A*77
$GPRMC,151554.000,A,4028.4541,N,08353.5187,W,0.26,89.93,130620,,,A*48
$GPRMC,151555.000,A,4028.4542,N,08353.5186,W,0.28,84.93,130620,,,A*48
$GPRMC,151556.000,A,4028.4542,N,08353.5186,W,0.30,81.71,130620,,,A*4B
$GPRMC,151557.000,A,4028.4542,N,08353.5186,W,0.19,101.15,130620,,,A*7A
$GPRMC,151558.000,A,4028.4542,N,08353.5186,W,0.09,132.44,130620,,,A*70
$GPRMC,151559.000,A,4028.4542,N,08353.5186,W,0.11,199.63,130620,,,A*7C
$GPRMC,151600.000,A,4028.4542,N,08353.5186,W,0.17,84.19,130620,,,A*45
$GPRMC,151601.000,A,4028.4543,N,08353.5186,W,0.26,82.41,130620,,,A*4C
$GPRMC,151602.000,A,4028.4543,N,08353.5185,W,0.15,104.92,130620,,,A*7D
$GPRMC,151603.000,A,4028.4543,N,08353.5185,W,0.21,102.45,130620,,,A*77
$GPRMC,151604.000,A,4028.4543,N,08353.5185,W,0.16,96.39,130620,,,A*43
$GPRMC,151605.000,A,4028.4543,N,08353.5185,W,0.08,138.96,130620,,,A*7D
$GPRMC,151606.000,A,4028.4543,N,08353.5186,W,0.10,192.48,130620,,,A*77
$GPRMC,151607.000,A,4028.4543,N,08353.5186,W,0.27,63.83,130620,,,A*4A
$GPRMC,151608.000,A,4028.4543,N,08353.5186,W,0.44,58.77,130620,,,A*43
$GPRMC,151609.000,A,4028.4543,N,08353.5185,W,0.51,60.51,130620,,,A*4A
$GPRMC,151610.000,A,4028.4544,N,08353.5185,W,0.34,49.26,130620,,,A*4D
$GPRMC,151611.000,A,4028.4544,N,08353.5185,W,0.18,58.32,130620,,,A*47
$GPRMC,151612.000,A,4028.4544,N,08353.5185,W,0.37,63.28,130620,,,A*4A
$GPRMC,151613.000,A,4028.4544,N,08353.5185,W,0.17,184.69,130620,,,A*74
$GPRMC,151614.000,A,4028.4544,N,08353.5185,W,0.34,70.94,130620,,,A*4A
$GPRMC,151615.000,A,4028.4544,N,08353.5185,W,0.37,61.67,130620,,,A*44
$GPRMC,151616.000,A,4028.4544,N,08353.5185,W,0.27,72.29,130620,,,A*4E
$GPRMC,151617.000,A,4028.4544,N,08353.5185,W,0.34,67.94,130620,,,A*4F
$GPRMC,151618.000,A,4028.4544,N,08353.5185,W,0.21,79.46,130620,,,A*44
$GPRMC,151619.000,A,4028.4544,N,08353.5185,W,0.19,132.60,130620,,,A*74
$GPRMC,151620.000,A,4028.4544,N,08353.5185,W,0.21,127.98,130620,,,A*76
$GPRMC,151621.000,A,4028.4543,N,08353.5185,W,0.27,137.86,130620,,,A*78
$GPRMC,151622.000,A,4028.4543,N,08353.5186,W,0.24,137.82,130620,,,A*7F
$GPRMC,151623.000,A,4028.4543,N,08353.5186,W,0.21,121.22,130620,,,A*76
$GPRMC,151624.000,A,4028.4542,N,08353.5186,W,0.21,124.73,130620,,,A*71
$GPRMC,151625.000,A,4028.4542,N,08353.5186,W,0.23,200.38,130620,,,A*78
$GPRMC,151626.000,A,4028.4542,N,08353.5187,W,0.23,204.17,130620,,,A*73
$GPRMC,151627.000,A,4028.4541,N,08353.5188,W,0.21,196.28,130620,,,A*78
$GPRMC,151628.000,A,4028.4541,N,08353.5189,W,0.26,190.03,130620,,,A*7E
$GPRMC,151629.000,A,4028.4541,N,08353.5189,W,0.09,202.25,130620,,,A*7E
$GPRMC,151630.000,A,4028.4541,N,08353.5190,W,0.21,171.26,130620,,,A*70
$GPRMC,151631.000,A,4028.4540,N,08353.5190,W,0.16,161.64,130620,,,A*73
$GPRMC,151632.000,A,4028.4540,N,08353.5190,W,0.15,171.13,130620,,,A*72
$GPRMC,151633.000,A,4028.4540,N,08353.5191,W,0.14,170.84,130620,,,A*7C
$GPRMC,151634.000,A,4028.4540,N,08353.5191,W,0.15,160.09,130620,,,A*7E
$GPRMC,151635.000,A,4028.4540,N,08353.5191,W,0.15,169.49,130620,,,A*72
$GPRMC,151636.000,A,4028.4540,N,08353.5191,W,0.15,160.53,130620,,,A*73
$GPRMC,151637.000,A,4028.4540,N,08353.5191,W,0.16,172.32,130620,,,A*75
$GPRMC,151638.000,A,4028.4540,N,08353.5191,W,0.16,163.34,130620,,,A*7C
$GPRMC,151639.000,A,4028.4540,N,08353.5191,W,0.13,158.17,130620,,,A*71
$GPRMC,151640.000,A,4028.4540,N,08353.5191,W,0.19,163.84,130620,,,A*77
$GPRMC,151641.000,A,4028.4540,N,08353.5190,W,0.19,167.93,130620,,,A*75
$GPRMC,151642.000,A,4028.4541,N,08353.5189,W,0.23,168.91,130620,,,A*7B
$GPRMC,151643.000,A,4028.4542,N,08353.5188,W,0.28,183.16,130620,,,A*79
$GPRMC,151644.000,A,4028.4543,N,08353.5188,W,0.26,183.58,130620,,,A*7B
$GPRMC,151645.000,A,4028.4547,N,08353.5186,W,0.54,186.13,130620,,,A*7F
$GPRMC,151646.000,A,4028.4545,N,08353.5186,W,0.56,179.41,130620,,,A*7B
$GPRMC,151647.000,A,4028.4546,N,08353.5185,W,0.29,187.55,130620,,,A*76
$GPRMC,151648.000,A,4028.4544,N,08353.5186,W,0.25,191.83,130620,,,A*78
$GPRMC,151649.000,A,4028.4542,N,08353.5186,W,0.23,196.90,130620,,,A*7C
$GPRMC,151650.000,A,4028.4547,N,08353.5184,W,0.27,121.61,130620,,,A*75
$GPRMC,151651.000,A,4028.4547,N,08353.5181,W,0.79,60.67,130620,,,A*48
$GPRMC,151652.000,A,4028.4548,N,08353.5179,W,0.23,18.90,130620,,,A*4B
$GPRMC,151653.000,A,4028.4546,N,08353.5178,W,0.02,281.55,130620,,,A*7D
$GPRMC,151654.000,A,4028.4543,N,08353.5178,W,0.15,170.41,130620,,,A*71
$GPRMC,151655.000,A,4028.4541,N,08353.5177,W,0.18,157.71,130620,,,A*76
$GPRMC,151656.000,A,4028.4540,N,08353.5176,W,0.22,116.22,130620,,,A*7F
$GPRMC,151657.000,A,4028.4539,N,08353.5174,W,0.25,102.06,130620,,,A*76
$GPRMC,151658.000,A,4028.4539,N,08353.5174,W,0.25,221.25,130620,,,A*7A
$GPRMC,151659.000,A,4028.4537,N,08353.5175,W,0.26,203.93,130620,,,A*7A
$GPRMC,151700.000,A,4028.4537,N,08353.5179,W,0.24,208.50,130620,,,A*7D
$GPRMC,151701.000,A,4028.4534,N,08353.5178,W,0.20,246.57,130620,,,A*77
$GPRMC,151702.000,A,4028.4530,N,08353.5175,W,0.32,271.52,130620,,,A*7F
$GPRMC,151703.000,A,4028.4529,N,08353.5176,W,0.29,231.96,130620,,,A*73
$GPRMC,151704.000,A,4028.4527,N,08353.5176,W,0.36,157.01,130620,,,A*79
$GPRMC,151705.000,A,4028.4526,N,08353.5176,W,0.46,166.69,130620,,,A*72
$GPRMC,151706.000,A,4028.4525,N,08353.5178,W,0.26,176.67,130620,,,A*75
$GPRMC,151707.000,A,4028.4527,N,08353.5183,W,0.29,272.78,130620,,,A*74
$GPRMC,151708.000,A,4028.4529,N,08353.5187,W,0.32,341.14,130620,,,A*70
$GPRMC,151709.000,A,4028.4531,N,08353.5189,W,0.24,20.96,130620,,,A*4F
$GPRMC,151710.000,A,4028.4531,N,08353.5191,W,0.24,192.56,130620,,,A*7A
$GPRMC,151711.000,A,4028.4529,N,08353.5189,W,0.62,140.08,130620,,,A*7D
$GPRMC,151712.000,A,4028.4528,N,08353.5188,W,0.26,121.55,130620,,,A*71
$GPRMC,151713.000,A,4028.4526,N,08353.5185,W,0.20,140.16,130620,,,A*75
$GPRMC,151714.000,A,4028.4524,N,08353.5183,W,0.23,166.18,130620,,,A*7F
$GPRMC,151715.000,A,4028.4522,N,08353.5181,W,0.28,157.19,130620,,,A*72
$GPRMC,151716.000,A,4028.4524,N,08353.5186,W,0.09,345.53,130620,,,A*7C
$GPRMC,151717.000,A,4028.4524,N,08353.5185,W,0.12,340.94,130620,,,A*7A
$GPRMC,151718.000,A,4028.4523,N,08353.5184,W,0.26,168.34,130620,,,A*76
$GPRMC,151719.000,A,4028.4523,N,08353.5184,W,0.22,195.59,130620,,,A*7A
$GPRMC,151720.000,A,4028.4523,N,08353.5184,W,0.25,144.07,130620,,,A*70
$GPRMC,151721.000,A,4028.4523,N,08353.5182,W,0.09,344.92,130620,,,A*77
$GPRMC,151722.000,A,4028.4523,N,08353.5183,W,0.20,304.28,130620,,,A*7B
$GPRMC,151723.000,A,4028.4524,N,08353.5183,W,0.14,133.44,130620,,,A*76
$GPRMC,151724.000,A,4028.4524,N,08353.5183,W,0.30,62.29,130620,,,A*49
$GPRMC,151725.000,A,4028.4524,N,08353.5184,W,0.11,35.17,130620,,,A*43
$GPRMC,151726.000,A,4028.4524,N,08353.5185,W,0.09,357.45,130620,,,A*78
$GPRMC,151727.000,A,4028.4523,N,08353.5186,W,0.23,159.25,130620,,,A*7F
$GPRMC,151728.000,A,4028.4523,N,08353.5187,W,0.06,182.31,130620,,,A*75
$GPRMC,151729.000,A,4028.4523,N,08353.5188,W,0.06,55.09,130620,,,A*4B
$GPRMC,151730.000,A,4028.4523,N,08353.5188,W,0.04,76.42,130620,,,A*4F
$GPRMC,151731.000,A,4028.4523,N,08353.5188,W,0.06,154.87,130620,,,A*74
$GPRMC,151732.000,A,4028.4523,N,08353.5187,W,0.77,76.20,130620,,,A*42
$GPRMC,151733.000,A,4028.4525,N,08353.5186,W,0.90,38.14,130620,,,A*40
$GPRMC,151734.000,A,4028.4529,N,08353.5187,W,1.32,355.47,130620,,,A*7D
$GPRMC,151735.000,A,4028.4532,N,08353.5191,W,1.31,322.10,130620,,,A*70
$GPRMC,151736.000,A,4028.4535,N,08353.5195,W,0.98,306.53,130620,,,A*73
$GPRMC,151737.000,A,4028.4537,N,08353.5198,W,0.35,349.60,130620,,,A*71
$GPRMC,151738.000,A,4028.4538,N,08353.5198,W,0.38,84.51,130620,,,A*4C
$GPRMC,151739.000,A,4028.4538,N,08353.5199,W,0.15,254.49,130620,,,A*75
$GPRMC,151740.000,A,4028.4538,N,08353.5201,W,0.47,273.59,130620,,,A*7A
$GPRMC,151741.000,A,4028.4538,N,08353.5203,W,0.06,263.08,130620,,,A*79
$GPRMC,151742.000,A,4028.4537,N,08353.5204,W,0.40,88.92,130620,,,A*44
$GPRMC,151743.000,A,4028.4536,N,08353.5204,W,0.29,125.37,130620,,,A*72
$GPRMC,151744.000,A,4028.4535,N,08353.5205,W,0.38,225.40,130620,,,A*74
$GPRMC,151745.000,A,4028.4534,N,08353.5207,W,0.43,244.65,130620,,,A*7A
$GPRMC,151746.000,A,4028.4533,N,08353.5208,W,0.30,186.29,130620,,,A*70
$GPRMC,151747.000,A,4028.4533,N,08353.5208,W,0.41,128.44,130620,,,A*78
$GPRMC,151748.000,A,4028.4532,N,08353.5208,W,0.26,235.07,130620,,,A*7F
$GPRMC,151749.000,A,4028.4532,N,08353.5210,W,0.15,288.84,130620,,,A*7A
$GPRMC,151750.000,A,4028.4532,N,08353.5210,W,0.11,136.39,130620,,,A*76
$GPRMC,151751.000,A,4028.4532,N,08353.5210,W,0.30,113.78,130620,,,A*76
$GPRMC,151752.000,A,4028.4533,N,08353.5209,W,0.06,139.94,130620,,,A*73
$GPRMC,151753.000,A,4028.4533,N,08353.5210,W,0.13,218.03,130620,,,A*70
$GPRMC,151754.000,A,4028.4533,N,08353.5211,W,0.24,218.15,130620,,,A*75
$GPRMC,151755.000,A,4028.4533,N,08353.5211,W,0.16,149.08,130620,,,A*7E
$GPRMC,151756.000,A,4028.4533,N,08353.5211,W,0.25,117.33,130620,,,A*7E
$GPRMC,151757.000,A,4028.4532,N,08353.5210,W,0.26,132.79,130620,,,A*75
$GPRMC,151758.000,A,4028.4532,N,08353.5210,W,0.30,139.25,130620,,,A*7F
$GPRMC,151759.000,A,4028.4532,N,08353.5211,W,0.14,236.50,130620,,,A*77
$GPRMC,151800.000,A,4028.4532,N,08353.5212,W,0.14,218.12,130620,,,A*7D
$GPRMC,151801.000,A,4028.4532,N,08353.5213,W,0.19,173.72,130620,,,A*78
$GPRMC,151802.000,A,4028.4532,N,08353.5214,W,0.16,148.86,130620,,,A*70
$GPRMC,151803.000,A,4028.4532,N,08353.5214,W,0.23,134.39,130620,,,A*78
$GPRMC,151804.000,A,4028.4532,N,08353.5214,W,0.18,147.70,130620,,,A*7E
$GPRMC,151805.000,A,4028.4532,N,08353.5214,W,0.08,133.90,130620,,,A*73
$GPRMC,151806.000,A,4028.4532,N,08353.5214,W,0.12,192.05,130620,,,A*7C
$GPRMC,151807.000,A,4028.4532,N,08353.5215,W,0.15,200.33,130620,,,A*76
$GPRMC,151808.000,A,4028.4532,N,08353.5216,W,0.10,189.73,130620,,,A*79
$GPRMC,151809.000,A,4028.4532,N,08353.5216,W,0.03,198.60,130620,,,A*78
$GPRMC,151810.000,A,4028.4532,N,08353.5218,W,0.07,189.81,130620,,,A*75
$GPRMC,151811.000,A,4028.4531,N,08353.5219,W,0.10,174.36,130620,,,A*7E
$GPRMC,151812.000,A,4028.4530,N,08353.5220,W,0.07,182.88,130620,,,A*7C
$GPRMC,151813.000,A,4028.4530,N,08353.5221,W,0.15,190.90,130620,,,A*75
$GPRMC,151814.000,A,4028.4529,N,08353.5222,W,0.06,208.55,130620,,,A*70
$GPRMC,151815.000,A,4028.4529,N,08353.5223,W,0.11,203.74,130620,,,A*7E
$GPRMC,151816.000,A,4028.4529,N,08353.5224,W,0.15,205.75,130620,,,A*79
$GPRMC,151817.000,A,4028.4528,N,08353.5225,W,0.12,192.41,130620,,,A*75
$GPRMC,151818.000,A,4028.4528,N,08353.5225,W,0.11,201.08,130620,,,A*7D
$GPRMC,151819.000,A,4028.4528,N,08353.5225,W,0.13,197.05,130620,,,A*7F
$GPRMC,151820.000,A,4028.4529,N,08353.5225,W,0.10,161.70,130620,,,A*7C
$GPRMC,151821.000,A,4028.4529,N,08353.5225,W,0.10,193.98,130620,,,A*76
$GPRMC,151822.000,A,4028.4529,N,08353.5225,W,0.11,179.60,130620,,,A*77
$GPRMC,151823.000,A,4028.4528,N,08353.5226,W,0.09,176.45,130620,,,A*75
$GPRMC,151824.000,A,4028.4529,N,08353.5226,W,0.11,172.39,130620,,,A*75
$GPRMC,151825.000,A,4028.4529,N,08353.5226,W,0.10,160.44,130620,,,A*7C
$GPRMC,151826.000,A,4028.4528,N,08353.5227,W,0.10,157.69,130620,,,A*74
$GPRMC,151827.000,A,4028.4528,N,08353.5227,W,0.12,163.44,130620,,,A*7F
$GPRMC,151828.000,A,4028.4528,N,08353.5227,W,0.11,145.55,130620,,,A*77
$GPRMC,151829.000,A,4028.4528,N,08353.5228,W,0.13,132.64,130620,,,A*79
$GPRMC,151830.000,A,4028.4528,N,08353.5228,W,0.16,133.18,130620,,,A*7E
$GPRMC,151831.000,A,4028.4527,N,08353.5228,W,0.12,140.02,130620,,,A*7B
$GPRMC,151832.000,A,4028.4527,N,08353.5228,W,0.15,124.14,130620,,,A*7A
$GPRMC,151833.000,A,4028.4527,N,08353.5227,W,0.17,125.78,130620,,,A*7D
$GPRMC,151834.000,A,4028.4527,N,08353.5227,W,0.21,115.23,130620,,,A*72
$GPRMC,151835.000,A,4028.4527,N,08353.5227,W,0.16,126.47,130620,,,A*75
$GPRMC,151836.000,A,4028.4527,N,08353.5227,W,0.13,125.12,130620,,,A*70
$GPRMC,151837.000,A,4028.4527,N,08353.5227,W,0.15,130.30,130620,,,A*73
$GPRMC,151838.000,A,4028.4527,N,08353.5227,W,0.13,148.98,130620,,,A*77
$GPRMC,151839.000,A,4028.4527,N,08353.5227,W,0.16,137.26,130620,,,A*7E
$GPRMC,151836.000,A,4028.4526,N,08353.5226,W,0.13,144.30,130620,,,A*77
$GPRMC,151837.000,A,4028.4526,N,08353.5226,W,0.12,138.36,130620,,,A*7A
$GPRMC,151838.000,A,4028.4526,N,08353.5226,W,0.14,146.28,130620,,,A*75
$GPRMC,151839.000,A,4028.4526,N,08353.5226,W,0.12,132.00,130620,,,A*7B
$GPRMC,151840.000,A,4028.4526,N,08353.5226,W,0.11,160.32,130620,,,A*70
$GPRMC,151841.000,A,4028.4526,N,08353.5226,W,0.16,132.05,130620,,,A*75
$GPRMC,151842.000,A,4028.4526,N,08353.5226,W,0.16,134.42,130620,,,A*73
$GPRMC,151843.000,A,4028.4526,N,08353.5226,W,0.13,151.81,130620,,,A*7B
$GPRMC,151844.000,A,4028.4526,N,08353.5226,W,0.18,127.22,130620,,,A*7F
$GPRMC,151845.000,A,4028.4526,N,08353.5225,W,0.10,152.63,130620,,,A*72
$GPRMC,151846.000,A,4028.4526,N,08353.5225,W,0.12,162.84,130620,,,A*79
$GPRMC,151847.000,A,4028.4527,N,08353.5225,W,0.11,155.16,130620,,,A*75
$GPRMC,151848.000,A,4028.4527,N,08353.5225,W,0.04,90.40,130620,,,A*45
$GPRMC,151849.000,A,4028.4527,N,08353.5225,W,0.03,106.15,130620,,,A*7D
$GPRMC,151850.000,A,4028.4527,N,08353.5225,W,0.05,151.55,130620,,,A*75
$GPRMC,151851.000,A,4028.4527,N,08353.5225,W,0.04,122.49,130620,,,A*7C
$GPRMC,151852.000,A,4028.4527,N,08353.5226,W,0.06,189.87,130620,,,A*7D
$GPRMC,151853.000,A,4028.4527,N,08353.5226,W,0.04,173.90,130620,,,A*7D
$GPRMC,151854.000,A,4028.4527,N,08353.5226,W,0.04,134.94,130620,,,A*7D
$GPRMC,151855.000,A,4028.4527,N,08353.5226,W,0.11,154.78,130620,,,A*7C
$GPRMC,151856.000,A,4028.4527,N,08353.5226,W,0.05,120.75,130620,,,A*74
$GPRMC,151857.000,A,4028.4527,N,08353.5226,W,0.11,128.70,130620,,,A*7D
$GPRMC,151858.000,A,4028.4527,N,08353.5226,W,0.34,157.51,130620,,,A*7E
$GPRMC,151859.000,A,4028.4526,N,08353.5225,W,0.55,151.64,130620,,,A*7A
$GPRMC,151900.000,A,4028.4525,N,08353.5224,W,0.63,127.19,130620,,,A*7B
$GPRMC,151901.000,A,4028.4524,N,08353.5222,W,0.67,117.86,130620,,,A*7C
$GPRMC,151902.000,A,4028.4522,N,08353.5220,W,1.08,134.28,130620,,,A*76
$GPRMC,151903.000,A,4028.4520,N,08353.5218,W,0.74,127.94,130620,,,A*71
$GPRMC,151904.000,A,4028.4519,N,08353.5216,W,0.71,128.32,130620,,,A*74
$GPRMC,151905.000,A,4028.4518,N,08353.5215,W,0.60,124.08,130620,,,A*72
$GPRMC,151906.000,A,4028.4516,N,08353.5213,W,0.96,145.92,130620,,,A*74
$GPRMC,151907.000,A,4028.4514,N,08353.5212,W,0.99,147.66,130620,,,A*70
$GPRMC,151908.000,A,4028.4512,N,08353.5210,W,1.11,144.00,130620,,,A*79
$GPRMC,151909.000,A,4028.4510,N,08353.5208,W,0.98,154.28,130620,,,A*78
$GPRMC,151910.000,A,4028.4508,N,08353.5207,W,0.97,146.26,130620,,,A*74
$GPRMC,151911.000,A,4028.4506,N,08353.5205,W,1.03,139.03,130620,,,A*7A
$GPRMC,151912.000,A,4028.4505,N,08353.5202,W,0.86,133.70,130620,,,A*7F
$GPRMC,151913.000,A,4028.4505,N,08353.5201,W,0.16,4.32,130620,,,A*77
$GPRMC,151914.000,A,4028.4506,N,08353.5201,W,0.41,4.66,130620,,,A*70
$GPRMC,151915.000,A,4028.4509,N,08353.5203,W,0.81,341.38,130620,,,A*79
$GPRMC,151916.000,A,4028.4511,N,08353.5204,W,0.40,31.40,130620,,,A*42
$GPRMC,151917.000,A,4028.4512,N,08353.5203,W,0.26,57.09,130620,,,A*4A
$GPRMC,151918.000,A,4028.4513,N,08353.5203,W,0.60,55.97,130620,,,A*43
$GPRMC,151919.000,A,4028.4514,N,08353.5201,W,0.80,68.70,130620,,,A*4E
$GPRMC,151920.000,A,4028.4515,N,08353.5199,W,0.82,79.82,130620,,,A*48
$GPRMC,151921.000,A,4028.4516,N,08353.5197,W,0.71,57.92,130620,,,A*45
$GPRMC,151922.000,A,4028.4518,N,08353.5195,W,0.94,40.02,130620,,,A*4E
$GPRMC,151923.000,A,4028.4520,N,08353.5193,W,1.11,46.97,130620,,,A*44
$GPRMC,151924.000,A,4028.4523,N,08353.5190,W,1.19,39.30,130620,,,A*4E
$GPRMC,151925.000,A,4028.4526,N,08353.5188,W,1.17,36.99,130620,,,A*41
$GPRMC,151926.000,A,4028.4528,N,08353.5185,W,1.10,60.64,130620,,,A*47
$GPRMC,151927.000,A,4028.4529,N,08353.5182,W,1.02,79.91,130620,,,A*41
$GPRMC,151928.000,A,4028.4529,N,08353.5178,W,1.09,94.05,130620,,,A*4E
$GPRMC,151929.000,A,4028.4529,N,08353.5174,W,1.23,92.56,130620,,,A*4B
$GPRMC,151930.000,A,4028.4528,N,08353.5169,W,1.37,94.71,130620,,,A*48
$GPRMC,151931.000,A,4028.4528,N,08353.5164,W,1.85,94.65,130620,,,A*48
$GPRMC,151932.000,A,4028.4528,N,08353.5157,W,1.69,83.24,130620,,,A*4A
$GPRMC,151933.000,A,4028.4528,N,08353.5150,W,1.85,84.34,130620,,,A*48
$GPRMC,151934.000,A,4028.4528,N,08353.5141,W,1.92,82.37,130620,,,A*4C
$GPRMC,151935.000,A,4028.4529,N,08353.5134,W,1.78,77.34,130620,,,A*43
$GPRMC,151936.000,A,4028.4530,N,08353.5128,W,1.54,74.01,130620,,,A*4E
$GPRMC,151937.000,A,4028.4532,N,08353.5124,W,1.32,64.01,130620,,,A*40
$GPRMC,151938.000,A,4028.4534,N,08353.5120,W,1.17,54.37,130620,,,A*4C
$GPRMC,151939.000,A,4028.4536,N,08353.5117,W,1.15,52.72,130620,,,A*4E
$GPRMC,151940.000,A,4028.4539,N,08353.5114,W,1.12,43.07,130620,,,A*49
$GPRMC,151941.000,A,4028.4541,N,08353.5111,W,1.21,41.69,130620,,,A*48
$GPRMC,151942.000,A,4028.4544,N,08353.5108,W,1.73,47.04,130620,,,A*4C
$GPRMC,151943.000,A,4028.4548,N,08353.5104,W,1.98,35.38,130620,,,A*42
$GPRMC,151944.000,A,4028.4551,N,08353.5099,W,1.74,59.57,130620,,,A*49
$GPRMC,151945.000,A,4028.4553,N,08353.5094,W,1.87,71.01,130620,,,A*42
$GPRMC,151946.000,A,4028.4553,N,08353.5087,W,1.84,79.61,130620,,,A*4E
$GPRMC,151947.000,A,4028.4553,N,08353.5079,W,1.80,85.96,130620,,,A*41
$GPRMC,151948.000,A,4028.4554,N,08353.5072,W,2.00,88.81,130620,,,A*42
$GPRMC,151949.000,A,4028.4554,N,08353.5064,W,2.15,87.51,130620,,,A*42
$GPRMC,151950.000,A,4028.4553,N,08353.5055,W,2.23,86.82,130620,,,A*45
$GPRMC,151951.000,A,4028.4554,N,08353.5046,W,2.33,81.82,130620,,,A*47
$GPRMC,151952.000,A,4028.4554,N,08353.5037,W,2.50,87.31,130620,,,A*49
$GPRMC,151953.000,A,4028.4556,N,08353.5028,W,2.41,84.62,130620,,,A*41
$GPRMC,151954.000,A,4028.4558,N,08353.5020,W,2.28,71.91,130620,,,A*49
$GPRMC,151955.000,A,4028.4561,N,08353.5014,W,2.02,61.17,130620,,,A*42
$GPRMC,151956.000,A,4028.4565,N,08353.5008,W,1.90,56.81,130620,,,A*4B
$GPRMC,151957.000,A,4028.4568,N,08353.5002,W,1.92,48.98,130620,,,A*48
$GPRMC,151958.000,A,4028.4571,N,08353.4996,W,1.78,54.61,130620,,,A*45
$GPRMC,151959.000,A,4028.4578,N,08353.4992,W,1.89,55.77,130620,,,A*41
$GPRMC,152000.000,A,4028.4582,N,08353.4987,W,1.91,57.94,130620,,,A*40
$GPRMC,152001.000,A,4028.4585,N,08353.4980,W,1.98,58.12,130620,,,A*49
$GPRMC,152002.000,A,4028.4587,N,08353.4974,W,1.99,64.54,130620,,,A*4F
$GPRMC,152003.000,A,4028.4590,N,08353.4967,W,2.04,68.34,130620,,,A*47
$GPRMC,152004.000,A,4028.4592,N,08353.4960,W,2.12,70.65,130620,,,A*4F
$GPRMC,152005.000,A,4028.4594,N,08353.4953,W,2.23,67.07,130620,,,A*48
$GPRMC,152006.000,A,4028.4598,N,08353.4946,W,2.30,60.33,130620,,,A*41
$GPRMC,152007.000,A,4028.4601,N,08353.4939,W,2.18,65.35,130620,,,A*42
$GPRMC,152008.000,A,4028.4605,N,08353.4934,W,2.07,60.38,130620,,,A*42
$GPRMC,152009.000,A,4028.4610,N,08353.4929,W,1.95,49.66,130620,,,A*43
$GPRMC,152010.000,A,4028.4613,N,08353.4924,W,1.82,46.21,130620,,,A*4F
$GPRMC,152011.000,A,4028.4617,N,08353.4920,W,1.81,38.59,130620,,,A*4B
$GPRMC,152012.000,A,4028.4622,N,08353.4917,W,1.83,37.38,130620,,,A*40
$GPRMC,152013.000,A,4028.4627,N,08353.4912,W,1.99,34.34,130620,,,A*45
$GPRMC,152014.000,A,4028.4633,N,08353.4909,W,1.93,47.69,130620,,,A*4B
$GPRMC,152015.000,A,4028.4637,N,08353.4904,W,1.92,44.30,130620,,,A*4D
$GPRMC,152016.000,A,4028.4639,N,08353.4898,W,1.97,51.49,130620,,,A*4B
$GPRMC,152017.000,A,4028.4642,N,08353.4892,W,1.95,60.83,130620,,,A*4A
$GPRMC,152018.000,A,4028.4643,N,08353.4885,W,1.88,66.03,130620,,,A*40
$GPRMC,152019.000,A,4028.4645,N,08353.4879,W,1.94,73.37,130620,,,A*4A
$GPRMC,152020.000,A,4028.4646,N,08353.4872,W,1.90,79.04,130620,,,A*46
$GPRMC,152021.000,A,4028.4647,N,08353.4866,W,2.16,74.11,130620,,,A*47
$GPRMC,152022.000,A,4028.4651,N,08353.4859,W,2.36,71.04,130620,,,A*4C
$GPRMC,152023.000,A,4028.4654,N,08353.4852,W,2.18,67.90,130620,,,A*45
$GPRMC,152024.000,A,4028.4657,N,08353.4845,W,2.08,63.56,130620,,,A*48
$GPRMC,152025.000,A,4028.4660,N,08353.4839,W,1.81,51.80,130620,,,A*4E
$GPRMC,152026.000,A,4028.4663,N,08353.4835,W,1.58,41.95,130620,,,A*43
$GPRMC,152027.000,A,4028.4667,N,08353.4832,W,1.47,33.40,130620,,,A*42
$GPRMC,152028.000,A,4028.4670,N,08353.4830,W,1.45,26.57,130620,,,A*49
$GPRMC,152029.000,A,4028.4674,N,08353.4828,W,1.68,16.96,130620,,,A*44
$GPRMC,152030.000,A,4028.4679,N,08353.4826,W,1.77,15.73,130620,,,A*49
$GPRMC,152031.000,A,4028.4682,N,08353.4824,W,1.30,41.25,130620,,,A*4F
$GPRMC,152032.000,A,4028.4684,N,08353.4820,W,1.36,56.68,130620,,,A*47
$GPRMC,152033.000,A,4028.4686,N,08353.4816,W,1.49,51.95,130620,,,A*4C
$GPRMC,152034.000,A,4028.4688,N,08353.4812,W,1.39,54.79,130620,,,A*41
$GPRMC,152035.000,A,4028.4690,N,08353.4808,W,1.29,55.82,130620,,,A*46
$GPRMC,152036.000,A,4028.4692,N,08353.4804,W,1.36,49.92,130620,,,A*49
$GPRMC,152037.000,A,4028.4696,N,08353.4801,W,1.46,40.74,130620,,,A*4F
$GPRMC,152038.000,A,4028.4699,N,08353.4797,W,1.50,50.10,130620,,,A*4B
$GPRMC,152039.000,A,4028.4702,N,08353.4793,W,1.66,58.80,130620,,,A*49
$GPRMC,152040.000,A,4028.4705,N,08353.4789,W,1.57,53.14,130620,,,A*4F
$GPRMC,152041.000,A,4028.4706,N,08353.4783,W,1.51,71.67,130620,,,A*45
$GPRMC,152042.000,A,4028.4707,N,08353.4777,W,1.65,66.23,130620,,,A*4D
$GPRMC,152043.000,A,4028.4709,N,08353.4771,W,1.76,54.79,130620,,,A*48
$GPRMC,152044.000,A,4028.4712,N,08353.4767,W,1.65,61.74,130620,,,A*4B
$GPRMC,152045.000,A,4028.4715,N,08353.4762,W,1.65,49.89,130620,,,A*40
$GPRMC,152046.000,A,4028.4719,N,08353.4759,W,1.57,37.62,130620,,,A*4A
$GPRMC,152047.000,A,4028.4721,N,08353.4755,W,1.62,31.38,130620,,,A*43
$GPRMC,152048.000,A,4028.4727,N,08353.4753,W,1.58,29.78,130620,,,A*48
$GPRMC,152049.000,A,4028.4730,N,08353.4750,W,1.52,36.30,130620,,,A*44
$GPRMC,152050.000,A,4028.4734,N,08353.4747,W,1.30,53.95,130620,,,A*46
$GPRMC,152051.000,A,4028.4737,N,08353.4744,W,1.42,40.33,130620,,,A*4C
$GPRMC,152052.000,A,4028.4743,N,08353.4742,W,1.64,31.17,130620,,,A*4E
$GPRMC,152053.000,A,4028.4747,N,08353.4739,W,1.48,40.74,130620,,,A*4A
$GPRMC,152054.000,A,4028.4752,N,08353.4736,W,1.48,45.10,130620,,,A*41
$GPRMC,152055.000,A,4028.4754,N,08353.4731,W,1.50,52.38,130620,,,A*44
$GPRMC,152056.000,A,4028.4757,N,08353.4727,W,1.30,48.80,130620,,,A*4D
$GPRMC,152057.000,A,4028.4760,N,08353.4724,W,1.25,35.89,130620,,,A*4C
$GPRMC,152058.000,A,4028.4763,N,08353.4722,W,1.13,35.98,130620,,,A*43
$GPRMC,152059.000,A,4028.4766,N,08353.4720,W,1.14,31.60,130620,,,A*41
$GPRMC,152100.000,A,4028.4770,N,08353.4719,W,1.18,24.26,130620,,,A*4B
$GPRMC,152101.000,A,4028.4772,N,08353.4717,W,0.90,38.41,130620,,,A*4B
$GPRMC,152102.000,A,4028.4775,N,08353.4715,W,1.06,28.05,130620,,,A*42
$GPRMC,152103.000,A,4028.4777,N,08353.4714,W,1.00,22.80,130620,,,A*41
$GPRMC,152104.000,A,4028.4777,N,08353.4711,W,0.67,36.92,130620,,,A*45
$GPRMC,152105.000,A,4028.4777,N,08353.4711,W,0.01,147.79,130620,,,A*76
$GPRMC,152106.000,A,4028.4777,N,08353.4711,W,0.11,164.69,130620,,,A*74
$GPRMC,152107.000,A,4028.4777,N,08353.4711,W,0.05,42.21,130620,,,A*49
$GPRMC,152108.000,A,4028.4777,N,08353.4711,W,0.16,139.70,130620,,,A*7D
$GPRMC,152109.000,A,4028.4777,N,08353.4712,W,0.04,327.15,130620,,,A*72
$GPRMC,152110.000,A,4028.4777,N,08353.4712,W,0.19,300.97,130620,,,A*79
$GPRMC,152111.000,A,4028.4777,N,08353.4713,W,0.47,324.19,130620,,,A*72
$GPRMC,152112.000,A,4028.4778,N,08353.4714,W,0.15,331.59,130620,,,A*7E
$GPRMC,152113.000,A,4028.4778,N,08353.4714,W,0.24,324.89,130620,,,A*74
$GPRMC,152114.000,A,4028.4779,N,08353.4715,W,0.40,325.81,130620,,,A*78
$GPRMC,152115.000,A,4028.4776,N,08353.4714,W,0.10,260.15,130620,,,A*7F
$GPRMC,152116.000,A,4028.4775,N,08353.4714,W,0.20,288.18,130620,,,A*77
$GPRMC,152117.000,A,4028.4775,N,08353.4715,W,0.09,97.02,130620,,,A*4B
$GPRMC,152118.000,A,4028.4775,N,08353.4715,W,0.07,73.07,130620,,,A*45
$GPRMC,152119.000,A,4028.4776,N,08353.4716,W,0.21,337.29,130620,,,A*7F
$GPRMC,152120.000,A,4028.4776,N,08353.4716,W,0.15,104.77,130620,,,A*7B
$GPRMC,152121.000,A,4028.4777,N,08353.4717,W,0.08,90.31,130620,,,A*48
$GPRMC,152122.000,A,4028.4777,N,08353.4718,W,0.25,335.16,130620,,,A*72
$GPRMC,152123.000,A,4028.4778,N,08353.4718,W,0.21,86.14,130620,,,A*41
$GPRMC,152124.000,A,4028.4778,N,08353.4718,W,0.28,119.36,130620,,,A*78
$GPRMC,152125.000,A,4028.4778,N,08353.4719,W,0.10,130.06,130620,,,A*7B
$GPRMC,152126.000,A,4028.4778,N,08353.4719,W,0.15,284.71,130620,,,A*71
$GPRMC,152127.000,A,4028.4778,N,08353.4720,W,0.16,11.36,130620,,,A*44
$GPRMC,152128.000,A,4028.4778,N,08353.4720,W,0.16,1.06,130620,,,A*79
$GPRMC,152129.000,A,4028.4778,N,08353.4720,W,0.04,119.15,130620,,,A*71
$GPRMC,152130.000,A,4028.4778,N,08353.4720,W,0.21,115.68,130620,,,A*78
$GPRMC,152131.000,A,4028.4778,N,08353.4720,W,0.08,313.33,130620,,,A*78
$GPRMC,152132.000,A,4028.4778,N,08353.4721,W,0.38,340.98,130620,,,A*7E
$GPRMC,152133.000,A,4028.4779,N,08353.4722,W,0.48,349.95,130620,,,A*7E
$GPRMC,152134.000,A,4028.4781,N,08353.4722,W,0.42,359.86,130620,,,A*77
$GPRMC,152135.000,A,4028.4783,N,08353.4723,W,0.43,354.39,130620,,,A*7D
$GPRMC,152136.000,A,4028.4785,N,08353.4723,W,0.37,352.46,130620,,,A*75
$GPRMC,152137.000,A,4028.4786,N,08353.4723,W,0.25,19.51,130620,,,A*4E
$GPRMC,152138.000,A,4028.4787,N,08353.4723,W,0.40,66.66,130620,,,A*4F
$GPRMC,152139.000,A,4028.4788,N,08353.4722,W,0.26,47.22,130620,,,A*43
$GPRMC,152140.000,A,4028.4789,N,08353.4722,W,0.25,58.14,130620,,,A*44
$GPRMC,152141.000,A,4028.4790,N,08353.4722,W,0.27,335.81,130620,,,A*7B
$GPRMC,152142.000,A,4028.4791,N,08353.4723,W,0.18,309.93,130620,,,A*78
$GPRMC,152143.000,A,4028.4791,N,08353.4724,W,0.24,308.89,130620,,,A*7B
$GPRMC,152144.000,A,4028.4792,N,08353.4725,W,0.06,67.95,130620,,,A*49
$GPRMC,152145.000,A,4028.4793,N,08353.4724,W,0.22,73.90,130620,,,A*4E
$GPRMC,152146.000,A,4028.4793,N,08353.4724,W,0.04,340.44,130620,,,A*73
$GPRMC,152147.000,A,4028.4793,N,08353.4724,W,0.15,307.88,130620,,,A*71
$GPRMC,152148.000,A,4028.4794,N,08353.4724,W,0.09,215.01,130620,,,A*77
$GPRMC,152149.000,A,4028.4793,N,08353.4723,W,0.16,117.20,130620,,,A*7A
$GPRMC,152150.000,A,4028.4793,N,08353.4723,W,0.08,174.85,130620,,,A*77
$GPRMC,152151.000,A,4028.4793,N,08353.4723,W,0.08,73.06,130620,,,A*4B
$GPRMC,152152.000,A,4028.4793,N,08353.4723,W,0.06,127.77,130620,,,A*70
$GPRMC,152153.000,A,4028.4793,N,08353.4723,W,0.17,226.58,130620,,,A*7E
$GPRMC,152154.000,A,4028.4793,N,08353.4724,W,0.21,230.22,130620,,,A*71
$GPRMC,152155.000,A,4028.4793,N,08353.4725,W,0.11,125.91,130620,,,A*7D
$GPRMC,152156.000,A,4028.4793,N,08353.4725,W,0.24,123.61,130620,,,A*71
$GPRMC,152157.000,A,4028.4792,N,08353.4725,W,0.26,119.75,130620,,,A*7F
$GPRMC,152158.000,A,4028.4792,N,08353.4724,W,0.25,112.25,130620,,,A*7C
$GPRMC,152159.000,A,4028.4792,N,08353.4724,W,0.31,147.66,130620,,,A*7F
$GPRMC,152200.000,A,4028.4791,N,08353.4723,W,0.24,136.32,130620,,,A*77
$GPRMC,152201.000,A,4028.4791,N,08353.4723,W,0.29,144.91,130620,,,A*77
$GPRMC,152202.000,A,4028.4790,N,08353.4722,W,0.29,125.97,130620,,,A*75
$GPRMC,152203.000,A,4028.4790,N,08353.4722,W,0.25,149.09,130620,,,A*75
$GPRMC,152204.000,A,4028.4789,N,08353.4722,W,0.32,203.01,130620,,,A*79
$GPRMC,152205.000,A,4028.4789,N,08353.4723,W,0.35,211.21,130620,,,A*7F
$GPRMC,152206.000,A,4028.4788,N,08353.4724,W,0.33,229.91,130620,,,A*7C
$GPRMC,152207.000,A,4028.4788,N,08353.4725,W,0.29,228.07,130620,,,A*79
$GPRMC,152208.000,A,4028.4788,N,08353.4726,W,0.29,211.47,130620,,,A*7B
$GPRMC,152209.000,A,4028.4787,N,08353.4727,W,0.18,161.37,130620,,,A*75
$GPRMC,152210.000,A,4028.4787,N,08353.4727,W,0.25,120.90,130620,,,A*7B
$GPRMC,152211.000,A,4028.4787,N,08353.4726,W,0.24,112.18,130620,,,A*7B
$GPRMC,152212.000,A,4028.4787,N,08353.4726,W,0.22,130.88,130620,,,A*77
$GPRMC,152213.000,A,4028.4787,N,08353.4726,W,0.25,117.40,130620,,,A*70
$GPRMC,152214.000,A,4028.4787,N,08353.4725,W,0.25,105.58,130620,,,A*7E
$GPRMC,152215.000,A,4028.4787,N,08353.4724,W,0.26,150.65,130620,,,A*73
$GPRMC,152216.000,A,4028.4786,N,08353.4724,W,0.26,150.23,130620,,,A*73
$GPRMC,152217.000,A,4028.4786,N,08353.4724,W,0.24,108.95,130620,,,A*70
$GPRMC,152218.000,A,4028.4786,N,08353.4723,W,0.22,136.53,130620,,,A*79
$GPRMC,152219.000,A,4028.4786,N,08353.4723,W,0.17,133.25,130620,,,A*7A
$GPRMC,152220.000,A,4028.4786,N,08353.4722,W,0.21,154.15,130620,,,A*76
$GPRMC,152221.000,A,4028.4785,N,08353.4723,W,0.16,173.34,130620,,,A*77
$GPRMC,152222.000,A,4028.4785,N,08353.4722,W,0.19,197.02,130620,,,A*75
$GPRMC,152223.000,A,4028.4785,N,08353.4722,W,0.15,139.87,130620,,,A*71
$GPRMC,152224.000,A,4028.4785,N,08353.4721,W,0.18,185.80,130620,,,A*78
$GPRMC,152225.000,A,4028.4785,N,08353.4722,W,0.25,320.54,130620,,,A*70
$GPRMC,152226.000,A,4028.4786,N,08353.4722,W,0.24,351.45,130620,,,A*77
$GPRMC,152227.000,A,4028.4787,N,08353.4722,W,0.30,346.67,130620,,,A*74
$GPRMC,152228.000,A,4028.4787,N,08353.4723,W,0.10,22.39,130620,,,A*42
$GPRMC,152229.000,A,4028.4787,N,08353.4723,W,0.18,161.68,130620,,,A*79
$GPRMC,152230.000,A,4028.4787,N,08353.4723,W,0.15,149.19,130620,,,A*70
$GPRMC,152231.000,A,4028.4787,N,08353.4723,W,0.17,131.80,130620,,,A*7C
$GPRMC,152232.000,A,4028.4786,N,08353.4723,W,0.14,172.40,130620,,,A*76
$GPRMC,152233.000,A,4028.4786,N,08353.4723,W,0.21,162.80,130620,,,A*7C
$GPRMC,152234.000,A,4028.4786,N,08353.4723,W,0.15,154.06,130620,,,A*77
$GPRMC,152235.000,A,4028.4785,N,08353.4723,W,0.16,214.73,130620,,,A*73
$GPRMC,152236.000,A,4028.4785,N,08353.4723,W,0.14,306.91,130620,,,A*7C
$GPRMC,152237.000,A,4028.4786,N,08353.4723,W,0.16,100.34,130620,,,A*77
$GPRMC,152238.000,A,4028.4786,N,08353.4723,W,0.13,36.43,130620,,,A*49
$GPRMC,152239.000,A,4028.4786,N,08353.4723,W,0.18,100.90,130620,,,A*79
$GPRMC,152240.000,A,4028.4787,N,08353.4723,W,0.05,327.18,130620,,,A*7D
$GPRMC,152241.000,A,4028.4787,N,08353.4723,W,0.09,288.87,130620,,,A*72
$GPRMC,152242.000,A,4028.4787,N,08353.4724,W,0.07,291.15,130620,,,A*7B
$GPRMC,152243.000,A,4028.4788,N,08353.4724,W,0.13,45.18,130620,,,A*46
$GPRMC,152244.000,A,4028.4788,N,08353.4723,W,0.19,54.46,130620,,,A*47
$GPRMC,152245.000,A,4028.4788,N,08353.4723,W,0.25,96.54,130620,,,A*44
$GPRMC,152246.000,A,4028.4789,N,08353.4722,W,0.26,84.36,130620,,,A*43
$GPRMC,152247.000,A,4028.4789,N,08353.4721,W,0.24,70.15,130620,,,A*49
$GPRMC,152248.000,A,4028.4789,N,08353.4721,W,0.17,124.13,130620,,,A*70
$GPRMC,152249.000,A,4028.4789,N,08353.4721,W,0.05,107.31,130620,,,A*73
$GPRMC,152250.000,A,4028.4789,N,08353.4721,W,0.17,148.79,130620,,,A*7F
$GPRMC,152251.000,A,4028.4789,N,08353.4721,W,0.07,118.16,130620,,,A*73
$GPRMC,152252.000,A,4028.4789,N,08353.4722,W,0.08,97.14,130620,,,A*48
$GPRMC,152253.000,A,4028.4789,N,08353.4722,W,0.10,27.54,130620,,,A*4F
$GPRMC,152254.000,A,4028.4789,N,08353.4722,W,0.06,36.99,130620,,,A*4E
$GPRMC,152255.000,A,4028.4789,N,08353.4723,W,0.09,45.75,130620,,,A*47
$GPRMC,152256.000,A,4028.4790,N,08353.4723,W,0.03,124.79,130620,,,A*7C
$GPRMC,152257.000,A,4028.4790,N,08353.4723,W,0.11,61.19,130620,,,A*48
$GPRMC,152258.000,A,4028.4790,N,08353.4724,W,0.09,50.69,130620,,,A*4C
$GPRMC,152259.000,A,4028.4790,N,08353.4724,W,0.06,98.26,130620,,,A*4D
$GPRMC,152300.000,A,4028.4790,N,08353.4724,W,0.11,193.66,130620,,,A*78
$GPRMC,152301.000,A,4028.4790,N,08353.4724,W,0.08,194.85,130620,,,A*7B
$GPRMC,152302.000,A,4028.4790,N,08353.4725,W,0.01,147.90,130620,,,A*7A
$GPRMC,152303.000,A,4028.4790,N,08353.4725,W,0.09,179.40,130620,,,A*73
$GPRMC,152304.000,A,4028.4790,N,08353.4726,W,0.06,77.23,130620,,,A*42
$GPRMC,152305.000,A,4028.4791,N,08353.4725,W,0.06,119.32,130620,,,A*78
$GPRMC,152306.000,A,4028.4791,N,08353.4723,W,0.11,30.47,130620,,,A*43
$GPRMC,152307.000,A,4028.4792,N,08353.4723,W,0.17,45.61,130620,,,A*41
$GPRMC,152308.000,A,4028.4792,N,08353.4723,W,0.22,160.41,130620,,,A*7C
$GPRMC,152309.000,A,4028.4791,N,08353.4724,W,0.25,157.33,130620,,,A*7F
$GPRMC,152310.000,A,4028.4791,N,08353.4724,W,0.06,2.18,130620,,,A*7E
$GPRMC,152311.000,A,4028.4791,N,08353.4724,W,0.03,117.52,130620,,,A*71
$GPRMC,152312.000,A,4028.4792,N,08353.4724,W,0.07,136.64,130620,,,A*73
$GPRMC,152313.000,A,4028.4792,N,08353.4723,W,0.25,73.07,130620,,,A*40
$GPRMC,152314.000,A,4028.4792,N,08353.4722,W,0.07,113.96,130620,,,A*79
$GPRMC,152315.000,A,4028.4792,N,08353.4722,W,0.24,210.44,130620,,,A*76
$GPRMC,152316.000,A,4028.4792,N,08353.4723,W,0.55,223.62,130620,,,A*76
$GPRMC,152317.000,A,4028.4791,N,08353.4723,W,0.07,229.46,130620,,,A*7F
$GPRMC,152318.000,A,4028.4791,N,08353.4723,W,0.04,170.89,130620,,,A*7F
$GPRMC,152319.000,A,4028.4791,N,08353.4723,W,0.11,114.46,130620,,,A*7B
$GPRMC,152320.000,A,4028.4791,N,08353.4723,W,0.06,141.65,130620,,,A*76
$GPRMC,152321.000,A,4028.4791,N,08353.4723,W,0.07,141.79,130620,,,A*7B
$GPRMC,152322.000,A,4028.4791,N,08353.4723,W,0.10,138.90,130620,,,A*77
$GPRMC,152323.000,A,4028.4791,N,08353.4722,W,0.14,105.07,130620,,,A*73
$GPRMC,152324.000,A,4028.4791,N,08353.4721,W,0.25,72.30,130620,,,A*40
$GPRMC,152325.000,A,4028.4791,N,08353.4720,W,0.44,65.44,130620,,,A*42
$GPRMC,152326.000,A,4028.4792,N,08353.4719,W,0.13,142.57,130620,,,A*7C
$GPRMC,152327.000,A,4028.4791,N,08353.4718,W,0.19,166.37,130620,,,A*75
$GPRMC,152328.000,A,4028.4791,N,08353.4718,W,0.19,170.81,130620,,,A*70
$GPRMC,152329.000,A,4028.4791,N,08353.4718,W,0.15,162.41,130620,,,A*72
$GPRMC,152330.000,A,4028.4791,N,08353.4718,W,0.14,124.84,130620,,,A*70
$GPRMC,152331.000,A,4028.4791,N,08353.4717,W,0.16,109.12,130620,,,A*7C
$GPRMC,152332.000,A,4028.4791,N,08353.4717,W,0.19,158.34,130620,,,A*70
