$ADVER,3080,2.2
$GPRMC,151022.499,A,4028.3667,N,08353.4800,W,0.03,2.81,130620,,,A*78
$GPRMC,151024.499,A,4028.3672,N,08353.4833,W,0.50,79.37,130620,,,A*4D
$GPRMC,151026.499,A,4028.3683,N,08353.4860,W,0.12,133.83,130620,,,A*71
$GPRMC,151028.499,A,4028.3695,N,08353.4893,W,0.05,328.96,130620,,,A*7E
$GPRMC,151030.499,A,4028.3716,N,08353.4938,W,0.10,19.94,130620,,,A*4A
$GPRMC,151032.499,A,4028.3737,N,08353.4988,W,0.26,229.88,130620,,,A*79
$GPRMC,151034.499,A,4028.4806,N,08353.4481,W,0.38,208.48,130620,,,A*71
$GPRMC,151035.495,A,4028.5024,N,08353.4015,W,0.03,76.79,130620,,,A*4D
$GPRMC,151036.499,A,4028.5167,N,08353.3703,W,0.34,215.48,130620,,,A*72
$GPRMC,151037.499,A,4028.5269,N,08353.3483,W,0.36,223.79,130620,,,A*70
$GPRMC,151038.499,A,4028.5344,N,08353.3318,W,0.28,220.51,130620,,,A*72
$GPRMC,151039.499,A,4028.5403,N,08353.3191,W,0.37,221.54,130620,,,A*7E
$GPRMC,151040.499,A,4028.5448,N,08353.3089,W,0.29,230.47,130620,,,A*7A
$GPRMC,151041.499,A,4028.5448,N,08353.3090,W,0.29,230.47,130620,,,E*77
$GPRMC,151042.499,A,4028.5447,N,08353.3091,W,0.29,230.47,130620,,,E*7A
$GPRMC,151043.498,A,4028.5447,N,08353.3092,W,0.29,230.47,130620,,,E*79
$GPRMC,151044.499,A,4028.5446,N,08353.3092,W,0.29,230.47,130620,,,E*7E
$GPRMC,151045.499,A,4028.5446,N,08353.3093,W,0.29,230.47,130620,,,E*7E
$GPRMC,151046.499,A,4028.5445,N,08353.3094,W,0.29,230.47,130620,,,E*79
$GPRMC,151047.495,A,4028.5445,N,08353.3095,W,0.29,230.47,130620,,,E*75
$GPRMC,151048.499,A,4028.5444,N,08353.3096,W,0.29,230.47,130620,,,E*74
$GPRMC,151049.498,A,4028.5444,N,08353.3097,W,0.29,230.47,130620,,,E*75
$GPRMC,151050.498,A,4028.5443,N,08353.3097,W,0.29,230.47,130620,,,E*7A
$GPRMC,151051.498,A,4028.5443,N,08353.3098,W,0.29,230.47,130620,,,E*74
$GPRMC,151052.498,A,4028.4892,N,08353.3770,W,0.96,125.49,130620,,,A*7E
$GPRMC,151053.498,A,4028.4658,N,08353.4254,W,0.56,86.39,130620,,,A*40
$GPRMC,151054.498,A,4028.4638,N,08353.4279,W,0.22,112.94,130620,,,A*76
$GPRMC,151055.499,A,4028.4634,N,08353.4276,W,0.73,219.37,130620,,,A*70
$GPRMC,151056.499,A,4028.4634,N,08353.4289,W,0.06,197.19,130620,,,A*78
$GPRMC,151057.499,A,4028.4626,N,08353.4315,W,0.30,174.24,130620,,,A*78
$GPRMC,151058.499,A,4028.4624,N,08353.4338,W,0.06,222.00,130620,,,A*79
$GPRMC,151059.498,A,4028.4624,N,08353.4338,W,0.06,222.00,130620,,,E*7D
$GPRMC,151100.499,A,4028.4619,N,08353.4340,W,0.83,187.69,130620,,,A*7A
$GPRMC,151101.498,A,4028.4621,N,08353.4357,W,1.34,282.93,130620,,,A*79
$GPRMC,151102.499,A,4028.4622,N,08353.4362,W,1.34,282.93,130620,,,E*7A
$GPRMC,151103.499,A,4028.4626,N,08353.4378,W,2.51,287.75,130620,,,A*7D
$GPRMC,151104.499,A,4028.4620,N,08353.4381,W,0.09,350.32,130620,,,A*7D
$GPRMC,151105.499,A,4028.4603,N,08353.4425,W,0.60,233.17,130620,,,A*78
$GPRMC,151106.499,A,4028.4597,N,08353.4431,W,0.21,136.29,130620,,,A*7E
$GPRMC,151107.499,A,4028.4598,N,08353.4421,W,0.11,79.35,130620,,,A*45
$GPRMC,151108.499,A,4028.4600,N,08353.4414,W,0.29,77.16,130620,,,A*4A
$GPRMC,151109.499,A,4028.4605,N,08353.4385,W,1.18,78.39,130620,,,A*40
$GPRMC,151110.499,A,4028.4606,N,08353.4380,W,0.16,85.64,130620,,,A*4B
$GPRMC,151111.499,A,4028.4607,N,08353.4375,W,0.45,120.80,130620,,,A*73
$GPRMC,151112.499,A,4028.4608,N,08353.4362,W,0.29,49.37,130620,,,A*41
$GPRMC,151113.499,A,4028.4612,N,08353.4355,W,0.20,69.76,130620,,,A*41
$GPRMC,151114.499,A,4028.4615,N,08353.4354,W,0.10,109.61,130620,,,A*72
$GPRMC,151115.499,A,4028.4618,N,08353.4354,W,0.61,29.21,130620,,,A*4F
$GPRMC,151116.499,A,4028.4621,N,08353.4354,W,0.41,55.05,130620,,,A*49
$GPRMC,151117.499,A,4028.4628,N,08353.4350,W,0.37,37.76,130620,,,A*44
$GPRMC,151118.499,A,4028.4636,N,08353.4347,W,0.31,69.73,130620,,,A*4A
$GPRMC,151119.499,A,4028.4643,N,08353.4352,W,0.41,31.49,130620,,,A*4E
$GPRMC,151120.499,A,4028.4654,N,08353.4361,W,0.45,33.41,130620,,,A*4C
$GPRMC,151121.499,A,4028.4662,N,08353.4362,W,0.57,16.83,130620,,,A*41
$GPRMC,151122.499,A,4028.4669,N,08353.4364,W,0.44,19.50,130620,,,A*4C
$GPRMC,151123.499,A,4028.4667,N,08353.4354,W,0.31,114.40,130620,,,A*7F
$GPRMC,151124.499,A,4028.4667,N,08353.4352,W,0.29,107.03,130620,,,A*72
$GPRMC,151125.499,A,4028.4669,N,08353.4350,W,0.38,123.46,130620,,,A*78
$GPRMC,151126.499,A,4028.4675,N,08353.4348,W,0.17,101.36,130620,,,A*75
$GPRMC,151127.499,A,4028.4683,N,08353.4347,W,0.18,41.20,130620,,,A*4F
$GPRMC,151128.499,A,4028.4684,N,08353.4346,W,0.11,52.01,130620,,,A*4E
$GPRMC,151129.499,A,4028.4686,N,08353.4345,W,0.31,54.13,130620,,,A*49
$GPRMC,151130.499,A,4028.4688,N,08353.4344,W,0.16,52.53,130620,,,A*49
$GPRMC,151131.499,A,4028.4689,N,08353.4342,W,0.42,78.57,130620,,,A*42
$GPRMC,151132.499,A,4028.4709,N,08353.4339,W,0.48,112.56,130620,,,A*72
$GPRMC,151133.499,A,4028.4719,N,08353.4332,W,0.45,87.18,130620,,,A*43
$GPRMC,151134.499,A,4028.4726,N,08353.4337,W,1.03,52.15,130620,,,A*4B
$GPRMC,151135.499,A,4028.4731,N,08353.4337,W,1.72,58.12,130620,,,A*47
$GPRMC,151136.499,A,4028.4736,N,08353.4326,W,0.53,73.61,130620,,,A*4C
$GPRMC,151137.000,A,4028.4736,N,08353.4325,W,0.13,188.11,130620,,,A*7C
$GPRMC,151138.000,A,4028.4736,N,08353.4317,W,0.19,28.26,130620,,,A*47
$GPRMC,151139.000,A,4028.4734,N,08353.4306,W,0.23,107.44,130620,,,A*75
$GPRMC,151140.000,A,4028.4732,N,08353.4297,W,0.22,107.33,130620,,,A*75
$GPRMC,151141.000,A,4028.4728,N,08353.4290,W,0.32,92.87,130620,,,A*4B
$GPRMC,151142.000,A,4028.4727,N,08353.4278,W,0.27,114.78,130620,,,A*7A
$GPRMC,151143.000,A,4028.4727,N,08353.4266,W,0.34,95.86,130620,,,A*4F
$GPRMC,151144.000,A,4028.4725,N,08353.4256,W,0.32,96.11,130620,,,A*42
$GPRMC,151145.000,A,4028.4724,N,08353.4247,W,0.25,115.94,130620,,,D*76
$GPRMC,151146.000,A,4028.4723,N,08353.4241,W,0.39,101.50,130620,,,D*74
$GPRMC,151147.000,A,4028.4721,N,08353.4236,W,0.31,107.77,130620,,,D*7C
$GPRMC,151148.000,A,4028.4720,N,08353.4233,W,0.36,102.07,130620,,,D*72
$GPRMC,151149.000,A,4028.4718,N,08353.4230,W,0.29,116.58,130620,,,D*7A
$GPRMC,151150.000,A,4028.4717,N,08353.4228,W,0.32,103.52,130620,,,D*70
$GPRMC,151151.000,A,4028.4716,N,08353.4225,W,0.33,107.24,130620,,,D*79
$GPRMC,151152.000,A,4028.4715,N,08353.4222,W,0.40,104.15,130620,,,D*7B
$GPRMC,151153.000,A,4028.4715,N,08353.4219,W,0.43,96.44,130620,,,D*4F
$GPRMC,151154.000,A,4028.4714,N,08353.4216,W,0.35,100.99,130620,,,D*79
$GPRMC,151155.000,A,4028.4715,N,08353.4213,W,0.56,49.24,130620,,,D*43
$GPRMC,151156.000,A,4028.4715,N,08353.4211,W,0.27,111.44,130620,,,D*7E
$GPRMC,151157.000,A,4028.4715,N,08353.4208,W,0.61,89.79,130620,,,D*4B
$GPRMC,151158.000,A,4028.4715,N,08353.4205,W,0.57,101.20,130620,,,D*71
$GPRMC,151159.000,A,4028.4714,N,08353.4202,W,0.45,100.64,130620,,,D*74
$GPRMC,151200.000,A,4028.4714,N,08353.4200,W,0.36,101.87,130620,,,D*71
$GPRMC,151201.000,A,4028.4713,N,08353.4200,W,0.30,104.63,130620,,,D*7E
$GPRMC,151202.000,A,4028.4713,N,08353.4201,W,0.34,92.52,130620,,,D*44
$GPRMC,151203.000,A,4028.4712,N,08353.4201,W,0.27,89.39,130620,,,D*41
$GPRMC,151204.000,A,4028.4712,N,08353.4200,W,0.13,94.70,130620,,,D*41
$GPRMC,151205.000,A,4028.4712,N,08353.4200,W,0.24,106.28,130620,,,D*73
$GPRMC,151206.000,A,4028.4711,N,08353.4200,W,0.26,133.46,130620,,,D*7F
$GPRMC,151207.000,A,4028.4710,N,08353.4199,W,0.38,67.21,130620,,,D*42
$GPRMC,151208.000,A,4028.4711,N,08353.4203,W,0.56,115.04,130620,,,D*77
$GPRMC,151209.000,A,4028.4711,N,08353.4204,W,0.40,137.95,130620,,,D*7E
$GPRMC,151210.000,A,4028.4710,N,08353.4204,W,0.28,135.90,130620,,,D*7E
$GPRMC,151211.000,A,4028.4709,N,08353.4204,W,0.33,122.04,130620,,,D*76
$GPRMC,151212.000,A,4028.4709,N,08353.4202,W,0.30,76.18,130620,,,D*4D
$GPRMC,151213.000,A,4028.4707,N,08353.4201,W,0.77,178.35,130620,,,D*72
$GPRMC,151214.000,A,4028.4705,N,08353.4198,W,1.04,132.71,130620,,,D*7F
$GPRMC,151215.000,A,4028.4704,N,08353.4192,W,1.01,68.90,130620,,,D*41
$GPRMC,151216.000,A,4028.4702,N,08353.4200,W,0.63,193.10,130620,,,D*74
$GPRMC,151217.000,A,4028.4700,N,08353.4204,W,0.84,75.68,130620,,,D*4C
$GPRMC,151218.000,A,4028.4696,N,08353.4201,W,0.44,52.48,130620,,,D*43
$GPRMC,151219.000,A,4028.4692,N,08353.4196,W,1.19,119.49,130620,,,D*7D
$GPRMC,151220.000,A,4028.4687,N,08353.4191,W,0.81,116.56,130620,,,D*75
$GPRMC,151221.000,A,4028.4684,N,08353.4189,W,0.33,117.06,130620,,,D*73
$GPRMC,151222.000,A,4028.4681,N,08353.4188,W,0.37,73.73,130620,,,D*41
$GPRMC,151223.000,A,4028.4678,N,08353.4186,W,0.55,101.74,130620,,,D*7F
$GPRMC,151224.000,A,4028.4675,N,08353.4183,W,0.47,114.84,130620,,,D*78
$GPRMC,151225.000,A,4028.4672,N,08353.4180,W,0.41,99.97,130620,,,D*4D
$GPRMC,151226.000,A,4028.4667,N,08353.4176,W,0.36,137.85,130620,,,D*75
$GPRMC,151227.000,A,4028.4665,N,08353.4171,W,0.83,128.87,130620,,,D*73
$GPRMC,151228.000,A,4028.4666,N,08353.4168,W,0.41,55.12,130620,,,D*4E
$GPRMC,151229.000,A,4028.4662,N,08353.4165,W,0.60,113.42,130620,,,D*73
$GPRMC,151230.000,A,4028.4657,N,08353.4163,W,0.67,124.01,130620,,,D*7F
$GPRMC,151231.000,A,4028.4653,N,08353.4160,W,0.55,111.87,130620,,,D*70
$GPRMC,151232.000,A,4028.4651,N,08353.4162,W,0.23,101.46,130620,,,D*7E
$GPRMC,151233.000,A,4028.4650,N,08353.4169,W,0.31,138.74,130620,,,D*7D
$GPRMC,151234.000,A,4028.4650,N,08353.4176,W,0.28,120.46,130620,,,D*74
$GPRMC,151235.000,A,4028.4650,N,08353.4184,W,0.11,342.95,130620,,,D*7A
$GPRMC,151236.000,A,4028.4649,N,08353.4184,W,0.44,94.94,130620,,,D*48
$GPRMC,151237.000,A,4028.4649,N,08353.4189,W,0.67,130.30,130620,,,D*74
$GPRMC,151238.000,A,4028.4648,N,08353.4196,W,0.48,243.15,130620,,,D*79
$GPRMC,151239.000,A,4028.4648,N,08353.4202,W,0.40,197.91,130620,,,D*78
$GPRMC,151240.000,A,4028.4647,N,08353.4209,W,0.59,182.49,130620,,,D*7B
$GPRMC,151241.000,A,4028.4647,N,08353.4215,W,0.06,179.73,130620,,,D*70
$GPRMC,151242.000,A,4028.4649,N,08353.4220,W,0.59,79.59,130620,,,D*48
$GPRMC,151243.000,A,4028.4647,N,08353.4225,W,0.79,171.01,130620,,,D*74
$GPRMC,151244.000,A,4028.4647,N,08353.4228,W,0.20,148.56,130620,,,D*7A
$GPRMC,151245.000,A,4028.4648,N,08353.4231,W,0.67,171.55,130620,,,D*76
$GPRMC,151246.000,A,4028.4649,N,08353.4230,W,0.95,132.12,130620,,,D*7C
$GPRMC,151247.000,A,4028.4647,N,08353.4233,W,0.86,151.60,130620,,,D*72
$GPRMC,151248.000,A,4028.4647,N,08353.4244,W,0.28,337.05,130620,,,D*78
$GPRMC,151249.000,A,4028.4649,N,08353.4248,W,0.49,142.34,130620,,,D*7E
$GPRMC,151250.000,A,4028.4654,N,08353.4250,W,0.17,275.01,130620,,,D*79
$GPRMC,151251.000,A,4028.4657,N,08353.4253,W,0.14,101.28,130620,,,D*70
$GPRMC,151252.000,A,4028.4660,N,08353.4255,W,0.15,207.63,130620,,,D*7A
$GPRMC,151253.000,A,4028.4662,N,08353.4257,W,0.29,198.38,130620,,,D*7F
$GPRMC,151254.000,A,4028.4664,N,08353.4259,W,0.20,61.96,130620,,,D*4A
$GPRMC,151255.000,A,4028.4663,N,08353.4260,W,0.05,335.25,130620,,,D*7B
$GPRMC,151256.000,A,4028.4661,N,08353.4266,W,0.47,215.79,130620,,,D*70
$GPRMC,151257.000,A,4028.4659,N,08353.4271,W,0.67,234.27,130620,,,D*76
$GPRMC,151258.000,A,4028.4661,N,08353.4273,W,0.09,51.75,130620,,,D*4E
$GPRMC,151259.000,A,4028.4662,N,08353.4275,W,0.14,135.83,130620,,,D*7C
$GPRMC,151300.000,A,4028.4662,N,08353.4279,W,0.05,63.85,130620,,,D*49
$GPRMC,151301.000,A,4028.4662,N,08353.4282,W,0.23,163.22,130620,,,D*74
$GPRMC,151302.000,A,4028.4661,N,08353.4287,W,0.37,269.98,130620,,,D*7C
$GPRMC,151303.000,A,4028.4660,N,08353.4292,W,0.33,247.85,130620,,,D*7C
$GPRMC,151304.000,A,4028.4659,N,08353.4296,W,0.35,202.44,130620,,,D*7F
$GPRMC,151305.000,A,4028.4659,N,08353.4299,W,0.10,293.15,130620,,,D*7A
$GPRMC,151306.000,A,4028.4659,N,08353.4301,W,0.11,146.65,130620,,,D*74
$GPRMC,151307.000,A,4028.4658,N,08353.4302,W,1.02,139.97,130620,,,D*71
$GPRMC,151308.000,A,4028.4657,N,08353.4302,W,0.78,101.56,130620,,,D*7B
$GPRMC,151309.000,A,4028.4657,N,08353.4299,W,0.39,128.99,130620,,,D*74
$GPRMC,151310.000,A,4028.4656,N,08353.4298,W,1.11,140.02,130620,,,D*7B
$GPRMC,151311.000,A,4028.4656,N,08353.4295,W,0.20,229.06,130620,,,D*7C
$GPRMC,151312.000,A,4028.4657,N,08353.4293,W,0.60,110.88,130620,,,D*73
$GPRMC,151313.000,A,4028.4657,N,08353.4289,W,0.54,112.08,130620,,,D*74
$GPRMC,151314.000,A,4028.4657,N,08353.4288,W,0.52,129.32,130620,,,D*75
$GPRMC,151315.000,A,4028.4657,N,08353.4287,W,0.23,112.61,130620,,,D*73
$GPRMC,151316.000,A,4028.4657,N,08353.4288,W,0.26,35.22,130620,,,D*49
$GPRMC,151317.000,A,4028.4658,N,08353.4292,W,0.84,308.51,130620,,,D*7D
$GPRMC,151318.000,A,4028.4657,N,08353.4294,W,0.27,272.48,130620,,,D*76
$GPRMC,151319.000,A,4028.4660,N,08353.4299,W,0.22,19.13,130620,,,D*4A
$GPRMC,151320.000,A,4028.4666,N,08353.4302,W,0.89,346.11,130620,,,D*7F
$GPRMC,151321.000,A,4028.4672,N,08353.4304,W,0.45,330.50,130620,,,D*79
$GPRMC,151322.000,A,4028.4679,N,08353.4305,W,0.35,26.27,130620,,,D*43
$GPRMC,151323.000,A,4028.4681,N,08353.4307,W,0.23,54.09,130620,,,D*49
$GPRMC,151324.000,A,4028.4675,N,08353.4310,W,0.17,168.88,130620,,,D*73
$GPRMC,151325.000,A,4028.4676,N,08353.4310,W,0.17,22.29,130620,,,D*45
$GPRMC,151326.000,A,4028.4677,N,08353.4309,W,0.20,29.17,130620,,,D*4D
$GPRMC,151327.000,A,4028.4679,N,08353.4307,W,0.18,55.78,130620,,,D*45
$GPRMC,151328.000,A,4028.4680,N,08353.4304,W,0.25,121.16,130620,,,D*7B
$GPRMC,151329.000,A,4028.4687,N,08353.4289,W,0.30,97.85,130620,,,D*4B
$GPRMC,151330.000,A,4028.4688,N,08353.4283,W,0.23,39.46,130620,,,D*4F
$GPRMC,151331.000,A,4028.4688,N,08353.4279,W,0.43,86.09,130620,,,D*42
$GPRMC,151332.000,A,4028.4699,N,08353.4270,W,0.41,77.03,130620,,,D*4E
$GPRMC,151333.000,A,4028.4705,N,08353.4264,W,0.35,63.81,130620,,,D*42
$GPRMC,151334.000,A,4028.4707,N,08353.4260,W,0.78,154.97,130620,,,D*78
$GPRMC,151335.000,A,4028.4712,N,08353.4253,W,0.13,149.90,130620,,,D*7B
$GPRMC,151336.000,A,4028.4712,N,08353.4252,W,0.66,329.50,130620,,,D*73
$GPRMC,151337.000,A,4028.4710,N,08353.4255,W,1.64,18.76,130620,,,D*41
$GPRMC,151338.000,A,4028.4703,N,08353.4256,W,0.47,73.15,130620,,,D*47
$GPRMC,151339.000,A,4028.4695,N,08353.4261,W,0.49,121.94,130620,,,D*7D
$GPRMC,151340.000,A,4028.4690,N,08353.4265,W,0.64,239.92,130620,,,D*71
$GPRMC,151341.000,A,4028.4687,N,08353.4264,W,0.16,96.17,130620,,,D*48
$GPRMC,151342.000,A,4028.4683,N,08353.4262,W,0.33,123.96,130620,,,D*78
$GPRMC,151343.000,A,4028.4675,N,08353.4264,W,0.60,175.98,130620,,,D*7D
$GPRMC,151344.000,A,4028.4671,N,08353.4265,W,0.42,199.86,130620,,,D*72
$GPRMC,151345.000,A,4028.4668,N,08353.4267,W,0.42,352.10,130620,,,D*73
$GPRMC,151346.000,A,4028.4664,N,08353.4267,W,0.37,139.78,130620,,,D*7F
$GPRMC,151347.000,A,4028.4661,N,08353.4266,W,0.83,127.00,130620,,,D*75
$GPRMC,151348.000,A,4028.4659,N,08353.4266,W,0.11,161.12,130620,,,D*7B
$GPRMC,151349.000,A,4028.4659,N,08353.4267,W,0.22,289.54,130620,,,D*7C
$GPRMC,151350.000,A,4028.4661,N,08353.4271,W,0.35,340.46,130620,,,D*79
$GPRMC,151351.000,A,4028.4666,N,08353.4272,W,0.55,18.35,130620,,,D*40
$GPRMC,151352.000,A,4028.4669,N,08353.4272,W,0.33,19.75,130620,,,D*49
$GPRMC,151353.000,A,4028.4670,N,08353.4273,W,0.08,128.20,130620,,,D*7A
$GPRMC,151354.000,A,4028.4671,N,08353.4273,W,0.17,159.41,130620,,,D*73
$GPRMC,151355.000,A,4028.4672,N,08353.4273,W,0.22,45.16,130620,,,D*49
$GPRMC,151356.000,A,4028.4672,N,08353.4273,W,0.22,126.65,130620,,,D*7A
$GPRMC,151357.000,A,4028.4671,N,08353.4273,W,0.22,155.14,130620,,,D*7A
$GPRMC,151358.000,A,4028.4671,N,08353.4274,W,0.13,156.58,130620,,,D*7B
$GPRMC,151359.000,A,4028.4670,N,08353.4275,W,0.18,168.43,130620,,,D*76
$GPRMC,151400.000,A,4028.4669,N,08353.4277,W,0.16,225.18,130620,,,D*7D
$GPRMC,151401.000,A,4028.4666,N,08353.4282,W,0.16,217.39,130620,,,D*7B
$GPRMC,151402.000,A,4028.4662,N,08353.4285,W,0.19,172.81,130620,,,D*77
$GPRMC,151403.000,A,4028.4664,N,08353.4296,W,0.23,266.06,130620,,,D*72
$GPRMC,151404.000,A,4028.4664,N,08353.4303,W,0.19,209.72,130620,,,D*7B
$GPRMC,151405.000,A,4028.4664,N,08353.4309,W,0.24,194.66,130620,,,D*7C
$GPRMC,151406.000,A,4028.4664,N,08353.4314,W,0.28,202.09,130620,,,D*7A
$GPRMC,151407.000,A,4028.4664,N,08353.4318,W,0.62,201.07,130620,,,D*74
$GPRMC,151408.000,A,4028.4664,N,08353.4322,W,0.35,321.46,130620,,,D*76
$GPRMC,151409.000,A,4028.4664,N,08353.4329,W,0.94,290.67,130620,,,D*7F
$GPRMC,151410.000,A,4028.4668,N,08353.4325,W,0.48,194.76,130620,,,D*71
$GPRMC,151411.000,A,4028.4665,N,08353.4321,W,2.24,240.47,130620,,,D*79
$GPRMC,151412.000,A,4028.4662,N,08353.4326,W,2.04,239.47,130620,,,D*76
$GPRMC,151413.000,A,4028.4659,N,08353.4327,W,1.63,216.08,130620,,,D*7A
$GPRMC,151414.000,A,4028.4657,N,08353.4328,W,1.97,236.88,130620,,,D*7D
$GPRMC,151415.000,A,4028.4651,N,08353.4331,W,1.81,216.74,130620,,,D*74
$GPRMC,151416.000,A,4028.4645,N,08353.4334,W,2.25,210.39,130620,,,D*75
$GPRMC,151417.000,A,4028.4637,N,08353.4337,W,2.21,197.85,130620,,,D*7D
$GPRMC,151418.000,A,4028.4627,N,08353.4340,W,2.73,190.18,130620,,,D*77
$GPRMC,151419.000,A,4028.4619,N,08353.4343,W,2.84,206.13,130620,,,D*77
$GPRMC,151420.000,A,4028.4612,N,08353.4346,W,2.34,193.02,130620,,,D*77
$GPRMC,151421.000,A,4028.4603,N,08353.4346,W,2.86,180.73,130620,,,D*7B
$GPRMC,151422.000,A,4028.4596,N,08353.4343,W,1.90,152.49,130620,,,D*70
$GPRMC,151423.000,A,4028.4590,N,08353.4340,W,2.02,166.29,130620,,,D*7D
$GPRMC,151424.000,A,4028.4584,N,08353.4338,W,1.78,166.68,130620,,,D*7B
$GPRMC,151425.000,A,4028.4579,N,08353.4337,W,0.73,164.16,130620,,,D*76
$GPRMC,151426.000,A,4028.4577,N,08353.4337,W,0.06,39.56,130620,,,D*44
$GPRMC,151427.000,A,4028.4575,N,08353.4339,W,0.59,253.26,130620,,,D*7A
$GPRMC,151428.000,A,4028.4576,N,08353.4335,W,0.15,49.37,130620,,,D*4B
$GPRMC,151429.000,A,4028.4576,N,08353.4334,W,0.18,85.58,130620,,,D*4F
$GPRMC,151430.000,A,4028.4572,N,08353.4334,W,0.96,185.49,130620,,,D*74
$GPRMC,151431.000,A,4028.4572,N,08353.4332,W,0.32,68.31,130620,,,D*40
$GPRMC,151432.000,A,4028.4575,N,08353.4326,W,1.52,40.92,130620,,,D*45
$GPRMC,151433.000,A,4028.4578,N,08353.4320,W,1.14,356.03,130620,,,D*71
$GPRMC,151434.000,A,4028.4581,N,08353.4322,W,1.61,10.43,130620,,,D*45
$GPRMC,151435.000,A,4028.4584,N,08353.4314,W,1.75,22.45,130620,,,D*46
$GPRMC,151436.000,A,4028.4588,N,08353.4309,W,1.66,15.26,130620,,,D*46
$GPRMC,151437.000,A,4028.4591,N,08353.4305,W,1.46,14.60,130620,,,D*42
$GPRMC,151438.000,A,4028.4594,N,08353.4303,W,1.37,18.24,130620,,,D*44
$GPRMC,151439.000,A,4028.4596,N,08353.4307,W,1.44,341.90,130620,,,D*77
$GPRMC,151440.000,A,4028.4597,N,08353.4309,W,0.50,300.81,130620,,,D*77
$GPRMC,151441.000,A,4028.4597,N,08353.4309,W,0.50,45.05,130620,,,D*48
$GPRMC,151442.000,A,4028.4598,N,08353.4313,W,1.01,321.48,130620,,,D*72
$GPRMC,151443.000,A,4028.4600,N,08353.4319,W,0.23,179.91,130620,,,D*71
$GPRMC,151444.000,A,4028.4602,N,08353.4318,W,0.50,37.72,130620,,,D*47
$GPRMC,151445.000,A,4028.4603,N,08353.4312,W,0.48,76.46,130620,,,D*46
$GPRMC,151446.000,A,4028.4603,N,08353.4307,W,0.25,112.30,130620,,,D*78
$GPRMC,151447.000,A,4028.4605,N,08353.4302,W,0.77,17.80,130620,,,D*42
$GPRMC,151448.000,A,4028.4605,N,08353.4298,W,0.26,105.09,130620,,,D*78
$GPRMC,151449.000,A,4028.4606,N,08353.4295,W,0.71,5.77,130620,,,D*7D
$GPRMC,151450.000,A,4028.4607,N,08353.4292,W,0.59,22.11,130620,,,D*4C
$GPRMC,151451.000,A,4028.4610,N,08353.4294,W,0.53,352.65,130620,,,D*70
$GPRMC,151452.000,A,4028.4613,N,08353.4294,W,1.01,29.36,130620,,,D*4F
$GPRMC,151453.000,A,4028.4615,N,08353.4293,W,0.90,27.66,130620,,,D*4D
$GPRMC,151454.000,A,4028.4616,N,08353.4292,W,0.47,79.21,130620,,,D*4A
$GPRMC,151455.000,A,4028.4614,N,08353.4291,W,0.50,91.13,130620,,,D*4B
$GPRMC,151456.000,A,4028.4615,N,08353.4291,W,1.13,12.99,130620,,,D*46
$GPRMC,151457.000,A,4028.4617,N,08353.4294,W,0.58,34.24,130620,,,D*4C
$GPRMC,151458.000,A,4028.4618,N,08353.4296,W,0.28,322.26,130620,,,D*7F
$GPRMC,151459.000,A,4028.4618,N,08353.4299,W,0.10,297.97,130620,,,D*7F
$GPRMC,151500.000,A,4028.4618,N,08353.4297,W,1.21,44.27,130620,,,D*48
$GPRMC,151501.000,A,4028.4619,N,08353.4297,W,0.30,205.92,130620,,,D*70
$GPRMC,151502.000,A,4028.4619,N,08353.4298,W,0.12,120.19,130620,,,D*7B
$GPRMC,151503.000,A,4028.4619,N,08353.4296,W,0.43,93.78,130620,,,D*4E
$GPRMC,151504.000,A,4028.4619,N,08353.4296,W,0.22,11.31,130620,,,D*49
$GPRMC,151505.000,A,4028.4620,N,08353.4295,W,0.42,79.29,130620,,,D*40
$GPRMC,151506.000,A,4028.4621,N,08353.4295,W,0.40,52.40,130620,,,D*46
$GPRMC,151507.000,A,4028.4622,N,08353.4297,W,0.36,30.21,130620,,,D*44
$GPRMC,151508.000,A,4028.4623,N,08353.4297,W,0.22,130.02,130620,,,D*7F
$GPRMC,151509.000,A,4028.4623,N,08353.4294,W,0.45,68.23,130620,,,D*43
$GPRMC,151510.000,A,4028.4624,N,08353.4291,W,0.22,123.27,130620,,,D*72
$GPRMC,151511.000,A,4028.4623,N,08353.4290,W,0.30,157.32,130620,,,D*71
$GPRMC,151512.000,A,4028.4625,N,08353.4288,W,0.27,46.16,130620,,,D*4C
$GPRMC,151513.000,A,4028.4636,N,08353.4282,W,0.26,83.11,130620,,,D*4A
$GPRMC,151514.000,A,4028.4643,N,08353.4278,W,0.16,115.16,130620,,,D*70
$GPRMC,151515.000,A,4028.4648,N,08353.4275,W,0.28,63.31,130620,,,D*4F
$GPRMC,151516.000,A,4028.4652,N,08353.4272,W,0.39,65.01,130620,,,D*45
$GPRMC,151517.000,A,4028.4655,N,08353.4269,W,0.35,168.32,130620,,,D*79
$GPRMC,151518.000,A,4028.4657,N,08353.4272,W,1.04,291.24,130620,,,D*7F
$GPRMC,151519.000,A,4028.4659,N,08353.4273,W,0.77,87.50,130620,,,D*42
$GPRMC,151520.000,A,4028.4658,N,08353.4271,W,0.63,128.89,130620,,,D*7E
$GPRMC,151521.000,A,4028.4659,N,08353.4271,W,0.62,125.44,130620,,,D*73
$GPRMC,151522.000,A,4028.4659,N,08353.4272,W,0.25,102.83,130620,,,D*7E
$GPRMC,151523.000,A,4028.4659,N,08353.4275,W,0.40,89.40,130620,,,D*46
$GPRMC,151524.000,A,4028.4658,N,08353.4275,W,0.30,98.32,130620,,,D*42
$GPRMC,151525.000,A,4028.4657,N,08353.4271,W,0.47,73.74,130620,,,D*4F
$GPRMC,151526.000,A,4028.4656,N,08353.4266,W,0.25,105.93,130620,,,D*76
$GPRMC,151527.000,A,4028.4654,N,08353.4262,W,0.46,87.73,130620,,,D*41
$GPRMC,151528.000,A,4028.4653,N,08353.4259,W,0.35,102.05,130620,,,D*78
$GPRMC,151529.000,A,4028.4652,N,08353.4257,W,0.31,140.11,130620,,,D*71
$GPRMC,151530.000,A,4028.4651,N,08353.4255,W,0.27,119.94,130620,,,D*7E
$GPRMC,151531.000,A,4028.4649,N,08353.4253,W,0.31,97.16,130620,,,D*4A
$GPRMC,151532.000,A,4028.4648,N,08353.4251,W,0.24,120.51,130620,,,D*70
$GPRMC,151533.000,A,4028.4646,N,08353.4250,W,0.39,141.96,130620,,,D*7E
$GPRMC,151534.000,A,4028.4641,N,08353.4250,W,0.30,151.46,130620,,,D*7B
$GPRMC,151535.000,A,4028.4635,N,08353.4252,W,0.13,42.28,130620,,,D*41
$GPRMC,151536.000,A,4028.4629,N,08353.4249,W,0.19,90.61,130620,,,D*4D
$GPRMC,151537.000,A,4028.4624,N,08353.4244,W,0.41,119.66,130620,,,D*76
$GPRMC,151538.000,A,4028.4619,N,08353.4240,W,0.27,125.27,130620,,,D*79
$GPRMC,151539.000,A,4028.4615,N,08353.4236,W,0.20,142.86,130620,,,D*78
$GPRMC,151540.000,A,4028.4612,N,08353.4228,W,0.40,125.04,130620,,,D*73
$GPRMC,151541.000,A,4028.4608,N,08353.4218,W,0.59,152.81,130620,,,D*7F
$GPRMC,151542.000,A,4028.4609,N,08353.4213,W,0.74,69.05,130620,,,D*4C
$GPRMC,151543.000,A,4028.4611,N,08353.4213,W,0.20,62.41,130620,,,D*4E
$GPRMC,151544.000,A,4028.4613,N,08353.4213,W,0.23,36.35,130620,,,D*4A
$GPRMC,151545.000,A,4028.4615,N,08353.4215,W,0.05,354.56,130620,,,D*7D
$GPRMC,151546.000,A,4028.4618,N,08353.4218,W,0.68,118.87,130620,,,D*73
$GPRMC,151547.000,A,4028.4620,N,08353.4219,W,0.19,92.12,130620,,,D*41
$GPRMC,151548.000,A,4028.4622,N,08353.4220,W,0.48,52.30,130620,,,D*4E
$GPRMC,151549.000,A,4028.4627,N,08353.4221,W,0.58,203.21,130620,,,D*7C
$GPRMC,151550.000,A,4028.4631,N,08353.4224,W,0.23,150.38,130620,,,D*77
$GPRMC,151551.000,A,4028.4635,N,08353.4228,W,0.16,231.54,130620,,,D*76
$GPRMC,151552.000,A,4028.4639,N,08353.4233,W,0.06,350.07,130620,,,D*72
$GPRMC,151553.000,A,4028.4643,N,08353.4236,W,0.10,20.00,130620,,,D*4F
$GPRMC,151554.000,A,4028.4649,N,08353.4233,W,0.23,55.62,130620,,,D*41
$GPRMC,151555.000,A,4028.4654,N,08353.4230,W,0.23,45.92,130620,,,D*41
$GPRMC,151556.000,A,4028.4659,N,08353.4237,W,0.31,352.63,130620,,,D*70
$GPRMC,151557.000,A,4028.4664,N,08353.4244,W,0.34,315.67,130620,,,D*79
$GPRMC,151558.000,A,4028.4666,N,08353.4249,W,0.18,275.69,130620,,,D*7E
$GPRMC,151559.000,A,4028.4667,N,08353.4251,W,0.53,184.31,130620,,,D*78
$GPRMC,151600.000,A,4028.4667,N,08353.4255,W,0.22,269.33,130620,,,D*77
$GPRMC,151601.000,A,4028.4666,N,08353.4260,W,1.47,301.82,130620,,,D*76
$GPRMC,151602.000,A,4028.4667,N,08353.4262,W,0.46,327.05,130620,,,D*7D
$GPRMC,151603.000,A,4028.4668,N,08353.4264,W,0.08,228.34,130620,,,D*73
$GPRMC,151604.000,A,4028.4668,N,08353.4265,W,0.07,151.63,130620,,,D*75
$GPRMC,151605.000,A,4028.4668,N,08353.4266,W,0.05,210.00,130620,,,D*76
$GPRMC,151606.000,A,4028.4668,N,08353.4266,W,0.06,171.71,130620,,,D*74
$GPRMC,151607.000,A,4028.4668,N,08353.4267,W,0.02,162.91,130620,,,D*7C
$GPRMC,151608.000,A,4028.4668,N,08353.4268,W,0.06,197.40,130620,,,D*7E
$GPRMC,151609.000,A,4028.4668,N,08353.4268,W,0.11,149.60,130620,,,D*78
$GPRMC,151610.000,A,4028.4668,N,08353.4268,W,0.11,133.20,130620,,,D*79
$GPRMC,151611.000,A,4028.4667,N,08353.4268,W,0.11,133.66,130620,,,D*75
$GPRMC,151612.000,A,4028.4666,N,08353.4268,W,0.12,180.24,130620,,,D*7A
$GPRMC,151613.000,A,4028.4666,N,08353.4268,W,0.11,136.64,130620,,,D*71
$GPRMC,151614.000,A,4028.4665,N,08353.4268,W,0.13,124.86,130620,,,D*78
$GPRMC,151615.000,A,4028.4663,N,08353.4266,W,0.71,143.48,130620,,,D*76
$GPRMC,151616.000,A,4028.4661,N,08353.4265,W,0.51,139.43,130620,,,D*70
$GPRMC,151617.000,A,4028.4659,N,08353.4265,W,1.03,184.88,130620,,,D*7D
$GPRMC,151618.000,A,4028.4657,N,08353.4265,W,0.87,134.44,130620,,,D*7A
$GPRMC,151619.000,A,4028.4657,N,08353.4270,W,0.07,155.26,130620,,,D*74
$GPRMC,151620.000,A,4028.4655,N,08353.4271,W,0.19,143.14,130620,,,D*74
$GPRMC,151621.000,A,4028.4651,N,08353.4271,W,0.31,160.25,130620,,,D*78
$GPRMC,151622.000,A,4028.4646,N,08353.4268,W,0.82,86.10,130620,,,D*42
$GPRMC,151623.000,A,4028.4642,N,08353.4266,W,0.93,251.96,130620,,,D*7F
$GPRMC,151624.000,A,4028.4639,N,08353.4266,W,0.27,107.69,130620,,,D*7B
$GPRMC,151625.000,A,4028.4637,N,08353.4267,W,0.20,316.99,130620,,,D*7F
$GPRMC,151626.000,A,4028.4634,N,08353.4267,W,0.15,179.16,130620,,,D*75
$GPRMC,151627.000,A,4028.4632,N,08353.4265,W,0.09,316.62,130620,,,D*75
$GPRMC,151628.000,A,4028.4629,N,08353.4264,W,0.24,148.84,130620,,,D*7F
$GPRMC,151629.000,A,4028.4628,N,08353.4264,W,0.19,141.03,130620,,,D*77
$GPRMC,151630.000,A,4028.4626,N,08353.4264,W,0.34,139.26,130620,,,D*76
$GPRMC,151631.000,A,4028.4623,N,08353.4263,W,0.26,153.22,130620,,,D*7E
$GPRMC,151632.000,A,4028.4621,N,08353.4261,W,0.27,156.14,130620,,,D*7C
$GPRMC,151633.000,A,4028.4619,N,08353.4261,W,0.30,144.06,130620,,,D*70
$GPRMC,151634.000,A,4028.4615,N,08353.4257,W,0.36,136.53,130620,,,D*7D
$GPRMC,151635.000,A,4028.4610,N,08353.4251,W,0.20,135.27,130620,,,D*78
$GPRMC,151636.000,A,4028.4607,N,08353.4250,W,0.07,194.24,130620,,,D*71
$GPRMC,151637.000,A,4028.4602,N,08353.4244,W,0.36,143.54,130620,,,D*7F
$GPRMC,151638.000,A,4028.4599,N,08353.4243,W,0.22,152.90,130620,,,D*7B
$GPRMC,151639.000,A,4028.4597,N,08353.4242,W,0.39,136.88,130620,,,D*74
$GPRMC,151640.000,A,4028.4594,N,08353.4241,W,0.25,164.20,130620,,,D*72
$GPRMC,151641.000,A,4028.4592,N,08353.4240,W,0.21,170.27,130620,,,D*72
$GPRMC,151642.000,A,4028.4589,N,08353.4238,W,0.66,144.42,130620,,,D*73
$GPRMC,151643.000,A,4028.4586,N,08353.4237,W,0.72,142.89,130620,,,D*76
$GPRMC,151644.000,A,4028.4583,N,08353.4235,W,0.50,149.81,130620,,,D*75
$GPRMC,151645.000,A,4028.4580,N,08353.4234,W,0.10,150.49,130620,,,D*7E
$GPRMC,151646.000,A,4028.4579,N,08353.4232,W,0.19,151.22,130620,,,D*78
$GPRMC,151647.000,A,4028.4571,N,08353.4221,W,0.30,168.54,130620,,,D*73
$GPRMC,151648.000,A,4028.4566,N,08353.4215,W,0.19,129.06,130620,,,D*74
$GPRMC,151649.000,A,4028.4563,N,08353.4211,W,0.26,153.67,130620,,,D*72
$GPRMC,151650.000,A,4028.4561,N,08353.4209,W,0.37,159.96,130620,,,D*75
$GPRMC,151651.000,A,4028.4560,N,08353.4208,W,0.24,150.06,130620,,,D*76
$GPRMC,151652.000,A,4028.4560,N,08353.4208,W,0.22,179.74,130620,,,D*7D
$GPRMC,151653.000,A,4028.4560,N,08353.4209,W,0.30,255.59,130620,,,D*7C
$GPRMC,151654.000,A,4028.4560,N,08353.4210,W,0.08,342.42,130620,,,D*75
$GPRMC,151655.000,A,4028.4561,N,08353.4210,W,0.07,53.56,130620,,,D*4C
$GPRMC,151656.000,A,4028.4562,N,08353.4210,W,0.10,114.45,130620,,,D*7A
$GPRMC,151657.000,A,4028.4563,N,08353.4210,W,0.07,220.98,130620,,,D*78
$GPRMC,151658.000,A,4028.4565,N,08353.4211,W,0.05,238.42,130620,,,D*7C
$GPRMC,151659.000,A,4028.4568,N,08353.4210,W,0.22,70.80,130620,,,D*44
$GPRMC,151700.000,A,4028.4571,N,08353.4210,W,0.39,95.60,130620,,,D*4E
$GPRMC,151701.000,A,4028.4574,N,08353.4209,W,0.21,36.56,130620,,,D*47
$GPRMC,151702.000,A,4028.4579,N,08353.4214,W,0.20,345.60,130620,,,D*76
$GPRMC,151703.000,A,4028.4584,N,08353.4217,W,0.12,352.75,130620,,,D*75
$GPRMC,151704.000,A,4028.4587,N,08353.4218,W,0.07,44.23,130620,,,D*4D
$GPRMC,151705.000,A,4028.4589,N,08353.4217,W,0.15,9.47,130620,,,D*75
$GPRMC,151706.000,A,4028.4590,N,08353.4215,W,0.15,20.29,130620,,,D*4F
$GPRMC,151707.000,A,4028.4590,N,08353.4211,W,0.27,331.20,130620,,,D*71
$GPRMC,151708.000,A,4028.4590,N,08353.4208,W,0.12,57.89,130620,,,D*40
$GPRMC,151709.000,A,4028.4591,N,08353.4205,W,0.12,70.35,130620,,,D*4F
$GPRMC,151710.000,A,4028.4590,N,08353.4201,W,0.13,140.79,130620,,,D*79
$GPRMC,151711.000,A,4028.4593,N,08353.4203,W,0.15,302.80,130620,,,D*7D
$GPRMC,151712.000,A,4028.4599,N,08353.4207,W,0.32,341.97,130620,,,D*74
$GPRMC,151713.000,A,4028.4605,N,08353.4211,W,0.68,312.77,130620,,,D*73
$GPRMC,151714.000,A,4028.4606,N,08353.4210,W,0.18,111.72,130620,,,D*75
$GPRMC,151715.000,A,4028.4607,N,08353.4209,W,0.09,126.66,130620,,,D*7C
$GPRMC,151716.000,A,4028.4605,N,08353.4205,W,0.05,165.37,130620,,,D*7E
$GPRMC,151717.000,A,4028.4605,N,08353.4203,W,0.12,116.19,130620,,,D*77
$GPRMC,151718.000,A,4028.4604,N,08353.4200,W,0.13,151.86,130620,,,D*7E
$GPRMC,151719.000,A,4028.4603,N,08353.4198,W,0.16,123.72,130620,,,D*71
$GPRMC,151720.000,A,4028.4603,N,08353.4195,W,0.09,125.04,130620,,,D*7F
$GPRMC,151721.000,A,4028.4603,N,08353.4193,W,0.05,149.03,130620,,,D*79
$GPRMC,151722.000,A,4028.4604,N,08353.4193,W,0.08,32.27,130620,,,D*4B
$GPRMC,151723.000,A,4028.4605,N,08353.4192,W,0.08,9.33,130620,,,D*77
$GPRMC,151724.000,A,4028.4606,N,08353.4192,W,0.06,34.05,130620,,,D*46
$GPRMC,151725.000,A,4028.4608,N,08353.4192,W,0.04,292.94,130620,,,D*7D
$GPRMC,151726.000,A,4028.4609,N,08353.4192,W,0.04,328.80,130620,,,D*7A
$GPRMC,151727.000,A,4028.4610,N,08353.4193,W,0.10,29.53,130620,,,D*4B
$GPRMC,151728.000,A,4028.4611,N,08353.4194,W,0.07,83.64,130620,,,D*40
$GPRMC,151729.000,A,4028.4611,N,08353.4195,W,0.08,95.57,130620,,,D*48
$GPRMC,151730.000,A,4028.4612,N,08353.4196,W,0.05,140.52,130620,,,D*71
$GPRMC,151731.000,A,4028.4612,N,08353.4197,W,0.06,184.62,130620,,,D*79
$GPRMC,151732.000,A,4028.4613,N,08353.4198,W,0.29,257.93,130620,,,D*7A
$GPRMC,151733.000,A,4028.4614,N,08353.4199,W,0.10,146.28,130620,,,D*74
$GPRMC,151734.000,A,4028.4615,N,08353.4200,W,0.07,115.96,130620,,,D*74
$GPRMC,151735.000,A,4028.4616,N,08353.4201,W,0.11,175.51,130620,,,D*7D
$GPRMC,151736.000,A,4028.4616,N,08353.4203,W,0.11,190.38,130620,,,D*78
$GPRMC,151737.000,A,4028.4617,N,08353.4204,W,0.14,237.57,130620,,,D*7D
$GPRMC,151738.000,A,4028.4619,N,08353.4204,W,0.06,121.01,130620,,,D*78
$GPRMC,151739.000,A,4028.4621,N,08353.4204,W,0.20,87.46,130620,,,D*48
$GPRMC,151740.000,A,4028.4619,N,08353.4198,W,0.04,293.32,130620,,,D*79
$GPRMC,151741.000,A,4028.4618,N,08353.4193,W,0.19,145.53,130620,,,D*71
$GPRMC,151742.000,A,4028.4618,N,08353.4190,W,0.19,151.58,130620,,,D*7F
$GPRMC,151743.000,A,4028.4615,N,08353.4188,W,0.20,113.05,130620,,,D*7E
$GPRMC,151744.000,A,4028.4613,N,08353.4185,W,0.33,164.41,130620,,,D*70
$GPRMC,151745.000,A,4028.4612,N,08353.4182,W,0.18,127.39,130620,,,D*76
$GPRMC,151746.000,A,4028.4611,N,08353.4179,W,0.11,61.96,130620,,,D*4D
$GPRMC,151747.000,A,4028.4609,N,08353.4177,W,0.08,130.37,130620,,,D*7D
$GPRMC,151748.000,A,4028.4608,N,08353.4174,W,0.08,99.33,130620,,,D*46
$GPRMC,151749.000,A,4028.4607,N,08353.4172,W,0.13,154.24,130620,,,D*72
$GPRMC,151750.000,A,4028.4606,N,08353.4169,W,0.10,164.37,130620,,,D*73
$GPRMC,151751.000,A,4028.4605,N,08353.4167,W,0.06,174.14,130620,,,D*78
$GPRMC,151752.000,A,4028.4605,N,08353.4165,W,0.18,142.97,130620,,,D*78
$GPRMC,151753.000,A,4028.4605,N,08353.4163,W,0.20,140.22,130620,,,D*78
$GPRMC,151754.000,A,4028.4608,N,08353.4158,W,0.31,113.40,130620,,,D*78
$GPRMC,151755.000,A,4028.4608,N,08353.4156,W,0.40,131.49,130620,,,D*78
$GPRMC,151756.000,A,4028.4608,N,08353.4155,W,0.17,171.92,130620,,,D*78
$GPRMC,151757.000,A,4028.4608,N,08353.4155,W,0.15,128.84,130620,,,D*70
$GPRMC,151758.000,A,4028.4607,N,08353.4157,W,0.05,103.90,130620,,,D*7F
$GPRMC,151759.000,A,4028.4609,N,08353.4161,W,0.16,307.27,130620,,,D*7D
$GPRMC,151800.000,A,4028.4610,N,08353.4166,W,0.20,137.83,130620,,,D*7B
$GPRMC,151801.000,A,4028.4613,N,08353.4171,W,0.05,295.13,130620,,,D*7A
$GPRMC,151802.000,A,4028.4612,N,08353.4171,W,0.08,137.92,130620,,,D*77
$GPRMC,151803.000,A,4028.4610,N,08353.4170,W,0.15,125.25,130620,,,D*76
$GPRMC,151804.000,A,4028.4609,N,08353.4170,W,0.35,133.21,130620,,,D*78
$GPRMC,151805.000,A,4028.4607,N,08353.4171,W,0.11,133.21,130620,,,D*70
$GPRMC,151806.000,A,4028.4606,N,08353.4174,W,0.10,315.26,130620,,,D*77
$GPRMC,151807.000,A,4028.4605,N,08353.4177,W,0.02,99.11,130620,,,D*46
$GPRMC,151808.000,A,4028.4603,N,08353.4178,W,0.07,128.07,130620,,,D*79
$GPRMC,151809.000,A,4028.4601,N,08353.4178,W,0.07,139.77,130620,,,D*7D
$GPRMC,151810.000,A,4028.4599,N,08353.4179,W,0.05,301.70,130620,,,D*7A
$GPRMC,151811.000,A,4028.4598,N,08353.4181,W,0.42,298.32,130620,,,D*79
$GPRMC,151812.000,A,4028.4594,N,08353.4179,W,0.11,288.99,130620,,,D*77
$GPRMC,151813.000,A,4028.4595,N,08353.4186,W,0.28,290.87,130620,,,D*7B
$GPRMC,151814.000,A,4028.4592,N,08353.4184,W,0.36,139.13,130620,,,D*7B
$GPRMC,151815.000,A,4028.4592,N,08353.4187,W,0.09,138.93,130620,,,D*7C
$GPRMC,151816.000,A,4028.4592,N,08353.4190,W,0.17,132.08,130620,,,D*7E
$GPRMC,151817.000,A,4028.4592,N,08353.4192,W,0.27,118.68,130620,,,D*70
$GPRMC,151818.000,A,4028.4591,N,08353.4191,W,0.34,122.71,130620,,,D*7C
$GPRMC,151819.000,A,4028.4589,N,08353.4190,W,0.17,117.63,130620,,,D*71
$GPRMC,151820.000,A,4028.4587,N,08353.4188,W,0.35,133.23,130620,,,D*7E
$GPRMC,151821.000,A,4028.4584,N,08353.4183,W,0.35,119.76,130620,,,D*7F
$GPRMC,151822.000,A,4028.4581,N,08353.4180,W,0.32,122.37,130620,,,D*70
$GPRMC,151823.000,A,4028.4580,N,08353.4177,W,0.38,109.34,130620,,,D*78
$GPRMC,151824.000,A,4028.4578,N,08353.4175,W,0.41,120.99,130620,,,D*78
$GPRMC,151825.000,A,4028.4578,N,08353.4174,W,0.35,130.51,130620,,,D*7E
$GPRMC,151826.000,A,4028.4578,N,08353.4176,W,0.15,158.90,130620,,,D*7E
$GPRMC,151827.000,A,4028.4578,N,08353.4177,W,0.19,153.61,130620,,,D*77
$GPRMC,151828.000,A,4028.4578,N,08353.4180,W,0.52,91.12,130620,,,D*44
$GPRMC,151829.000,A,4028.4578,N,08353.4178,W,0.53,103.02,130620,,,D*78
$GPRMC,151830.000,A,4028.4581,N,08353.4186,W,0.12,245.97,130620,,,D*7F
$GPRMC,151831.000,A,4028.4583,N,08353.4193,W,0.21,224.86,130620,,,D*7F
$GPRMC,151832.000,A,4028.4584,N,08353.4196,W,0.29,98.85,130620,,,D*40
$GPRMC,151833.000,A,4028.4585,N,08353.4199,W,0.05,107.50,130620,,,D*7E
$GPRMC,151834.000,A,4028.4586,N,08353.4203,W,0.26,106.31,130620,,,D*7D
$GPRMC,151835.000,A,4028.4589,N,08353.4209,W,0.46,20.73,130620,,,D*4C
$GPRMC,151836.000,A,4028.4591,N,08353.4217,W,0.22,83.58,130620,,,D*4B
$GPRMC,151837.000,A,4028.4593,N,08353.4223,W,0.09,54.92,130620,,,D*4A
$GPRMC,151838.000,A,4028.4594,N,08353.4229,W,0.17,271.56,130620,,,D*7A
$GPRMC,151839.000,A,4028.4595,N,08353.4234,W,0.14,264.65,130620,,,D*71
$GPRMC,151840.000,A,4028.4595,N,08353.4239,W,0.41,218.39,130620,,,D*70
$GPRMC,151841.000,A,4028.4596,N,08353.4241,W,0.16,84.75,130620,,,D*40
$GPRMC,151842.000,A,4028.4596,N,08353.4239,W,0.10,94.02,130620,,,D*4B
$GPRMC,151843.000,A,4028.4597,N,08353.4239,W,0.53,105.56,130620,,,D*74
$GPRMC,151844.000,A,4028.4597,N,08353.4239,W,0.13,142.84,130620,,,D*7B
$GPRMC,151845.000,A,4028.4597,N,08353.4240,W,0.17,110.68,130620,,,D*75
$GPRMC,151846.000,A,4028.4598,N,08353.4241,W,0.08,93.28,130620,,,D*48
$GPRMC,151847.000,A,4028.4601,N,08353.4247,W,0.20,313.72,130620,,,D*72
$GPRMC,151848.000,A,4028.4604,N,08353.4252,W,0.54,298.28,130620,,,D*72
$GPRMC,151849.000,A,4028.4606,N,08353.4258,W,0.48,282.74,130620,,,D*74
$GPRMC,151850.000,A,4028.4608,N,08353.4262,W,0.22,305.87,130620,,,D*75
$GPRMC,151851.000,A,4028.4609,N,08353.4266,W,0.12,318.98,130620,,,D*70
$GPRMC,151852.000,A,4028.4611,N,08353.4270,W,0.33,210.28,130620,,,D*7C
$GPRMC,151853.000,A,4028.4612,N,08353.4274,W,0.09,19.31,130620,,,D*40
$GPRMC,151854.000,A,4028.4612,N,08353.4275,W,0.41,185.76,130620,,,D*7D
$GPRMC,151855.000,A,4028.4612,N,08353.4271,W,0.81,102.39,130620,,,D*70
$GPRMC,151856.000,A,4028.4610,N,08353.4270,W,1.21,223.28,130620,,,D*7B
$GPRMC,151857.000,A,4028.4610,N,08353.4271,W,0.40,82.14,130620,,,D*4B
$GPRMC,151858.000,A,4028.4611,N,08353.4271,W,0.23,90.05,130620,,,D*43
$GPRMC,151859.000,A,4028.4610,N,08353.4269,W,0.29,177.44,130620,,,D*7D
$GPRMC,151900.000,A,4028.4610,N,08353.4270,W,0.28,251.58,130620,,,D*73
$GPRMC,151901.000,A,4028.4609,N,08353.4270,W,0.25,132.50,130620,,,D*79
$GPRMC,151902.000,A,4028.4609,N,08353.4270,W,0.17,188.02,130620,,,D*7D
$GPRMC,151903.000,A,4028.4608,N,08353.4271,W,0.10,211.45,130620,,,D*7B
$GPRMC,151904.000,A,4028.4609,N,08353.4269,W,0.66,84.61,130620,,,D*4D
$GPRMC,151905.000,A,4028.4610,N,08353.4265,W,0.38,115.79,130620,,,D*73
$GPRMC,151906.000,A,4028.4612,N,08353.4260,W,0.14,60.06,130620,,,D*42
$GPRMC,151907.000,A,4028.4613,N,08353.4253,W,0.04,247.70,130620,,,D*75
$GPRMC,151908.000,A,4028.4615,N,08353.4252,W,0.07,122.87,130620,,,D*76
$GPRMC,151909.000,A,4028.4617,N,08353.4250,W,0.36,95.83,130620,,,D*4C
$GPRMC,151910.000,A,4028.4619,N,08353.4249,W,0.37,231.91,130620,,,D*7C
$GPRMC,151911.000,A,4028.4616,N,08353.4241,W,0.21,134.33,130620,,,D*73
$GPRMC,151912.000,A,4028.4614,N,08353.4235,W,0.32,133.64,130620,,,D*76
$GPRMC,151913.000,A,4028.4611,N,08353.4231,W,0.15,145.75,130620,,,D*72
$GPRMC,151914.000,A,4028.4609,N,08353.4229,W,0.14,125.46,130620,,,D*72
$GPRMC,151915.000,A,4028.4607,N,08353.4227,W,0.25,168.69,130620,,,D*75
$GPRMC,151916.000,A,4028.4605,N,08353.4226,W,0.16,161.74,130620,,,D*70
$GPRMC,151917.000,A,4028.4604,N,08353.4225,W,0.18,145.07,130620,,,D*7F
$GPRMC,151918.000,A,4028.4604,N,08353.4225,W,0.13,160.59,130620,,,D*77
$GPRMC,151919.000,A,4028.4604,N,08353.4224,W,0.09,130.66,130620,,,D*75
$GPRMC,151920.000,A,4028.4604,N,08353.4224,W,0.08,105.03,130620,,,D*7B
$GPRMC,151921.000,A,4028.4605,N,08353.4224,W,0.12,102.64,130620,,,D*76
$GPRMC,151922.000,A,4028.4605,N,08353.4224,W,0.10,22.76,130620,,,D*47
$GPRMC,151923.000,A,4028.4606,N,08353.4224,W,0.17,36.47,130620,,,D*45
$GPRMC,151924.000,A,4028.4608,N,08353.4224,W,0.38,26.16,130620,,,D*44
$GPRMC,151925.000,A,4028.4609,N,08353.4225,W,0.14,250.66,130620,,,D*7F
$GPRMC,151926.000,A,4028.4612,N,08353.4227,W,1.30,133.37,130620,,,D*71
$GPRMC,151927.000,A,4028.4615,N,08353.4233,W,0.49,141.36,130620,,,D*79
$GPRMC,151928.000,A,4028.4619,N,08353.4235,W,0.06,174.11,130620,,,D*74
$GPRMC,151929.000,A,4028.4622,N,08353.4240,W,0.09,257.73,130620,,,D*76
$GPRMC,151930.000,A,4028.4626,N,08353.4244,W,0.18,269.66,130620,,,D*77
$GPRMC,151931.000,A,4028.4628,N,08353.4247,W,0.21,260.74,130620,,,D*7B
$GPRMC,151932.000,A,4028.4630,N,08353.4248,W,0.21,254.83,130620,,,D*71
$GPRMC,151933.000,A,4028.4632,N,08353.4250,W,0.20,255.31,130620,,,D*72
$GPRMC,151934.000,A,4028.4633,N,08353.4250,W,0.10,205.16,130620,,,D*77
$GPRMC,151935.000,A,4028.4634,N,08353.4250,W,0.20,260.90,130620,,,D*7F
$GPRMC,151936.000,A,4028.4636,N,08353.4251,W,0.14,259.23,130620,,,D*7A
$GPRMC,151937.000,A,4028.4632,N,08353.4256,W,0.20,184.01,130620,,,D*7C
$GPRMC,151938.000,A,4028.4630,N,08353.4260,W,0.12,114.25,130620,,,D*7A
$GPRMC,151939.000,A,4028.4629,N,08353.4262,W,0.05,293.81,130620,,,D*75
$GPRMC,151940.000,A,4028.4628,N,08353.4264,W,0.20,220.87,130620,,,D*75
$GPRMC,151941.000,A,4028.4627,N,08353.4266,W,0.33,245.42,130620,,,D*71
$GPRMC,151942.000,A,4028.4627,N,08353.4268,W,0.12,230.26,130620,,,D*7F
$GPRMC,151943.000,A,4028.4628,N,08353.4269,W,0.13,215.88,130620,,,D*72
$GPRMC,151944.000,A,4028.4628,N,08353.4269,W,0.21,235.14,130620,,,D*73
$GPRMC,151945.000,A,4028.4629,N,08353.4275,W,0.75,258.01,130620,,,D*70
$GPRMC,151946.000,A,4028.4630,N,08353.4281,W,0.79,218.59,130620,,,D*75
$GPRMC,151947.000,A,4028.4631,N,08353.4288,W,1.49,229.24,130620,,,D*76
$GPRMC,151948.000,A,4028.4632,N,08353.4294,W,2.22,256.22,130620,,,D*77
$GPRMC,151949.000,A,4028.4632,N,08353.4300,W,1.50,236.19,130620,,,D*72
$GPRMC,151950.000,A,4028.4633,N,08353.4304,W,0.41,229.98,130620,,,D*79
$GPRMC,151951.000,A,4028.4634,N,08353.4310,W,1.24,296.37,130620,,,D*79
$GPRMC,151952.000,A,4028.4636,N,08353.4318,W,2.37,289.15,130620,,,D*7F
$GPRMC,151953.000,A,4028.4637,N,08353.4326,W,1.86,276.37,130620,,,D*7B
$GPRMC,151954.000,A,4028.4636,N,08353.4335,W,2.13,259.17,130620,,,D*7F
$GPRMC,151955.000,A,4028.4640,N,08353.4340,W,1.29,262.15,130620,,,D*7D
$GPRMC,151956.000,A,4028.4642,N,08353.4346,W,1.45,258.97,130620,,,D*73
$GPRMC,151957.000,A,4028.4645,N,08353.4350,W,1.36,251.95,130620,,,D*7D
$GPRMC,151958.000,A,4028.4643,N,08353.4355,W,1.30,228.13,130620,,,D*77
$GPRMC,151959.000,A,4028.4639,N,08353.4360,W,1.70,222.49,130620,,,D*7C
$GPRMC,152000.000,A,4028.4634,N,08353.4365,W,1.38,226.15,130620,,,D*73
$GPRMC,152001.000,A,4028.4632,N,08353.4374,W,2.29,247.18,130620,,,D*7D
$GPRMC,152002.000,A,4028.4631,N,08353.4383,W,1.61,246.93,130620,,,D*78
$GPRMC,152003.000,A,4028.4630,N,08353.4390,W,1.76,258.10,130620,,,D*78
$GPRMC,152004.000,A,4028.4627,N,08353.4393,W,1.75,197.32,130620,,,A*7C
$GPRMC,152005.000,A,4028.4618,N,08353.4395,W,3.46,195.82,130620,,,A*7C
$GPRMC,152006.000,A,4028.4611,N,08353.4403,W,2.53,217.24,130620,,,A*7E
$GPRMC,152007.000,A,4028.4607,N,08353.4406,W,0.90,201.95,130620,,,A*7D
$GPRMC,152008.000,A,4028.4609,N,08353.4412,W,1.40,244.93,130620,,,A*72
$GPRMC,152009.000,A,4028.4607,N,08353.4420,W,1.37,251.21,130620,,,A*71
$GPRMC,152010.000,A,4028.4613,N,08353.4430,W,2.32,256.17,130620,,,A*79
$GPRMC,152011.000,A,4028.4611,N,08353.4440,W,1.44,264.00,130620,,,A*78
$GPRMC,152012.000,A,4028.4606,N,08353.4448,W,1.85,249.64,130620,,,A*75
$GPRMC,152013.000,A,4028.4602,N,08353.4456,W,2.30,246.54,130620,,,A*7E
$GPRMC,152014.000,A,4028.4598,N,08353.4465,W,2.35,247.80,130620,,,A*74
$GPRMC,152015.000,A,4028.4594,N,08353.4472,W,1.90,244.61,130620,,,A*7F
$GPRMC,152016.000,A,4028.4591,N,08353.4479,W,1.93,236.31,130620,,,A*71
$GPRMC,152017.000,A,4028.4589,N,08353.4484,W,1.55,254.01,130620,,,A*76
$GPRMC,152018.000,A,4028.4585,N,08353.4490,W,2.57,238.73,130620,,,A*7E
$GPRMC,152019.000,A,4028.4583,N,08353.4499,W,1.96,235.65,130620,,,A*74
$GPRMC,152020.000,A,4028.4580,N,08353.4506,W,0.55,213.16,130620,,,A*74
$GPRMC,152021.000,A,4028.4579,N,08353.4510,W,1.25,224.63,130620,,,A*74
$GPRMC,152022.000,A,4028.4575,N,08353.4516,W,1.51,192.85,130620,,,D*7D
$GPRMC,152023.000,A,4028.4570,N,08353.4520,W,1.73,213.98,130620,,,D*7A
$GPRMC,152024.000,A,4028.4568,N,08353.4527,W,1.88,240.48,130620,,,D*7C
$GPRMC,152025.000,A,4028.4566,N,08353.4528,W,0.64,162.11,130620,,,D*70
$GPRMC,152026.000,A,4028.4562,N,08353.4528,W,1.33,193.35,130620,,,D*7C
$GPRMC,152027.000,A,4028.4556,N,08353.4530,W,2.08,181.19,130620,,,D*75
$GPRMC,152028.000,A,4028.4550,N,08353.4530,W,1.06,182.81,130620,,,D*73
$GPRMC,152029.000,A,4028.4545,N,08353.4531,W,1.27,175.77,130620,,,D*75
$GPRMC,152030.000,A,4028.4542,N,08353.4531,W,0.96,178.57,130620,,,D*7E
$GPRMC,152031.000,A,4028.4540,N,08353.4531,W,0.53,143.52,130620,,,D*79
$GPRMC,152032.000,A,4028.4539,N,08353.4534,W,0.71,223.18,130620,,,D*7A
$GPRMC,152033.000,A,4028.4538,N,08353.4538,W,1.17,228.72,130620,,,D*70
$GPRMC,152034.000,A,4028.4537,N,08353.4540,W,0.56,168.23,130620,,,D*70
$GPRMC,152035.000,A,4028.4536,N,08353.4541,W,0.24,168.83,130620,,,D*7E
$GPRMC,152036.000,A,4028.4536,N,08353.4541,W,0.13,122.67,130620,,,D*7D
$GPRMC,152037.000,A,4028.4536,N,08353.4541,W,0.20,123.44,130620,,,D*7C
$GPRMC,152038.000,A,4028.4535,N,08353.4540,W,0.22,122.18,130620,,,D*7B
$GPRMC,152039.000,A,4028.4535,N,08353.4540,W,0.37,118.13,130620,,,D*7C
$GPRMC,152040.000,A,4028.4535,N,08353.4540,W,0.11,129.24,130620,,,D*70
$GPRMC,152041.000,A,4028.4535,N,08353.4539,W,0.20,108.86,130620,,,D*76
$GPRMC,152042.000,A,4028.4534,N,08353.4539,W,0.13,99.11,130620,,,D*43
$GPRMC,152043.000,A,4028.4535,N,08353.4539,W,0.12,64.06,130620,,,D*46
$GPRMC,152044.000,A,4028.4535,N,08353.4539,W,0.17,105.58,130620,,,D*79
$GPRMC,152045.000,A,4028.4535,N,08353.4539,W,0.12,85.38,130620,,,D*42
$GPRMC,152046.000,A,4028.4535,N,08353.4539,W,0.24,126.59,130620,,,D*7B
$GPRMC,152047.000,A,4028.4535,N,08353.4538,W,0.24,110.95,130620,,,D*7E
$GPRMC,152048.000,A,4028.4535,N,08353.4538,W,0.13,118.83,130620,,,D*7A
$GPRMC,152049.000,A,4028.4535,N,08353.4538,W,0.26,128.97,130620,,,D*7B
$GPRMC,152050.000,A,4028.4536,N,08353.4538,W,0.09,138.53,130620,,,D*74
$GPRMC,152051.000,A,4028.4536,N,08353.4538,W,0.12,77.39,130620,,,D*49
$GPRMC,152052.000,A,4028.4536,N,08353.4539,W,0.15,117.18,130620,,,D*78
$GPRMC,152053.000,A,4028.4537,N,08353.4539,W,0.14,146.93,130620,,,D*7E
$GPRMC,152054.000,A,4028.4537,N,08353.4538,W,0.24,108.73,130620,,,D*7F
$GPRMC,152055.000,A,4028.4537,N,08353.4538,W,0.26,93.15,130620,,,D*4F
$GPRMC,152056.000,A,4028.4537,N,08353.4538,W,0.15,105.96,130620,,,D*79
$GPRMC,152057.000,A,4028.4538,N,08353.4538,W,0.11,104.39,130620,,,D*77
$GPRMC,152058.000,A,4028.4538,N,08353.4538,W,0.17,35.28,130620,,,D*4D
$GPRMC,152059.000,A,4028.4539,N,08353.4539,W,0.30,5.60,130620,,,D*76
$GPRMC,152100.000,A,4028.4539,N,08353.4539,W,0.22,105.72,130620,,,D*7A
$GPRMC,152101.000,A,4028.4539,N,08353.4539,W,0.16,77.11,130620,,,D*4D
$GPRMC,152102.000,A,4028.4539,N,08353.4539,W,0.17,114.68,130620,,,D*75
$GPRMC,152103.000,A,4028.4539,N,08353.4539,W,0.17,104.35,130620,,,D*7D
$GPRMC,152104.000,A,4028.4539,N,08353.4539,W,0.17,106.56,130620,,,D*7D
$GPRMC,152105.000,A,4028.4538,N,08353.4538,W,0.16,112.69,130620,,,D*74
$GPRMC,152106.000,A,4028.4538,N,08353.4538,W,0.17,102.40,130620,,,D*7C
$GPRMC,152107.000,A,4028.4538,N,08353.4538,W,0.15,98.87,130620,,,D*46
$GPRMC,152108.000,A,4028.4538,N,08353.4538,W,0.15,84.18,130620,,,D*42
$GPRMC,152109.000,A,4028.4538,N,08353.4538,W,0.18,96.05,130620,,,D*41
$GPRMC,152110.000,A,4028.4537,N,08353.4538,W,0.17,119.76,130620,,,D*7B
$GPRMC,152111.000,A,4028.4537,N,08353.4538,W,0.12,128.36,130620,,,D*79
$GPRMC,152112.000,A,4028.4536,N,08353.4539,W,0.10,146.10,130620,,,D*74
$GPRMC,152113.000,A,4028.4535,N,08353.4539,W,0.13,123.28,130620,,,D*7D
$GPRMC,152114.000,A,4028.4535,N,08353.4539,W,0.15,149.14,130620,,,D*7F
$GPRMC,152115.000,A,4028.4534,N,08353.4540,W,0.14,133.10,130620,,,D*79
$GPRMC,152116.000,A,4028.4534,N,08353.4540,W,0.11,115.96,130620,,,D*75
$GPRMC,152117.000,A,4028.4534,N,08353.4541,W,0.15,102.97,130620,,,D*76
$GPRMC,152118.000,A,4028.4534,N,08353.4541,W,0.11,104.66,130620,,,D*75
$GPRMC,152119.000,A,4028.4534,N,08353.4541,W,0.10,72.92,130620,,,D*4E
$GPRMC,152120.000,A,4028.4534,N,08353.4541,W,0.11,106.83,130620,,,D*77
$GPRMC,152121.000,A,4028.4533,N,08353.4541,W,0.09,114.82,130620,,,D*7A
$GPRMC,152122.000,A,4028.4533,N,08353.4542,W,0.19,145.33,130620,,,D*75
$GPRMC,152123.000,A,4028.4533,N,08353.4542,W,0.14,169.81,130620,,,D*7E
$GPRMC,152124.000,A,4028.4532,N,08353.4542,W,0.14,156.61,130620,,,D*7A
$GPRMC,152125.000,A,4028.4532,N,08353.4542,W,0.16,153.83,130620,,,D*70
$GPRMC,152126.000,A,4028.4531,N,08353.4542,W,0.13,151.43,130620,,,D*7B
$GPRMC,152127.000,A,4028.4531,N,08353.4543,W,0.13,164.80,130620,,,D*72
$GPRMC,152128.000,A,4028.4531,N,08353.4543,W,0.07,113.81,130620,,,D*79
$GPRMC,152129.000,A,4028.4531,N,08353.4543,W,0.09,98.57,130620,,,D*4F
$GPRMC,152130.000,A,4028.4531,N,08353.4543,W,0.10,83.25,130620,,,D*40
$GPRMC,152131.000,A,4028.4531,N,08353.4543,W,0.10,109.65,130620,,,D*76
$GPRMC,152132.000,A,4028.4531,N,08353.4543,W,0.10,93.13,130620,,,D*46
$GPRMC,152133.000,A,4028.4531,N,08353.4543,W,0.10,91.34,130620,,,D*40
$GPRMC,152134.000,A,4028.4531,N,08353.4543,W,0.12,152.34,130620,,,D*7B
$GPRMC,152135.000,A,4028.4531,N,08353.4543,W,0.17,126.58,130620,,,D*76
$GPRMC,152136.000,A,4028.4531,N,08353.4543,W,0.17,139.85,130620,,,D*7B
$GPRMC,152137.000,A,4028.4530,N,08353.4543,W,0.17,141.66,130620,,,D*79
$GPRMC,152138.000,A,4028.4530,N,08353.4543,W,0.18,144.94,130620,,,D*71
$GPRMC,152139.000,A,4028.4530,N,08353.4543,W,0.14,129.14,130620,,,D*7F
$GPRMC,152140.000,A,4028.4530,N,08353.4543,W,0.13,116.48,130620,,,D*73
$GPRMC,152141.000,A,4028.4530,N,08353.4543,W,0.17,120.75,130620,,,D*7D
$GPRMC,152142.000,A,4028.4530,N,08353.4543,W,0.13,87.24,130620,,,D*42
$GPRMC,152143.000,A,4028.4530,N,08353.4543,W,0.12,62.59,130620,,,D*43
$GPRMC,152144.000,A,4028.4530,N,08353.4543,W,0.15,80.07,130620,,,D*44
$GPRMC,152145.000,A,4028.4531,N,08353.4543,W,0.14,77.99,130620,,,D*4A
$GPRMC,152146.000,A,4028.4531,N,08353.4543,W,0.16,121.30,130620,,,D*7A
$GPRMC,152147.000,A,4028.4530,N,08353.4543,W,0.17,144.04,130620,,,D*7F
$GPRMC,152148.000,A,4028.4530,N,08353.4542,W,0.18,137.83,130620,,,D*75
$GPRMC,152149.000,A,4028.4529,N,08353.4541,W,0.19,141.46,130620,,,D*76
$GPRMC,152150.000,A,4028.4528,N,08353.4540,W,0.22,139.08,130620,,,D*73
$GPRMC,152151.000,A,4028.4527,N,08353.4540,W,0.17,143.47,130620,,,D*7D
$GPRMC,152152.000,A,4028.4527,N,08353.4540,W,0.09,104.16,130620,,,D*76
$GPRMC,152153.000,A,4028.4527,N,08353.4540,W,0.19,97.84,130620,,,D*46
$GPRMC,152154.000,A,4028.4527,N,08353.4540,W,0.16,102.90,130620,,,D*76
$GPRMC,152155.000,A,4028.4526,N,08353.4539,W,0.16,101.40,130620,,,D*76
$GPRMC,152156.000,A,4028.4526,N,08353.4538,W,0.17,99.09,130620,,,D*48
$GPRMC,152157.000,A,4028.4526,N,08353.4538,W,0.17,100.48,130620,,,D*7D
$GPRMC,152158.000,A,4028.4526,N,08353.4537,W,0.18,97.16,130620,,,D*46
$GPRMC,152159.000,A,4028.4526,N,08353.4536,W,0.17,92.99,130620,,,D*4B
$GPRMC,152200.000,A,4028.4526,N,08353.4536,W,0.17,96.10,130620,,,D*41
$GPRMC,152201.000,A,4028.4525,N,08353.4535,W,0.16,87.58,130620,,,D*4D
$GPRMC,152202.000,A,4028.4525,N,08353.4534,W,0.17,94.13,130620,,,D*43
$GPRMC,152203.000,A,4028.4525,N,08353.4534,W,0.17,96.87,130620,,,D*4D
$GPRMC,152204.000,A,4028.4525,N,08353.4533,W,0.16,89.06,130620,,,D*4B
$GPRMC,152205.000,A,4028.4525,N,08353.4532,W,0.18,83.32,130620,,,D*48
$GPRMC,152206.000,A,4028.4525,N,08353.4532,W,0.17,81.94,130620,,,D*4A
$GPRMC,152207.000,A,4028.4525,N,08353.4531,W,0.18,90.97,130620,,,D*44
$GPRMC,152208.000,A,4028.4526,N,08353.4531,W,0.18,83.61,130620,,,D*43
$GPRMC,152209.000,A,4028.4526,N,08353.4531,W,0.16,82.84,130620,,,D*46
$GPRMC,152210.000,A,4028.4526,N,08353.4530,W,0.15,83.99,130620,,,D*41
$GPRMC,152211.000,A,4028.4526,N,08353.4530,W,0.14,84.76,130620,,,D*47
$GPRMC,152212.000,A,4028.4527,N,08353.4530,W,0.16,95.10,130620,,,D*47
$GPRMC,152213.000,A,4028.4526,N,08353.4529,W,0.12,117.27,130620,,,A*71
$GPRMC,152214.000,A,4028.4526,N,08353.4529,W,0.13,123.22,130620,,,A*75
$GPRMC,152215.000,A,4028.4525,N,08353.4528,W,0.14,124.32,130620,,,A*77
$GPRMC,152216.000,A,4028.4525,N,08353.4528,W,0.16,130.17,130620,,,A*74
$GPRMC,152217.000,A,4028.4524,N,08353.4527,W,0.14,121.78,130620,,,A*70
$GPRMC,152218.000,A,4028.4524,N,08353.4527,W,0.12,121.11,130620,,,A*76
$GPRMC,152219.000,A,4028.4524,N,08353.4527,W,0.16,120.48,130620,,,A*7E
$GPRMC,152220.000,A,4028.4524,N,08353.4527,W,0.09,109.78,130620,,,A*72
$GPRMC,152221.000,A,4028.4524,N,08353.4527,W,0.12,117.47,130620,,,A*7A
$GPRMC,152222.000,A,4028.4524,N,08353.4527,W,0.14,122.83,130620,,,A*71
$GPRMC,152223.000,A,4028.4524,N,08353.4527,W,0.10,119.07,130620,,,A*70
$GPRMC,152224.000,A,4028.4524,N,08353.4527,W,0.20,123.44,130620,,,A*7A
$GPRMC,152225.000,A,4028.4524,N,08353.4526,W,0.11,117.42,130620,,,A*79
$GPRMC,152226.000,A,4028.4524,N,08353.4526,W,0.20,121.19,130620,,,A*73
$GPRMC,152227.000,A,4028.4524,N,08353.4526,W,0.11,101.29,130620,,,A*71
$GPRMC,152228.000,A,4028.4524,N,08353.4526,W,0.13,110.72,130620,,,A*72
$GPRMC,152229.000,A,4028.4524,N,08353.4526,W,0.15,109.50,130620,,,A*7D
$GPRMC,152230.000,A,4028.4524,N,08353.4526,W,0.12,102.33,130620,,,A*7C
$GPRMC,152231.000,A,4028.4524,N,08353.4526,W,0.10,93.43,130620,,,A*41
$GPRMC,152232.000,A,4028.4524,N,08353.4526,W,0.14,105.50,130620,,,A*7A
$GPRMC,152233.000,A,4028.4524,N,08353.4526,W,0.16,108.63,130620,,,A*74
$GPRMC,152234.000,A,4028.4524,N,08353.4525,W,0.14,109.22,130620,,,A*76
$GPRMC,152235.000,A,4028.4523,N,08353.4525,W,0.15,104.71,130620,,,A*7A
$GPRMC,152236.000,A,4028.4523,N,08353.4524,W,0.15,122.21,130620,,,A*79
$GPRMC,152237.000,A,4028.4523,N,08353.4524,W,0.15,108.24,130620,,,A*75
$GPRMC,152238.000,A,4028.4523,N,08353.4524,W,0.13,105.24,130620,,,A*71
$GPRMC,152239.000,A,4028.4523,N,08353.4524,W,0.14,121.51,130620,,,D*76
$GPRMC,152240.000,A,4028.4523,N,08353.4524,W,0.20,124.65,130620,,,D*7D
$GPRMC,152241.000,A,4028.4523,N,08353.4524,W,0.16,118.80,130620,,,D*7D
$GPRMC,152242.000,A,4028.4524,N,08353.4525,W,0.22,133.07,130620,,,D*79
$GPRMC,152243.000,A,4028.4525,N,08353.4525,W,0.14,112.40,130620,,,D*7C
$GPRMC,152244.000,A,4028.4525,N,08353.4526,W,0.15,116.32,130620,,,D*78
$GPRMC,152245.000,A,4028.4526,N,08353.4527,W,0.10,91.33,130620,,,D*41
$GPRMC,152246.000,A,4028.4527,N,08353.4527,W,0.15,125.02,130620,,,D*7A
$GPRMC,152247.000,A,4028.4527,N,08353.4528,W,0.15,125.87,130620,,,D*79
$GPRMC,152248.000,A,4028.4527,N,08353.4528,W,0.20,123.38,130620,,,D*72
$GPRMC,152249.000,A,4028.4527,N,08353.4528,W,0.21,127.39,130620,,,D*77
$GPRMC,152250.000,A,4028.4527,N,08353.4528,W,0.19,125.22,130620,,,D*7C
$GPRMC,152251.000,A,4028.4527,N,08353.4529,W,0.19,126.22,130620,,,D*7F
$GPRMC,152252.000,A,4028.4528,N,08353.4530,W,0.15,85.00,130620,,,D*4F
$GPRMC,152253.000,A,4028.4528,N,08353.4530,W,0.10,57.16,130620,,,D*43
$GPRMC,152254.000,A,4028.4529,N,08353.4531,W,0.09,75.07,130620,,,D*4C
$GPRMC,152255.000,A,4028.4529,N,08353.4531,W,0.09,74.02,130620,,,D*49
$GPRMC,152256.000,A,4028.4529,N,08353.4531,W,0.09,77.99,130620,,,D*4B
$GPRMC,152257.000,A,4028.4529,N,08353.4531,W,0.10,82.30,130620,,,D*4B
$GPRMC,152258.000,A,4028.4529,N,08353.4531,W,0.10,72.91,130620,,,D*40
$GPRMC,152259.000,A,4028.4529,N,08353.4531,W,0.11,82.00,130620,,,D*47
$GPRMC,152300.000,A,4028.4529,N,08353.4531,W,0.12,89.17,130620,,,D*44
$GPRMC,152301.000,A,4028.4529,N,08353.4531,W,0.11,81.19,130620,,,D*40
$GPRMC,152302.000,A,4028.4530,N,08353.4532,W,0.11,86.12,130620,,,D*44
$GPRMC,152303.000,A,4028.4530,N,08353.4533,W,0.12,94.49,130620,,,D*4A
$GPRMC,152304.000,A,4028.4531,N,08353.4534,W,0.11,78.36,130620,,,D*42
$GPRMC,152305.000,A,4028.4531,N,08353.4534,W,0.11,84.69,130620,,,D*4A
$GPRMC,152306.000,A,4028.4532,N,08353.4535,W,0.10,99.08,130620,,,D*41
$GPRMC,152307.000,A,4028.4532,N,08353.4536,W,0.10,84.98,130620,,,D*46
$GPRMC,152308.000,A,4028.4532,N,08353.4537,W,0.10,92.34,130620,,,D*49
$GPRMC,152309.000,A,4028.4533,N,08353.4537,W,0.13,109.27,130620,,,D*7B
$GPRMC,152310.000,A,4028.4532,N,08353.4537,W,0.20,133.71,130620,,,A*7D
$GPRMC,152311.000,A,4028.4531,N,08353.4537,W,0.19,134.54,130620,,,A*75
$GPRMC,152312.000,A,4028.4531,N,08353.4536,W,0.19,128.76,130620,,,A*7A
$GPRMC,152313.000,A,4028.4530,N,08353.4536,W,0.20,135.47,130620,,,A*7E
$GPRMC,152314.000,A,4028.4529,N,08353.4535,W,0.19,129.92,130620,,,A*7D
$GPRMC,152315.000,A,4028.4529,N,08353.4535,W,0.18,128.16,130620,,,A*70
$GPRMC,152316.000,A,4028.4528,N,08353.4534,W,0.23,131.68,130620,,,A*7A
$GPRMC,152317.000,A,4028.4527,N,08353.4533,W,0.13,129.21,130620,,,A*74
$GPRMC,152318.000,A,4028.4526,N,08353.4533,W,0.17,129.67,130620,,,A*7C
$GPRMC,152319.000,A,4028.4526,N,08353.4532,W,0.17,128.92,130620,,,A*77
$GPRMC,152320.000,A,4028.4525,N,08353.4531,W,0.17,126.99,130620,,,A*78
$GPRMC,152321.000,A,4028.4525,N,08353.4531,W,0.18,124.72,130620,,,A*71
$GPRMC,152322.000,A,4028.4524,N,08353.4530,W,0.20,123.33,130620,,,A*7B
$GPRMC,152323.000,A,4028.4524,N,08353.4530,W,0.18,117.81,130620,,,A*7F
$GPRMC,152324.000,A,4028.4523,N,08353.4529,W,0.18,119.53,130620,,,A*76
$GPRMC,152325.000,A,4028.4523,N,08353.4529,W,0.15,113.26,130620,,,A*72
$GPRMC,152326.000,A,4028.4522,N,08353.4528,W,0.16,120.81,130620,,,A*7F
$GPRMC,152327.000,A,4028.4522,N,08353.4528,W,0.16,115.88,130620,,,A*71
$GPRMC,152328.000,A,4028.4522,N,08353.4527,W,0.19,121.11,130620,,,A*79
$GPRMC,152329.000,A,4028.4521,N,08353.4527,W,0.14,109.33,130620,,,A*7C
$GPRMC,152330.000,A,4028.4521,N,08353.4526,W,0.17,112.74,130620,,,A*7F
$GPRMC,152331.000,A,4028.4521,N,08353.4525,W,0.11,81.93,130620,,,A*49
$GPRMC,152332.000,A,4028.4520,N,08353.4525,W,0.14,110.37,130620,,,A*79
$GPRMC,152333.000,A,4028.4519,N,08353.4523,W,0.21,123.96,130620,,,A*79
$GPRMC,152334.000,A,4028.4517,N,08353.4522,W,0.23,126.83,130620,,,A*72
$GPRMC,152335.000,A,4028.4516,N,08353.4521,W,0.18,121.88,130620,,,A*75
$GPRMC,152336.000,A,4028.4514,N,08353.4520,W,0.18,125.55,130620,,,A*71
$GPRMC,152337.000,A,4028.4513,N,08353.4519,W,0.24,132.79,130620,,,A*7A
$GPRMC,152338.000,A,4028.4512,N,08353.4518,W,0.17,130.86,130620,,,A*77
$GPRMC,152339.000,A,4028.4511,N,08353.4517,W,0.20,130.15,130620,,,A*74
$GPRMC,152340.000,A,4028.4510,N,08353.4516,W,0.23,132.48,130620,,,A*73
$GPRMC,152341.000,A,4028.4510,N,08353.4516,W,0.20,129.20,130620,,,A*75
$GPRMC,152342.000,A,4028.4509,N,08353.4516,W,0.21,134.41,130620,,,A*74
$GPRMC,152343.000,A,4028.4509,N,08353.4516,W,0.16,132.51,130620,,,A*76
$GPRMC,152344.000,A,4028.4509,N,08353.4515,W,0.23,133.53,130620,,,A*77
$GPRMC,152345.000,A,4028.4508,N,08353.4515,W,0.17,133.02,130620,,,A*74
$GPRMC,152346.000,A,4028.4507,N,08353.4514,W,0.19,125.82,130620,,,A*78
$GPRMC,152347.000,A,4028.4507,N,08353.4514,W,0.18,132.07,130620,,,A*73
$GPRMC,152348.000,A,4028.4506,N,08353.4513,W,0.21,126.80,130620,,,A*7A
$GPRMC,152349.000,A,4028.4506,N,08353.4513,W,0.19,131.09,130620,,,A*77
$GPRMC,152350.000,A,4028.4505,N,08353.4513,W,0.21,128.05,130620,,,A*73
$GPRMC,152351.000,A,4028.4505,N,08353.4512,W,0.19,131.09,130620,,,A*7C
$GPRMC,152352.000,A,4028.4505,N,08353.4512,W,0.18,123.04,130620,,,A*70
$GPRMC,152353.000,A,4028.4506,N,08353.4512,W,0.11,112.08,130620,,,A*75
$GPRMC,152354.000,A,4028.4508,N,08353.4514,W,0.12,104.78,130620,,,A*79
$GPRMC,152355.000,A,4028.4509,N,08353.4516,W,0.13,107.79,130620,,,A*78
$GPRMC,152356.000,A,4028.4511,N,08353.4518,W,0.11,99.44,130620,,,A*46
$GPRMC,152357.000,A,4028.4513,N,08353.4519,W,0.14,110.20,130620,,,A*73
$GPRMC,152358.000,A,4028.4514,N,08353.4521,W,0.13,100.43,130620,,,A*73
$GPRMC,152359.000,A,4028.4514,N,08353.4520,W,0.17,113.94,130620,,,A*7F
$GPRMC,152400.000,A,4028.4514,N,08353.4520,W,0.16,111.24,130620,,,A*7C
$GPRMC,152401.000,A,4028.4514,N,08353.4520,W,0.15,117.70,130620,,,A*79
$GPRMC,152402.000,A,4028.4515,N,08353.4520,W,0.16,109.69,130620,,,A*7F
$GPRMC,152403.000,A,4028.4516,N,08353.4520,W,0.13,103.31,130620,,,A*7F
$GPRMC,152404.000,A,4028.4516,N,08353.4520,W,0.15,102.31,130620,,,A*7F
$GPRMC,152405.000,A,4028.4517,N,08353.4520,W,0.15,106.80,130620,,,A*71
$GPRMC,152406.000,A,4028.4517,N,08353.4521,W,0.17,114.32,130620,,,A*7B
$GPRMC,152407.000,A,4028.4517,N,08353.4521,W,0.14,107.69,130620,,,A*75
$GPRMC,152408.000,A,4028.4518,N,08353.4521,W,0.18,116.74,130620,,,A*75
$GPRMC,152409.000,A,4028.4518,N,08353.4520,W,0.16,124.02,130620,,,A*7B
$GPRMC,152410.000,A,4028.4518,N,08353.4520,W,0.17,119.20,130620,,,A*7C
$GPRMC,152411.000,A,4028.4518,N,08353.4520,W,0.28,114.94,130620,,,A*73
$GPRMC,152412.000,A,4028.4518,N,08353.4520,W,0.23,127.54,130620,,,A*77
$GPRMC,152413.000,A,4028.4518,N,08353.4520,W,0.14,122.63,130620,,,A*73
$GPRMC,152414.000,A,4028.4518,N,08353.4520,W,0.15,121.74,130620,,,A*70
$GPRMC,152415.000,A,4028.4518,N,08353.4520,W,0.16,122.12,130620,,,A*71
$GPRMC,152416.000,A,4028.4518,N,08353.4520,W,0.19,126.80,130620,,,A*72
$GPRMC,152417.000,A,4028.4518,N,08353.4520,W,0.17,123.04,130620,,,A*74
$GPRMC,152418.000,A,4028.4518,N,08353.4520,W,0.17,128.17,130620,,,A*72
$GPRMC,152419.000,A,4028.4518,N,08353.4520,W,0.15,122.66,130620,,,A*7D
$GPRMC,152420.000,A,4028.4518,N,08353.4520,W,0.17,120.12,130620,,,A*74
$GPRMC,152421.000,A,4028.4518,N,08353.4520,W,0.17,114.79,130620,,,A*7F
$GPRMC,152422.000,A,4028.4518,N,08353.4520,W,0.21,117.80,130620,,,A*7C
$GPRMC,152423.000,A,4028.4518,N,08353.4520,W,0.22,119.03,130620,,,A*7B
$GPRMC,152424.000,A,4028.4518,N,08353.4520,W,0.17,117.12,130620,,,A*74
$GPRMC,152425.000,A,4028.4518,N,08353.4519,W,0.24,126.15,130620,,,A*7A
$GPRMC,152426.000,A,4028.4518,N,08353.4519,W,0.18,117.87,130620,,,A*7F
$GPRMC,152427.000,A,4028.4518,N,08353.4519,W,0.18,121.49,130620,,,A*79
$GPRMC,152428.000,A,4028.4518,N,08353.4519,W,0.17,119.51,130620,,,A*7B
$GPRMC,152429.000,A,4028.4518,N,08353.4519,W,0.17,119.92,130620,,,A*75
$GPRMC,152430.000,A,4028.4518,N,08353.4519,W,0.19,126.33,130620,,,A*74
$GPRMC,152431.000,A,4028.4518,N,08353.4519,W,0.20,116.40,130620,,,A*78
$GPRMC,152432.000,A,4028.4518,N,08353.4519,W,0.19,124.73,130620,,,A*70
$GPRMC,152433.000,A,4028.4518,N,08353.4518,W,0.19,124.14,130620,,,A*71
$GPRMC,152434.000,A,4028.4518,N,08353.4518,W,0.21,129.76,130620,,,A*74
