$ADVER,3080,2.2
$GPRMC,151134.466,A,4028.4383,N,08353.4184,W,0.21,100.97,130620,,,A*77
$GPRMC,151135.466,A,4028.4383,N,08353.4183,W,0.21,118.97,130620,,,A*78
$GPRMC,151136.466,A,4028.4383,N,08353.4182,W,0.25,125.64,130620,,,A*7C
$GPRMC,151137.000,A,4028.4383,N,08353.4182,W,0.15,130.08,130620,,,A*74
$GPRMC,151138.000,A,4028.4382,N,08353.4181,W,0.21,119.51,130620,,,A*79
$GPRMC,151139.000,A,4028.4382,N,08353.4180,W,0.19,125.52,130620,,,A*7E
$GPRMC,151140.000,A,4028.4382,N,08353.4179,W,0.21,124.56,130620,,,A*78
$GPRMC,151141.000,A,4028.4382,N,08353.4178,W,0.20,118.40,130620,,,A*71
$GPRMC,151142.000,A,4028.4382,N,08353.4178,W,0.19,115.15,130620,,,A*75
$GPRMC,151143.000,A,4028.4382,N,08353.4177,W,0.15,110.56,130620,,,A*75
$GPRMC,151144.000,A,4028.4382,N,08353.4177,W,0.16,97.92,130620,,,A*47
$GPRMC,151145.000,A,4028.4382,N,08353.4176,W,0.15,100.88,130620,,,A*70
$GPRMC,151146.000,A,4028.4382,N,08353.4176,W,0.15,110.34,130620,,,A*75
$GPRMC,151147.000,A,4028.4382,N,08353.4175,W,0.17,94.42,130620,,,A*49
$GPRMC,151148.000,A,4028.4382,N,08353.4175,W,0.11,88.77,130620,,,A*4B
$GPRMC,151149.000,A,4028.4382,N,08353.4175,W,0.16,105.29,130620,,,A*72
$GPRMC,151150.000,A,4028.4382,N,08353.4174,W,0.12,87.64,130620,,,A*4D
$GPRMC,151151.000,A,4028.4381,N,08353.4174,W,0.18,101.29,130620,,,A*73
$GPRMC,151152.000,A,4028.4381,N,08353.4173,W,0.16,91.49,130620,,,A*47
$GPRMC,151153.000,A,4028.4382,N,08353.4173,W,0.22,92.19,130620,,,A*44
$GPRMC,151154.000,A,4028.4382,N,08353.4172,W,0.23,86.24,130620,,,D*4D
$GPRMC,151155.000,A,4028.4382,N,08353.4172,W,0.27,82.35,130620,,,D*4C
$GPRMC,151156.000,A,4028.4382,N,08353.4172,W,0.21,82.62,130620,,,D*4B
$GPRMC,151157.000,A,4028.4382,N,08353.4171,W,0.29,92.94,130620,,,D*49
$GPRMC,151158.000,A,4028.4382,N,08353.4171,W,0.27,102.11,130620,,,D*7D
$GPRMC,151159.000,A,4028.4382,N,08353.4170,W,0.24,107.67,130620,,,D*7A
$GPRMC,151200.000,A,4028.4382,N,08353.4170,W,0.24,112.89,130620,,,D*71
$GPRMC,151201.000,A,4028.4382,N,08353.4169,W,0.23,111.82,130620,,,D*77
$GPRMC,151202.000,A,4028.4382,N,08353.4169,W,0.21,122.11,130620,,,D*7C
$GPRMC,151203.000,A,4028.4382,N,08353.4169,W,0.15,119.63,130620,,,D*77
$GPRMC,151204.000,A,4028.4382,N,08353.4170,W,0.10,125.05,130620,,,D*72
$GPRMC,151205.000,A,4028.4382,N,08353.4170,W,0.10,118.24,130620,,,D*7E
$GPRMC,151206.000,A,4028.4383,N,08353.4170,W,0.08,134.28,130620,,,D*77
$GPRMC,151207.000,A,4028.4383,N,08353.4170,W,0.05,197.99,130620,,,D*78
$GPRMC,151208.000,A,4028.4383,N,08353.4171,W,0.07,278.86,130620,,,D*78
$GPRMC,151209.000,A,4028.4383,N,08353.4172,W,0.20,256.61,130620,,,D*7A
$GPRMC,151210.000,A,4028.4383,N,08353.4173,W,0.10,334.55,130620,,,D*72
$GPRMC,151211.000,A,4028.4383,N,08353.4173,W,0.10,341.58,130620,,,D*7C
$GPRMC,151212.000,A,4028.4384,N,08353.4173,W,0.14,28.88,130620,,,D*4D
$GPRMC,151213.000,A,4028.4384,N,08353.4174,W,0.17,14.25,130620,,,D*40
$GPRMC,151214.000,A,4028.4384,N,08353.4174,W,0.06,59.88,130620,,,D*49
$GPRMC,151215.000,A,4028.4385,N,08353.4174,W,0.01,43.68,130620,,,D*4B
$GPRMC,151216.000,A,4028.4385,N,08353.4175,W,0.04,73.46,130620,,,D*43
$GPRMC,151217.000,A,4028.4385,N,08353.4175,W,0.08,95.02,130620,,,D*46
$GPRMC,151218.000,A,4028.4385,N,08353.4175,W,0.10,108.74,130620,,,D*74
$GPRMC,151219.000,A,4028.4386,N,08353.4176,W,0.12,100.16,130620,,,D*7B
$GPRMC,151220.000,A,4028.4386,N,08353.4176,W,0.07,106.79,130620,,,D*7A
$GPRMC,151221.000,A,4028.4386,N,08353.4176,W,0.14,116.75,130620,,,D*74
$GPRMC,151222.000,A,4028.4386,N,08353.4176,W,0.14,128.51,130620,,,D*7C
$GPRMC,151223.000,A,4028.4386,N,08353.4176,W,0.11,146.15,130620,,,D*70
$GPRMC,151224.000,A,4028.4386,N,08353.4176,W,0.09,119.05,130620,,,D*75
$GPRMC,151225.000,A,4028.4386,N,08353.4176,W,0.10,136.66,130620,,,D*74
$GPRMC,151226.000,A,4028.4386,N,08353.4176,W,0.11,116.79,130620,,,D*7A
$GPRMC,151227.000,A,4028.4386,N,08353.4176,W,0.04,65.56,130620,,,D*47
$GPRMC,151228.000,A,4028.4386,N,08353.4177,W,0.04,34.46,130620,,,D*4C
$GPRMC,151229.000,A,4028.4386,N,08353.4177,W,0.05,57.69,130620,,,D*44
$GPRMC,151230.000,A,4028.4387,N,08353.4178,W,0.09,91.98,130620,,,D*4A
$GPRMC,151231.000,A,4028.4387,N,08353.4178,W,0.10,92.11,130620,,,D*41
$GPRMC,151232.000,A,4028.4387,N,08353.4178,W,0.12,122.92,130620,,,D*71
$GPRMC,151233.000,A,4028.4387,N,08353.4178,W,0.16,116.06,130620,,,D*7E
$GPRMC,151234.000,A,4028.4387,N,08353.4179,W,0.20,124.32,130620,,,D*7B
$GPRMC,151235.000,A,4028.4386,N,08353.4179,W,0.18,140.85,130620,,,D*7E
$GPRMC,151236.000,A,4028.4386,N,08353.4179,W,0.17,139.52,130620,,,D*76
$GPRMC,151237.000,A,4028.4386,N,08353.4179,W,0.18,145.70,130620,,,D*73
$GPRMC,151238.000,A,4028.4385,N,08353.4179,W,0.22,145.34,130620,,,D*76
$GPRMC,151239.000,A,4028.4385,N,08353.4180,W,0.14,151.53,130620,,,D*70
$GPRMC,151240.000,A,4028.4385,N,08353.4180,W,0.14,133.27,130620,,,D*79
$GPRMC,151241.000,A,4028.4385,N,08353.4180,W,0.20,137.20,130620,,,D*7C
$GPRMC,151242.000,A,4028.4385,N,08353.4180,W,0.21,119.15,130620,,,D*74
$GPRMC,151243.000,A,4028.4385,N,08353.4179,W,0.24,97.06,130620,,,D*43
$GPRMC,151244.000,A,4028.4385,N,08353.4179,W,0.24,89.76,130620,,,D*4C
$GPRMC,151245.000,A,4028.4385,N,08353.4179,W,0.27,92.65,130620,,,D*46
$GPRMC,151246.000,A,4028.4386,N,08353.4178,W,0.23,101.27,130620,,,D*7E
$GPRMC,151247.000,A,4028.4386,N,08353.4178,W,0.20,107.70,130620,,,D*78
$GPRMC,151248.000,A,4028.4386,N,08353.4178,W,0.20,103.62,130620,,,D*70
$GPRMC,151249.000,A,4028.4386,N,08353.4177,W,0.16,113.67,130620,,,D*7F
$GPRMC,151250.000,A,4028.4385,N,08353.4177,W,0.22,114.03,130620,,,D*76
$GPRMC,151251.000,A,4028.4385,N,08353.4177,W,0.24,127.71,130620,,,D*74
$GPRMC,151252.000,A,4028.4385,N,08353.4177,W,0.27,126.26,130620,,,D*77
$GPRMC,151253.000,A,4028.4384,N,08353.4177,W,0.31,121.52,130620,,,D*74
$GPRMC,151254.000,A,4028.4384,N,08353.4176,W,0.30,125.63,130620,,,D*75
$GPRMC,151255.000,A,4028.4384,N,08353.4176,W,0.25,107.88,130620,,,D*75
$GPRMC,151256.000,A,4028.4384,N,08353.4175,W,0.28,119.73,130620,,,D*73
$GPRMC,151257.000,A,4028.4384,N,08353.4175,W,0.23,110.74,130620,,,D*77
$GPRMC,151258.000,A,4028.4384,N,08353.4175,W,0.22,126.32,130620,,,D*7E
$GPRMC,151259.000,A,4028.4383,N,08353.4175,W,0.23,114.01,130620,,,D*78
$GPRMC,151300.000,A,4028.4383,N,08353.4175,W,0.26,164.27,130620,,,D*73
$GPRMC,151301.000,A,4028.4383,N,08353.4175,W,0.25,100.72,130620,,,D*73
$GPRMC,151302.000,A,4028.4383,N,08353.4175,W,0.21,138.73,130620,,,D*7E
$GPRMC,151303.000,A,4028.4383,N,08353.4175,W,0.21,129.19,130620,,,D*73
$GPRMC,151304.000,A,4028.4382,N,08353.4175,W,0.22,130.37,130620,,,D*72
$GPRMC,151305.000,A,4028.4382,N,08353.4175,W,0.22,132.32,130620,,,D*74
$GPRMC,151306.000,A,4028.4382,N,08353.4175,W,0.22,122.54,130620,,,D*76
$GPRMC,151307.000,A,4028.4381,N,08353.4175,W,0.27,131.35,130620,,,D*74
$GPRMC,151308.000,A,4028.4381,N,08353.4175,W,0.22,123.87,130620,,,D*74
$GPRMC,151309.000,A,4028.4381,N,08353.4175,W,0.27,128.02,130620,,,D*76
$GPRMC,151310.000,A,4028.4380,N,08353.4175,W,0.24,112.73,130620,,,D*73
$GPRMC,151311.000,A,4028.4380,N,08353.4175,W,0.28,119.41,130620,,,D*74
$GPRMC,151312.000,A,4028.4380,N,08353.4174,W,0.26,113.16,130620,,,D*70
$GPRMC,151313.000,A,4028.4379,N,08353.4174,W,0.28,116.07,130620,,,D*7C
$GPRMC,151314.000,A,4028.4379,N,08353.4174,W,0.23,110.66,130620,,,D*71
$GPRMC,151315.000,A,4028.4379,N,08353.4174,W,0.24,123.75,130620,,,D*75
$GPRMC,151316.000,A,4028.4379,N,08353.4174,W,0.18,127.28,130620,,,D*75
$GPRMC,151317.000,A,4028.4379,N,08353.4175,W,0.18,130.96,130620,,,D*76
$GPRMC,151318.000,A,4028.4378,N,08353.4175,W,0.18,135.41,130620,,,D*77
$GPRMC,151319.000,A,4028.4378,N,08353.4175,W,0.18,136.10,130620,,,D*71
$GPRMC,151320.000,A,4028.4378,N,08353.4176,W,0.20,145.61,130620,,,D*71
$GPRMC,151321.000,A,4028.4378,N,08353.4176,W,0.17,144.47,130620,,,D*71
$GPRMC,151322.000,A,4028.4379,N,08353.4176,W,0.18,93.02,130620,,,D*46
$GPRMC,151323.000,A,4028.4379,N,08353.4177,W,0.13,94.16,130620,,,D*4F
$GPRMC,151324.000,A,4028.4379,N,08353.4177,W,0.14,100.68,130620,,,D*7A
$GPRMC,151325.000,A,4028.4380,N,08353.4177,W,0.14,93.39,130620,,,D*42
$GPRMC,151326.000,A,4028.4380,N,08353.4177,W,0.12,106.11,130620,,,D*70
$GPRMC,151327.000,A,4028.4380,N,08353.4177,W,0.17,117.52,130620,,,D*73
$GPRMC,151328.000,A,4028.4380,N,08353.4177,W,0.23,124.20,130620,,,D*7E
$GPRMC,151329.000,A,4028.4380,N,08353.4177,W,0.22,132.86,130620,,,D*75
$GPRMC,151330.000,A,4028.4380,N,08353.4177,W,0.23,120.47,130620,,,D*72
$GPRMC,151331.000,A,4028.4379,N,08353.4176,W,0.23,127.00,130620,,,D*70
$GPRMC,151332.000,A,4028.4379,N,08353.4176,W,0.20,115.90,130620,,,D*78
$GPRMC,151333.000,A,4028.4379,N,08353.4176,W,0.14,113.33,130620,,,D*71
$GPRMC,151334.000,A,4028.4379,N,08353.4176,W,0.10,128.35,130620,,,D*7C
$GPRMC,151335.000,A,4028.4379,N,08353.4177,W,0.14,124.19,130620,,,D*7A
$GPRMC,151336.000,A,4028.4380,N,08353.4177,W,0.10,111.44,130620,,,D*75
$GPRMC,151337.000,A,4028.4380,N,08353.4177,W,0.08,139.42,130620,,,D*71
$GPRMC,151338.000,A,4028.4380,N,08353.4177,W,0.04,35.14,130620,,,D*4C
$GPRMC,151339.000,A,4028.4380,N,08353.4177,W,0.10,79.27,130620,,,D*40
$GPRMC,151340.000,A,4028.4381,N,08353.4177,W,0.15,61.23,130620,,,D*47
$GPRMC,151341.000,A,4028.4381,N,08353.4177,W,0.15,40.22,130620,,,D*44
$GPRMC,151342.000,A,4028.4382,N,08353.4177,W,0.11,66.45,130620,,,D*45
$GPRMC,151343.000,A,4028.4382,N,08353.4177,W,0.10,40.39,130620,,,D*4A
$GPRMC,151344.000,A,4028.4382,N,08353.4177,W,0.09,43.59,130620,,,D*40
$GPRMC,151345.000,A,4028.4383,N,08353.4178,W,0.08,44.33,130620,,,D*45
$GPRMC,151346.000,A,4028.4383,N,08353.4178,W,0.04,23.59,130620,,,D*47
$GPRMC,151347.000,A,4028.4383,N,08353.4178,W,0.05,93.36,130620,,,D*45
$GPRMC,151348.000,A,4028.4384,N,08353.4179,W,0.06,130.12,130620,,,D*71
$GPRMC,151349.000,A,4028.4384,N,08353.4179,W,0.09,130.52,130620,,,D*7B
$GPRMC,151350.000,A,4028.4384,N,08353.4179,W,0.09,130.83,130620,,,D*7F
$GPRMC,151351.000,A,4028.4384,N,08353.4179,W,0.18,139.55,130620,,,D*7C
$GPRMC,151352.000,A,4028.4383,N,08353.4179,W,0.14,129.35,130620,,,D*73
$GPRMC,151353.000,A,4028.4383,N,08353.4179,W,0.12,137.53,130620,,,D*7B
$GPRMC,151354.000,A,4028.4383,N,08353.4179,W,0.14,152.86,130620,,,D*71
$GPRMC,151355.000,A,4028.4383,N,08353.4179,W,0.18,141.12,130620,,,D*73
$GPRMC,151356.000,A,4028.4382,N,08353.4179,W,0.20,151.90,130620,,,D*71
$GPRMC,151357.000,A,4028.4382,N,08353.4179,W,0.15,152.09,130620,,,D*75
$GPRMC,151358.000,A,4028.4382,N,08353.4179,W,0.12,166.62,130620,,,D*77
$GPRMC,151359.000,A,4028.4382,N,08353.4179,W,0.16,141.45,130620,,,D*72
$GPRMC,151400.000,A,4028.4382,N,08353.4179,W,0.15,142.80,130620,,,D*70
$GPRMC,151401.000,A,4028.4382,N,08353.4180,W,0.17,141.29,130620,,,D*75
$GPRMC,151402.000,A,4028.4382,N,08353.4180,W,0.19,129.81,130620,,,D*74
$GPRMC,151403.000,A,4028.4382,N,08353.4179,W,0.25,133.17,130620,,,D*78
$GPRMC,151404.000,A,4028.4381,N,08353.4179,W,0.33,128.43,130620,,,D*70
$GPRMC,151405.000,A,4028.4381,N,08353.4178,W,0.34,133.37,130620,,,D*7E
$GPRMC,151406.000,A,4028.4380,N,08353.4177,W,0.26,118.09,130620,,,D*74
$GPRMC,151407.000,A,4028.4380,N,08353.4177,W,0.27,102.74,130620,,,D*75
$GPRMC,151408.000,A,4028.4380,N,08353.4176,W,0.25,93.80,130620,,,D*4B
$GPRMC,151409.000,A,4028.4380,N,08353.4176,W,0.25,94.70,130620,,,D*42
$GPRMC,151410.000,A,4028.4380,N,08353.4176,W,0.13,79.48,130620,,,D*47
$GPRMC,151411.000,A,4028.4381,N,08353.4176,W,0.17,83.56,130620,,,D*49
$GPRMC,151412.000,A,4028.4381,N,08353.4175,W,0.17,80.65,130620,,,D*4A
$GPRMC,151413.000,A,4028.4381,N,08353.4175,W,0.13,75.93,130620,,,D*4C
$GPRMC,151414.000,A,4028.4382,N,08353.4176,W,0.06,73.37,130620,,,D*47
$GPRMC,151415.000,A,4028.4382,N,08353.4176,W,0.11,102.51,130620,,,D*77
$GPRMC,151416.000,A,4028.4382,N,08353.4176,W,0.14,122.70,130620,,,D*70
$GPRMC,151417.000,A,4028.4382,N,08353.4175,W,0.13,128.83,130620,,,D*73
$GPRMC,151418.000,A,4028.4382,N,08353.4175,W,0.11,142.91,130620,,,D*71
$GPRMC,151419.000,A,4028.4382,N,08353.4175,W,0.14,146.44,130620,,,D*79
$GPRMC,151420.000,A,4028.4382,N,08353.4176,W,0.11,163.23,130620,,,D*73
$GPRMC,151421.000,A,4028.4382,N,08353.4176,W,0.08,179.88,130620,,,D*70
$GPRMC,151422.000,A,4028.4382,N,08353.4177,W,0.08,254.34,130620,,,D*79
$GPRMC,151423.000,A,4028.4382,N,08353.4178,W,0.06,265.74,130620,,,D*7F
$GPRMC,151424.000,A,4028.4382,N,08353.4178,W,0.05,157.94,130620,,,D*77
$GPRMC,151425.000,A,4028.4383,N,08353.4179,W,0.04,77.98,130620,,,D*48
$GPRMC,151426.000,A,4028.4383,N,08353.4179,W,0.08,89.50,130620,,,D*42
$GPRMC,151427.000,A,4028.4383,N,08353.4179,W,0.10,129.15,130620,,,D*70
$GPRMC,151428.000,A,4028.4383,N,08353.4179,W,0.21,114.69,130620,,,D*78
$GPRMC,151429.000,A,4028.4383,N,08353.4178,W,0.19,131.68,130620,,,D*75
$GPRMC,151430.000,A,4028.4383,N,08353.4178,W,0.17,121.40,130620,,,D*78
$GPRMC,151431.000,A,4028.4382,N,08353.4178,W,0.18,134.39,130620,,,D*7D
$GPRMC,151432.000,A,4028.4382,N,08353.4178,W,0.19,124.81,130620,,,D*7D
$GPRMC,151433.000,A,4028.4382,N,08353.4178,W,0.16,124.57,130620,,,D*78
$GPRMC,151434.000,A,4028.4382,N,08353.4178,W,0.11,110.79,130620,,,D*73
$GPRMC,151435.000,A,4028.4383,N,08353.4178,W,0.13,97.51,130620,,,D*45
$GPRMC,151436.000,A,4028.4383,N,08353.4178,W,0.13,111.26,130620,,,D*79
$GPRMC,151437.000,A,4028.4383,N,08353.4177,W,0.17,109.60,130620,,,D*78
$GPRMC,151438.000,A,4028.4384,N,08353.4177,W,0.17,115.07,130620,,,D*7C
$GPRMC,151439.000,A,4028.4384,N,08353.4177,W,0.19,124.58,130620,,,D*7B
$GPRMC,151440.000,A,4028.4383,N,08353.4177,W,0.28,135.17,130620,,,D*7B
$GPRMC,151441.000,A,4028.4383,N,08353.4177,W,0.28,139.95,130620,,,D*7C
$GPRMC,151442.000,A,4028.4382,N,08353.4176,W,0.30,142.33,130620,,,D*76
$GPRMC,151443.000,A,4028.4382,N,08353.4176,W,0.26,138.14,130620,,,D*78
$GPRMC,151444.000,A,4028.4381,N,08353.4176,W,0.27,129.52,130620,,,D*7F
$GPRMC,151445.000,A,4028.4381,N,08353.4176,W,0.12,111.11,130620,,,D*74
$GPRMC,151446.000,A,4028.4382,N,08353.4176,W,0.16,79.90,130620,,,D*46
$GPRMC,151447.000,A,4028.4382,N,08353.4176,W,0.17,69.69,130620,,,D*41
$GPRMC,151448.000,A,4028.4383,N,08353.4176,W,0.20,77.67,130620,,,D*4A
$GPRMC,151449.000,A,4028.4384,N,08353.4176,W,0.14,65.14,130620,,,D*4C
$GPRMC,151450.000,A,4028.4384,N,08353.4176,W,0.18,83.60,130620,,,D*43
$GPRMC,151451.000,A,4028.4385,N,08353.4176,W,0.20,96.57,130620,,,D*48
$GPRMC,151452.000,A,4028.4384,N,08353.4175,W,0.23,127.97,130620,,,D*7D
$GPRMC,151453.000,A,4028.4384,N,08353.4175,W,0.21,138.05,130620,,,D*7B
$GPRMC,151454.000,A,4028.4383,N,08353.4175,W,0.24,144.34,130620,,,D*77
$GPRMC,151455.000,A,4028.4383,N,08353.4175,W,0.20,145.92,130620,,,D*7F
$GPRMC,151456.000,A,4028.4383,N,08353.4175,W,0.24,146.00,130620,,,D*70
$GPRMC,151457.000,A,4028.4382,N,08353.4175,W,0.16,149.74,130620,,,D*7D
$GPRMC,151458.000,A,4028.4382,N,08353.4176,W,0.13,118.76,130620,,,D*72
$GPRMC,151459.000,A,4028.4383,N,08353.4176,W,0.10,94.53,130620,,,D*43
$GPRMC,151500.000,A,4028.4383,N,08353.4176,W,0.11,125.46,130620,,,D*70
$GPRMC,151501.000,A,4028.4383,N,08353.4176,W,0.12,102.11,130620,,,D*75
$GPRMC,151502.000,A,4028.4383,N,08353.4176,W,0.11,131.01,130620,,,D*74
$GPRMC,151503.000,A,4028.4383,N,08353.4176,W,0.11,107.52,130620,,,D*76
$GPRMC,151504.000,A,4028.4383,N,08353.4176,W,0.16,154.07,130620,,,D*70
$GPRMC,151505.000,A,4028.4383,N,08353.4176,W,0.16,134.20,130620,,,D*72
$GPRMC,151506.000,A,4028.4383,N,08353.4176,W,0.16,124.59,130620,,,D*7E
$GPRMC,151507.000,A,4028.4382,N,08353.4176,W,0.20,121.08,130620,,,D*7A
$GPRMC,151508.000,A,4028.4382,N,08353.4176,W,0.20,112.34,130620,,,D*7A
$GPRMC,151509.000,A,4028.4382,N,08353.4176,W,0.18,115.72,130620,,,D*75
$GPRMC,151510.000,A,4028.4383,N,08353.4176,W,0.15,88.62,130620,,,D*45
$GPRMC,151511.000,A,4028.4383,N,08353.4176,W,0.20,91.37,130620,,,D*4A
$GPRMC,151512.000,A,4028.4383,N,08353.4176,W,0.23,98.16,130620,,,D*40
$GPRMC,151513.000,A,4028.4384,N,08353.4175,W,0.21,92.29,130620,,,D*41
$GPRMC,151514.000,A,4028.4384,N,08353.4175,W,0.25,95.56,130620,,,D*4D
$GPRMC,151515.000,A,4028.4384,N,08353.4174,W,0.28,105.01,130620,,,D*7A
$GPRMC,151516.000,A,4028.4384,N,08353.4174,W,0.33,120.19,130620,,,D*7D
$GPRMC,151517.000,A,4028.4383,N,08353.4173,W,0.32,122.68,130620,,,D*79
$GPRMC,151518.000,A,4028.4383,N,08353.4173,W,0.23,120.35,130620,,,D*7C
$GPRMC,151519.000,A,4028.4382,N,08353.4172,W,0.26,116.97,130620,,,D*75
$GPRMC,151520.000,A,4028.4382,N,08353.4172,W,0.23,122.27,130620,,,D*76
$GPRMC,151521.000,A,4028.4382,N,08353.4172,W,0.24,119.43,130620,,,D*7A
$GPRMC,151522.000,A,4028.4382,N,08353.4172,W,0.20,87.04,130620,,,D*48
$GPRMC,151523.000,A,4028.4383,N,08353.4171,W,0.23,97.55,130620,,,D*4D
$GPRMC,151524.000,A,4028.4383,N,08353.4171,W,0.18,92.87,130620,,,D*48
$GPRMC,151525.000,A,4028.4383,N,08353.4171,W,0.16,98.03,130620,,,D*41
$GPRMC,151526.000,A,4028.4383,N,08353.4171,W,0.13,94.27,130620,,,D*4D
$GPRMC,151527.000,A,4028.4384,N,08353.4171,W,0.17,95.07,130620,,,D*4C
$GPRMC,151528.000,A,4028.4383,N,08353.4171,W,0.24,135.08,130620,,,D*70
$GPRMC,151529.000,A,4028.4383,N,08353.4171,W,0.25,123.20,130620,,,D*7D
$GPRMC,151530.000,A,4028.4383,N,08353.4170,W,0.23,129.25,130620,,,D*7D
$GPRMC,151531.000,A,4028.4382,N,08353.4170,W,0.23,130.01,130620,,,D*73
$GPRMC,151532.000,A,4028.4382,N,08353.4170,W,0.26,125.80,130620,,,D*78
$GPRMC,151533.000,A,4028.4382,N,08353.4169,W,0.24,134.03,130620,,,D*78
$GPRMC,151534.000,A,4028.4381,N,08353.4169,W,0.17,110.17,130620,,,D*7F
$GPRMC,151535.000,A,4028.4381,N,08353.4169,W,0.13,128.82,130620,,,D*7D
$GPRMC,151536.000,A,4028.4381,N,08353.4169,W,0.11,142.47,130620,,,D*79
$GPRMC,151537.000,A,4028.4381,N,08353.4169,W,0.14,129.92,130620,,,D*78
$GPRMC,151538.000,A,4028.4381,N,08353.4169,W,0.12,144.53,130620,,,D*77
$GPRMC,151539.000,A,4028.4381,N,08353.4169,W,0.14,141.54,130620,,,D*72
$GPRMC,151540.000,A,4028.4381,N,08353.4169,W,0.20,151.40,130620,,,D*7F
$GPRMC,151541.000,A,4028.4380,N,08353.4169,W,0.22,148.33,130620,,,D*71
$GPRMC,151542.000,A,4028.4380,N,08353.4169,W,0.20,145.32,130620,,,D*7C
$GPRMC,151543.000,A,4028.4380,N,08353.4169,W,0.19,125.11,130620,,,D*70
$GPRMC,151544.000,A,4028.4380,N,08353.4169,W,0.13,146.29,130620,,,D*73
$GPRMC,151545.000,A,4028.4380,N,08353.4169,W,0.12,94.21,130620,,,D*45
$GPRMC,151546.000,A,4028.4380,N,08353.4169,W,0.08,44.85,130620,,,D*4E
$GPRMC,151547.000,A,4028.4381,N,08353.4170,W,0.09,38.83,130620,,,D*4A
$GPRMC,151548.000,A,4028.4381,N,08353.4170,W,0.07,7.09,130620,,,D*75
$GPRMC,151549.000,A,4028.4382,N,08353.4170,W,0.09,32.75,130620,,,D*44
$GPRMC,151550.000,A,4028.4382,N,08353.4171,W,0.06,0.67,130620,,,D*70
$GPRMC,151551.000,A,4028.4382,N,08353.4171,W,0.04,50.05,130620,,,D*42
$GPRMC,151552.000,A,4028.4382,N,08353.4171,W,0.11,143.95,130620,,,D*7F
$GPRMC,151553.000,A,4028.4382,N,08353.4172,W,0.09,147.09,130620,,,D*75
$GPRMC,151554.000,A,4028.4382,N,08353.4172,W,0.12,123.54,130620,,,D*72
$GPRMC,151555.000,A,4028.4382,N,08353.4172,W,0.11,137.41,130620,,,D*71
$GPRMC,151556.000,A,4028.4382,N,08353.4172,W,0.12,130.25,130620,,,D*74
$GPRMC,151557.000,A,4028.4382,N,08353.4172,W,0.08,84.60,130620,,,D*41
$GPRMC,151558.000,A,4028.4382,N,08353.4172,W,0.07,41.79,130620,,,D*40
$GPRMC,151559.000,A,4028.4383,N,08353.4173,W,0.06,19.78,130620,,,D*4C
$GPRMC,151600.000,A,4028.4384,N,08353.4173,W,0.11,32.53,130620,,,D*42
$GPRMC,151601.000,A,4028.4384,N,08353.4173,W,0.04,165.12,130620,,,D*71
$GPRMC,151602.000,A,4028.4384,N,08353.4174,W,0.07,160.29,130620,,,D*7B
$GPRMC,151603.000,A,4028.4384,N,08353.4174,W,0.12,130.82,130620,,,D*7A
$GPRMC,151604.000,A,4028.4384,N,08353.4174,W,0.23,158.54,130620,,,D*7A
$GPRMC,151605.000,A,4028.4383,N,08353.4174,W,0.24,144.06,130620,,,D*71
$GPRMC,151606.000,A,4028.4383,N,08353.4174,W,0.25,144.49,130620,,,D*78
$GPRMC,151607.000,A,4028.4382,N,08353.4174,W,0.25,150.61,130620,,,D*77
$GPRMC,151608.000,A,4028.4382,N,08353.4174,W,0.23,144.64,130620,,,D*7E
$GPRMC,151609.000,A,4028.4382,N,08353.4174,W,0.18,148.83,130620,,,D*72
$GPRMC,151610.000,A,4028.4382,N,08353.4174,W,0.10,151.11,130620,,,D*71
$GPRMC,151611.000,A,4028.4382,N,08353.4174,W,0.07,158.71,130620,,,D*79
$GPRMC,151612.000,A,4028.4382,N,08353.4175,W,0.04,180.53,130620,,,D*7D
$GPRMC,151613.000,A,4028.4382,N,08353.4176,W,0.04,124.29,130620,,,D*7C
$GPRMC,151614.000,A,4028.4383,N,08353.4176,W,0.06,114.22,130620,,,D*70
$GPRMC,151615.000,A,4028.4383,N,08353.4176,W,0.05,139.95,130620,,,D*71
$GPRMC,151616.000,A,4028.4383,N,08353.4176,W,0.07,144.39,130620,,,D*7C
$GPRMC,151617.000,A,4028.4383,N,08353.4177,W,0.10,125.09,130620,,,D*7E
$GPRMC,151618.000,A,4028.4383,N,08353.4177,W,0.07,113.12,130620,,,D*78
$GPRMC,151619.000,A,4028.4383,N,08353.4177,W,0.07,128.71,130620,,,D*74
$GPRMC,151620.000,A,4028.4383,N,08353.4177,W,0.06,54.03,130620,,,D*40
$GPRMC,151621.000,A,4028.4383,N,08353.4177,W,0.09,53.35,130620,,,D*4C
$GPRMC,151622.000,A,4028.4384,N,08353.4178,W,0.15,333.40,130620,,,D*7D
$GPRMC,151623.000,A,4028.4384,N,08353.4179,W,0.09,359.02,130620,,,D*7A
$GPRMC,151624.000,A,4028.4385,N,08353.4181,W,0.13,343.95,130620,,,D*75
$GPRMC,151625.000,A,4028.4386,N,08353.4182,W,0.07,9.60,130620,,,D*76
$GPRMC,151626.000,A,4028.4386,N,08353.4182,W,0.06,339.43,130620,,,D*75
$GPRMC,151627.000,A,4028.4386,N,08353.4183,W,0.02,206.94,130620,,,D*76
$GPRMC,151628.000,A,4028.4386,N,08353.4183,W,0.13,153.68,130620,,,D*79
$GPRMC,151629.000,A,4028.4386,N,08353.4183,W,0.10,155.12,130620,,,D*70
$GPRMC,151630.000,A,4028.4386,N,08353.4183,W,0.14,162.45,130620,,,D*7A
$GPRMC,151631.000,A,4028.4385,N,08353.4184,W,0.17,169.16,130620,,,D*71
$GPRMC,151632.000,A,4028.4385,N,08353.4184,W,0.16,176.86,130620,,,D*74
$GPRMC,151633.000,A,4028.4385,N,08353.4185,W,0.12,193.52,130620,,,D*72
$GPRMC,151634.000,A,4028.4385,N,08353.4186,W,0.04,10.94,130620,,,D*41
$GPRMC,151635.000,A,4028.4386,N,08353.4186,W,0.05,35.37,130620,,,D*4C
$GPRMC,151636.000,A,4028.4386,N,08353.4186,W,0.06,77.01,130620,,,D*4F
$GPRMC,151637.000,A,4028.4386,N,08353.4186,W,0.06,87.55,130620,,,D*40
$GPRMC,151638.000,A,4028.4387,N,08353.4186,W,0.07,95.64,130620,,,D*4E
$GPRMC,151639.000,A,4028.4387,N,08353.4186,W,0.13,126.45,130620,,,D*70
$GPRMC,151640.000,A,4028.4387,N,08353.4186,W,0.22,137.25,130620,,,D*7A
$GPRMC,151641.000,A,4028.4386,N,08353.4185,W,0.27,153.25,130620,,,D*7E
$GPRMC,151642.000,A,4028.4386,N,08353.4185,W,0.26,144.84,130620,,,D*71
$GPRMC,151643.000,A,4028.4385,N,08353.4185,W,0.27,144.83,130620,,,D*75
$GPRMC,151644.000,A,4028.4384,N,08353.4184,W,0.30,133.15,130620,,,D*7B
$GPRMC,151645.000,A,4028.4384,N,08353.4184,W,0.21,113.51,130620,,,D*78
$GPRMC,151646.000,A,4028.4384,N,08353.4183,W,0.22,87.25,130620,,,D*40
$GPRMC,151647.000,A,4028.4384,N,08353.4183,W,0.20,78.08,130620,,,D*4C
$GPRMC,151648.000,A,4028.4385,N,08353.4182,W,0.20,78.56,130620,,,D*48
$GPRMC,151649.000,A,4028.4385,N,08353.4182,W,0.23,87.49,130620,,,D*44
$GPRMC,151650.000,A,4028.4385,N,08353.4182,W,0.20,88.00,130620,,,D*4D
$GPRMC,151651.000,A,4028.4386,N,08353.4181,W,0.27,102.07,130620,,,D*7F
$GPRMC,151652.000,A,4028.4386,N,08353.4181,W,0.27,107.59,130620,,,D*72
$GPRMC,151653.000,A,4028.4385,N,08353.4180,W,0.30,120.67,130620,,,D*7F
$GPRMC,151654.000,A,4028.4385,N,08353.4179,W,0.31,111.11,130620,,,D*7C
$GPRMC,151655.000,A,4028.4385,N,08353.4179,W,0.26,114.74,130620,,,D*7D
$GPRMC,151656.000,A,4028.4384,N,08353.4178,W,0.28,119.97,130620,,,D*70
$GPRMC,151657.000,A,4028.4384,N,08353.4178,W,0.24,110.32,130620,,,D*7B
$GPRMC,151658.000,A,4028.4384,N,08353.4177,W,0.20,88.17,130620,,,D*48
$GPRMC,151659.000,A,4028.4384,N,08353.4177,W,0.20,89.85,130620,,,D*43
$GPRMC,151700.000,A,4028.4385,N,08353.4177,W,0.18,88.97,130620,,,D*46
$GPRMC,151701.000,A,4028.4385,N,08353.4178,W,0.14,81.36,130620,,,D*46
$GPRMC,151702.000,A,4028.4386,N,08353.4179,W,0.13,87.50,130620,,,D*46
$GPRMC,151703.000,A,4028.4387,N,08353.4180,W,0.13,105.67,130620,,,D*7F
$GPRMC,151704.000,A,4028.4387,N,08353.4181,W,0.20,139.32,130620,,,D*76
$GPRMC,151705.000,A,4028.4387,N,08353.4182,W,0.22,138.59,130620,,,D*7A
$GPRMC,151706.000,A,4028.4387,N,08353.4183,W,0.22,131.81,130620,,,D*74
$GPRMC,151707.000,A,4028.4387,N,08353.4183,W,0.26,139.63,130620,,,D*75
$GPRMC,151708.000,A,4028.4387,N,08353.4184,W,0.25,145.71,130620,,,D*76
$GPRMC,151709.000,A,4028.4387,N,08353.4184,W,0.20,134.69,130620,,,D*7D
$GPRMC,151710.000,A,4028.4387,N,08353.4184,W,0.17,116.15,130620,,,D*7A
$GPRMC,151711.000,A,4028.4387,N,08353.4183,W,0.17,120.66,130620,,,D*7D
$GPRMC,151712.000,A,4028.4387,N,08353.4183,W,0.10,112.46,130620,,,D*7A
$GPRMC,151713.000,A,4028.4387,N,08353.4182,W,0.17,136.61,130620,,,D*7E
$GPRMC,151714.000,A,4028.4387,N,08353.4182,W,0.12,120.44,130620,,,D*7C
$GPRMC,151715.000,A,4028.4387,N,08353.4182,W,0.16,138.45,130620,,,D*71
$GPRMC,151716.000,A,4028.4386,N,08353.4182,W,0.24,147.92,130620,,,D*70
$GPRMC,151717.000,A,4028.4386,N,08353.4183,W,0.28,157.17,130620,,,D*70
$GPRMC,151718.000,A,4028.4386,N,08353.4183,W,0.25,149.05,130620,,,D*7E
$GPRMC,151719.000,A,4028.4385,N,08353.4184,W,0.25,153.36,130620,,,D*70
$GPRMC,151720.000,A,4028.4385,N,08353.4184,W,0.22,144.91,130620,,,D*76
$GPRMC,151721.000,A,4028.4385,N,08353.4184,W,0.23,142.29,130620,,,D*73
$GPRMC,151722.000,A,4028.4385,N,08353.4185,W,0.12,115.50,130620,,,D*7F
$GPRMC,151723.000,A,4028.4385,N,08353.4185,W,0.07,93.46,130620,,,D*42
$GPRMC,151724.000,A,4028.4385,N,08353.4185,W,0.11,103.23,130620,,,D*79
$GPRMC,151725.000,A,4028.4386,N,08353.4186,W,0.12,72.29,130620,,,D*46
$GPRMC,151726.000,A,4028.4386,N,08353.4185,W,0.13,76.83,130620,,,D*43
$GPRMC,151727.000,A,4028.4386,N,08353.4185,W,0.14,103.92,130620,,,D*76
$GPRMC,151728.000,A,4028.4386,N,08353.4184,W,0.26,126.99,130620,,,D*75
$GPRMC,151729.000,A,4028.4385,N,08353.4184,W,0.23,125.14,130620,,,D*74
$GPRMC,151730.000,A,4028.4385,N,08353.4183,W,0.25,126.05,130620,,,D*7E
$GPRMC,151731.000,A,4028.4384,N,08353.4182,W,0.22,120.91,130620,,,D*73
$GPRMC,151732.000,A,4028.4384,N,08353.4182,W,0.25,122.82,130620,,,D*77
$GPRMC,151733.000,A,4028.4384,N,08353.4181,W,0.23,125.21,130620,,,D*7D
$GPRMC,151734.000,A,4028.4384,N,08353.4181,W,0.13,100.20,130620,,,D*7F
$GPRMC,151735.000,A,4028.4384,N,08353.4181,W,0.17,107.47,130620,,,D*7C
$GPRMC,151736.000,A,4028.4384,N,08353.4181,W,0.15,106.37,130620,,,D*7B
$GPRMC,151737.000,A,4028.4384,N,08353.4180,W,0.17,113.37,130620,,,D*7D
$GPRMC,151738.000,A,4028.4384,N,08353.4180,W,0.16,108.20,130620,,,D*7F
$GPRMC,151739.000,A,4028.4385,N,08353.4180,W,0.16,110.45,130620,,,D*75
$GPRMC,151740.000,A,4028.4384,N,08353.4180,W,0.21,119.10,130620,,,D*77
$GPRMC,151741.000,A,4028.4384,N,08353.4180,W,0.18,123.74,130620,,,D*77
$GPRMC,151742.000,A,4028.4384,N,08353.4180,W,0.17,121.43,130620,,,D*7D
$GPRMC,151743.000,A,4028.4384,N,08353.4179,W,0.17,123.93,130620,,,D*75
$GPRMC,151744.000,A,4028.4384,N,08353.4179,W,0.19,115.08,130620,,,D*7B
$GPRMC,151745.000,A,4028.4384,N,08353.4179,W,0.19,115.39,130620,,,D*78
$GPRMC,151746.000,A,4028.4384,N,08353.4179,W,0.11,144.16,130620,,,D*7A
$GPRMC,151747.000,A,4028.4384,N,08353.4179,W,0.13,125.97,130620,,,D*77
$GPRMC,151748.000,A,4028.4384,N,08353.4179,W,0.15,80.47,130620,,,D*4D
$GPRMC,151749.000,A,4028.4384,N,08353.4179,W,0.17,76.69,130620,,,D*4B
$GPRMC,151750.000,A,4028.4385,N,08353.4179,W,0.10,87.00,130620,,,D*44
$GPRMC,151751.000,A,4028.4385,N,08353.4179,W,0.08,108.96,130620,,,D*75
$GPRMC,151752.000,A,4028.4385,N,08353.4179,W,0.16,133.03,130620,,,D*7D
$GPRMC,151753.000,A,4028.4384,N,08353.4179,W,0.14,114.29,130620,,,D*72
$GPRMC,151754.000,A,4028.4384,N,08353.4179,W,0.13,170.93,130620,,,D*71
$GPRMC,151755.000,A,4028.4384,N,08353.4179,W,0.14,108.65,130620,,,D*71
$GPRMC,151756.000,A,4028.4384,N,08353.4179,W,0.10,152.46,130620,,,D*78
$GPRMC,151757.000,A,4028.4384,N,08353.4179,W,0.08,148.96,130620,,,D*76
$GPRMC,151758.000,A,4028.4384,N,08353.4180,W,0.04,247.74,130620,,,D*73
$GPRMC,151759.000,A,4028.4384,N,08353.4180,W,0.03,38.20,130620,,,D*4E
$GPRMC,151800.000,A,4028.4385,N,08353.4180,W,0.13,62.17,130620,,,D*46
$GPRMC,151801.000,A,4028.4385,N,08353.4180,W,0.16,68.72,130620,,,D*4B
$GPRMC,151802.000,A,4028.4385,N,08353.4180,W,0.13,55.92,130620,,,D*4D
$GPRMC,151803.000,A,4028.4386,N,08353.4180,W,0.21,87.87,130620,,,D*45
$GPRMC,151804.000,A,4028.4386,N,08353.4179,W,0.33,80.39,130620,,,D*45
$GPRMC,151805.000,A,4028.4386,N,08353.4178,W,0.30,101.29,130620,,,D*7F
$GPRMC,151806.000,A,4028.4386,N,08353.4177,W,0.41,75.88,130620,,,D*4C
$GPRMC,151807.000,A,4028.4386,N,08353.4176,W,0.43,72.84,130620,,,D*45
$GPRMC,151808.000,A,4028.4386,N,08353.4175,W,0.34,89.03,130620,,,D*42
$GPRMC,151809.000,A,4028.4387,N,08353.4174,W,0.29,90.74,130620,,,D*47
$GPRMC,151810.000,A,4028.4387,N,08353.4173,W,0.20,89.65,130620,,,D*49
$GPRMC,151811.000,A,4028.4387,N,08353.4173,W,0.19,115.69,130620,,,D*7A
$GPRMC,151812.000,A,4028.4387,N,08353.4173,W,0.22,101.13,130620,,,D*79
$GPRMC,151813.000,A,4028.4387,N,08353.4173,W,0.18,104.63,130620,,,D*73
$GPRMC,151814.000,A,4028.4387,N,08353.4172,W,0.23,110.86,130620,,,D*73
$GPRMC,151815.000,A,4028.4387,N,08353.4171,W,0.26,116.35,130620,,,D*7A
$GPRMC,151816.000,A,4028.4387,N,08353.4171,W,0.39,113.42,130620,,,D*72
$GPRMC,151817.000,A,4028.4386,N,08353.4170,W,0.36,113.04,130620,,,D*7E
$GPRMC,151818.000,A,4028.4386,N,08353.4169,W,0.32,133.58,130620,,,D*76
$GPRMC,151819.000,A,4028.4385,N,08353.4168,W,0.34,100.90,130620,,,D*77
$GPRMC,151820.000,A,4028.4385,N,08353.4167,W,0.36,92.44,130620,,,D*43
$GPRMC,151821.000,A,4028.4385,N,08353.4167,W,0.25,90.58,130620,,,D*4F
$GPRMC,151822.000,A,4028.4384,N,08353.4166,W,0.17,115.36,130620,,,D*79
$GPRMC,151823.000,A,4028.4385,N,08353.4166,W,0.20,84.81,130620,,,D*48
$GPRMC,151824.000,A,4028.4385,N,08353.4166,W,0.18,180.06,130620,,,D*7E
$GPRMC,151825.000,A,4028.4385,N,08353.4167,W,0.19,70.42,130620,,,D*41
$GPRMC,151826.000,A,4028.4385,N,08353.4165,W,0.18,138.88,130620,,,D*7A
$GPRMC,151827.000,A,4028.4386,N,08353.4165,W,0.24,53.33,130620,,,D*4B
$GPRMC,151828.000,A,4028.4386,N,08353.4163,W,0.25,72.83,130620,,,D*4B
$GPRMC,151829.000,A,4028.4386,N,08353.4163,W,0.17,139.72,130620,,,D*7B
$GPRMC,151830.000,A,4028.4386,N,08353.4162,W,0.17,158.41,130620,,,D*75
$GPRMC,151831.000,A,4028.4385,N,08353.4162,W,0.17,154.47,130620,,,D*7D
$GPRMC,151832.000,A,4028.4384,N,08353.4161,W,0.21,133.97,130620,,,D*75
$GPRMC,151833.000,A,4028.4383,N,08353.4161,W,0.19,119.93,130620,,,D*74
$GPRMC,151834.000,A,4028.4382,N,08353.4160,W,0.19,162.66,130620,,,D*75
$GPRMC,151835.000,A,4028.4382,N,08353.4160,W,0.13,65.35,130620,,,D*4E
$GPRMC,151836.000,A,4028.4382,N,08353.4159,W,0.14,69.23,130620,,,D*4B
$GPRMC,151837.000,A,4028.4382,N,08353.4158,W,0.14,77.37,130620,,,D*41
$GPRMC,151838.000,A,4028.4381,N,08353.4158,W,0.08,141.40,130620,,,D*74
$GPRMC,151839.000,A,4028.4381,N,08353.4158,W,0.09,145.83,130620,,,D*7F
$GPRMC,151836.000,A,4028.4380,N,08353.4158,W,0.19,152.07,130620,,,D*7A
$GPRMC,151837.000,A,4028.4379,N,08353.4158,W,0.16,168.35,130620,,,D*7A
$GPRMC,151838.000,A,4028.4379,N,08353.4157,W,0.16,106.59,130620,,,D*78
$GPRMC,151839.000,A,4028.4378,N,08353.4157,W,0.14,158.07,130620,,,D*7A
$GPRMC,151840.000,A,4028.4378,N,08353.4157,W,0.21,170.79,130620,,,D*71
$GPRMC,151841.000,A,4028.4377,N,08353.4157,W,0.14,132.50,130620,,,D*74
$GPRMC,151842.000,A,4028.4377,N,08353.4157,W,0.06,171.96,130620,,,D*79
$GPRMC,151843.000,A,4028.4377,N,08353.4157,W,0.05,245.64,130620,,,D*72
$GPRMC,151844.000,A,4028.4377,N,08353.4157,W,0.03,180.08,130620,,,D*73
$GPRMC,151845.000,A,4028.4377,N,08353.4157,W,0.09,184.32,130620,,,D*75
$GPRMC,151846.000,A,4028.4376,N,08353.4158,W,0.11,198.89,130620,,,D*7C
$GPRMC,151847.000,A,4028.4376,N,08353.4158,W,0.07,259.87,130620,,,D*7A
$GPRMC,151848.000,A,4028.4375,N,08353.4159,W,0.17,173.71,130620,,,D*74
$GPRMC,151849.000,A,4028.4375,N,08353.4159,W,0.09,229.98,130620,,,D*71
$GPRMC,151850.000,A,4028.4376,N,08353.4160,W,0.06,200.68,130620,,,D*7B
$GPRMC,151851.000,A,4028.4376,N,08353.4161,W,0.12,225.57,130620,,,D*75
$GPRMC,151852.000,A,4028.4377,N,08353.4162,W,0.07,232.28,130620,,,D*7E
$GPRMC,151853.000,A,4028.4377,N,08353.4163,W,0.12,177.03,130620,,,D*71
$GPRMC,151854.000,A,4028.4378,N,08353.4164,W,0.18,225.63,130620,,,D*76
$GPRMC,151855.000,A,4028.4378,N,08353.4164,W,0.12,224.95,130620,,,D*75
$GPRMC,151856.000,A,4028.4379,N,08353.4164,W,0.06,223.33,130620,,,D*79
$GPRMC,151857.000,A,4028.4379,N,08353.4163,W,0.07,337.60,130620,,,D*7C
$GPRMC,151858.000,A,4028.4380,N,08353.4163,W,0.06,175.55,130620,,,D*76
$GPRMC,151859.000,A,4028.4380,N,08353.4163,W,0.07,330.82,130620,,,D*7F
$GPRMC,151900.000,A,4028.4380,N,08353.4163,W,0.32,168.52,130620,,,D*76
$GPRMC,151901.000,A,4028.4380,N,08353.4163,W,0.13,238.59,130620,,,D*79
$GPRMC,151902.000,A,4028.4380,N,08353.4164,W,0.22,186.75,130620,,,D*77
$GPRMC,151903.000,A,4028.4380,N,08353.4164,W,0.12,191.82,130620,,,D*7B
$GPRMC,151904.000,A,4028.4380,N,08353.4165,W,0.31,207.23,130620,,,D*7B
$GPRMC,151905.000,A,4028.4379,N,08353.4165,W,0.11,172.25,130620,,,D*79
$GPRMC,151906.000,A,4028.4380,N,08353.4165,W,0.03,96.95,130620,,,D*4F
$GPRMC,151907.000,A,4028.4379,N,08353.4165,W,0.21,166.23,130620,,,D*7B
$GPRMC,151908.000,A,4028.4378,N,08353.4166,W,0.13,175.15,130620,,,D*70
$GPRMC,151909.000,A,4028.4378,N,08353.4166,W,0.17,174.82,130620,,,D*7A
$GPRMC,151910.000,A,4028.4378,N,08353.4167,W,0.19,200.23,130620,,,D*76
$GPRMC,151911.000,A,4028.4378,N,08353.4168,W,0.22,262.83,130620,,,D*7E
$GPRMC,151912.000,A,4028.4378,N,08353.4170,W,0.33,219.45,130620,,,D*72
$GPRMC,151913.000,A,4028.4378,N,08353.4171,W,0.12,209.45,130620,,,D*70
$GPRMC,151914.000,A,4028.4378,N,08353.4172,W,0.09,104.01,130620,,,D*70
$GPRMC,151915.000,A,4028.4378,N,08353.4173,W,0.05,138.55,130620,,,D*72
$GPRMC,151916.000,A,4028.4378,N,08353.4174,W,0.06,194.04,130620,,,D*77
$GPRMC,151917.000,A,4028.4377,N,08353.4174,W,0.14,156.60,130620,,,D*76
$GPRMC,151918.000,A,4028.4377,N,08353.4175,W,0.19,200.75,130620,,,D*71
$GPRMC,151919.000,A,4028.4377,N,08353.4176,W,0.12,53.38,130620,,,D*45
$GPRMC,151920.000,A,4028.4378,N,08353.4176,W,0.12,57.32,130620,,,D*4E
$GPRMC,151921.000,A,4028.4378,N,08353.4177,W,0.05,144.80,130620,,,D*72
$GPRMC,151922.000,A,4028.4378,N,08353.4178,W,0.06,159.78,130620,,,D*76
$GPRMC,151923.000,A,4028.4378,N,08353.4178,W,0.06,53.73,130620,,,D*47
$GPRMC,151924.000,A,4028.4379,N,08353.4178,W,0.08,136.40,130620,,,D*7D
$GPRMC,151925.000,A,4028.4379,N,08353.4178,W,0.08,162.18,130620,,,D*70
$GPRMC,151926.000,A,4028.4379,N,08353.4179,W,0.05,148.34,130620,,,D*79
$GPRMC,151927.000,A,4028.4379,N,08353.4179,W,0.05,158.72,130620,,,D*7B
$GPRMC,151928.000,A,4028.4379,N,08353.4179,W,0.05,152.51,130620,,,D*7F
$GPRMC,151929.000,A,4028.4379,N,08353.4180,W,0.10,152.21,130620,,,D*7B
$GPRMC,151930.000,A,4028.4379,N,08353.4180,W,0.01,108.27,130620,,,D*7A
$GPRMC,151931.000,A,4028.4379,N,08353.4180,W,0.01,38.34,130620,,,D*4B
$GPRMC,151932.000,A,4028.4379,N,08353.4181,W,0.09,175.81,130620,,,D*77
$GPRMC,151933.000,A,4028.4379,N,08353.4181,W,0.08,155.92,130620,,,D*77
$GPRMC,151934.000,A,4028.4379,N,08353.4181,W,0.08,160.97,130620,,,D*73
$GPRMC,151935.000,A,4028.4379,N,08353.4182,W,0.06,181.10,130620,,,D*7F
$GPRMC,151936.000,A,4028.4380,N,08353.4182,W,0.09,142.07,130620,,,D*7C
$GPRMC,151937.000,A,4028.4379,N,08353.4182,W,0.09,112.41,130620,,,D*7C
$GPRMC,151938.000,A,4028.4380,N,08353.4182,W,0.10,120.49,130620,,,D*74
$GPRMC,151939.000,A,4028.4379,N,08353.4182,W,0.11,137.20,130620,,,D*7B
$GPRMC,151940.000,A,4028.4379,N,08353.4182,W,0.10,150.49,130620,,,D*7A
$GPRMC,151941.000,A,4028.4379,N,08353.4182,W,0.16,147.11,130620,,,D*76
$GPRMC,151942.000,A,4028.4379,N,08353.4182,W,0.10,180.82,130620,,,D*72
$GPRMC,151943.000,A,4028.4379,N,08353.4183,W,0.12,132.68,130620,,,D*7D
$GPRMC,151944.000,A,4028.4379,N,08353.4183,W,0.14,145.43,130620,,,D*75
$GPRMC,151945.000,A,4028.4379,N,08353.4182,W,0.16,134.83,130620,,,D*7D
$GPRMC,151946.000,A,4028.4379,N,08353.4182,W,0.15,133.45,130620,,,D*70
$GPRMC,151947.000,A,4028.4379,N,08353.4182,W,0.15,130.09,130620,,,D*7A
$GPRMC,151948.000,A,4028.4379,N,08353.4181,W,0.23,116.63,130620,,,D*7B
$GPRMC,151949.000,A,4028.4379,N,08353.4181,W,0.23,129.78,130620,,,D*7C
$GPRMC,151950.000,A,4028.4379,N,08353.4181,W,0.23,121.51,130620,,,D*77
$GPRMC,151951.000,A,4028.4378,N,08353.4180,W,0.25,120.01,130620,,,D*74
$GPRMC,151952.000,A,4028.4378,N,08353.4179,W,0.24,120.13,130620,,,D*73
$GPRMC,151953.000,A,4028.4378,N,08353.4179,W,0.29,114.83,130620,,,D*71
$GPRMC,151954.000,A,4028.4378,N,08353.4178,W,0.24,104.05,130620,,,D*75
$GPRMC,151955.000,A,4028.4378,N,08353.4177,W,0.24,99.36,130620,,,D*4E
$GPRMC,151956.000,A,4028.4378,N,08353.4177,W,0.25,93.15,130620,,,D*47
$GPRMC,151957.000,A,4028.4378,N,08353.4176,W,0.23,92.41,130620,,,D*41
$GPRMC,151958.000,A,4028.4378,N,08353.4175,W,0.26,91.05,130620,,,D*4B
$GPRMC,151959.000,A,4028.4378,N,08353.4175,W,0.23,82.60,130620,,,D*4E
$GPRMC,152000.000,A,4028.4378,N,08353.4174,W,0.23,99.20,130620,,,D*47
$GPRMC,152001.000,A,4028.4379,N,08353.4174,W,0.18,81.70,130620,,,D*43
$GPRMC,152002.000,A,4028.4379,N,08353.4174,W,0.17,105.19,130620,,,D*7D
$GPRMC,152003.000,A,4028.4379,N,08353.4173,W,0.17,87.54,130620,,,D*49
$GPRMC,152004.000,A,4028.4379,N,08353.4173,W,0.16,82.12,130620,,,D*48
$GPRMC,152005.000,A,4028.4379,N,08353.4173,W,0.19,104.29,130620,,,D*71
$GPRMC,152006.000,A,4028.4379,N,08353.4172,W,0.15,89.79,130620,,,D*4E
$GPRMC,152007.000,A,4028.4379,N,08353.4172,W,0.17,101.30,130620,,,D*71
$GPRMC,152008.000,A,4028.4379,N,08353.4172,W,0.17,93.55,130620,,,D*47
$GPRMC,152009.000,A,4028.4379,N,08353.4172,W,0.15,91.64,130620,,,D*44
$GPRMC,152010.000,A,4028.4380,N,08353.4171,W,0.14,104.67,130620,,,D*76
$GPRMC,152011.000,A,4028.4380,N,08353.4172,W,0.10,59.54,130620,,,D*49
$GPRMC,152012.000,A,4028.4381,N,08353.4172,W,0.10,94.83,130620,,,D*40
$GPRMC,152013.000,A,4028.4381,N,08353.4172,W,0.05,108.12,130620,,,D*79
$GPRMC,152014.000,A,4028.4381,N,08353.4172,W,0.09,123.94,130620,,,D*75
$GPRMC,152015.000,A,4028.4381,N,08353.4172,W,0.11,133.95,130620,,,D*7D
$GPRMC,152016.000,A,4028.4382,N,08353.4173,W,0.13,136.92,130620,,,D*7C
$GPRMC,152017.000,A,4028.4381,N,08353.4173,W,0.18,133.69,130620,,,D*74
$GPRMC,152018.000,A,4028.4381,N,08353.4173,W,0.14,127.38,130620,,,D*76
$GPRMC,152019.000,A,4028.4381,N,08353.4173,W,0.14,111.85,130620,,,D*74
$GPRMC,152020.000,A,4028.4382,N,08353.4173,W,0.15,121.51,130620,,,D*76
$GPRMC,152021.000,A,4028.4382,N,08353.4173,W,0.12,118.87,130620,,,D*71
$GPRMC,152022.000,A,4028.4382,N,08353.4173,W,0.13,113.64,130620,,,D*75
$GPRMC,152023.000,A,4028.4382,N,08353.4173,W,0.07,153.65,130620,,,D*74
$GPRMC,152024.000,A,4028.4382,N,08353.4174,W,0.12,127.97,130620,,,D*7E
$GPRMC,152025.000,A,4028.4382,N,08353.4174,W,0.12,136.27,130620,,,D*74
$GPRMC,152026.000,A,4028.4382,N,08353.4174,W,0.16,154.12,130620,,,D*71
$GPRMC,152027.000,A,4028.4382,N,08353.4175,W,0.08,143.55,130620,,,D*7B
$GPRMC,152028.000,A,4028.4382,N,08353.4175,W,0.10,139.51,130620,,,D*74
$GPRMC,152029.000,A,4028.4382,N,08353.4175,W,0.14,150.39,130620,,,D*70
$GPRMC,152030.000,A,4028.4382,N,08353.4176,W,0.08,101.98,130620,,,D*79
$GPRMC,152031.000,A,4028.4382,N,08353.4176,W,0.05,178.27,130620,,,D*7F
$GPRMC,152032.000,A,4028.4382,N,08353.4177,W,0.05,101.83,130620,,,D*7D
$GPRMC,152033.000,A,4028.4383,N,08353.4177,W,0.01,83.46,130620,,,D*4B
$GPRMC,152034.000,A,4028.4383,N,08353.4178,W,0.05,136.56,130620,,,D*79
$GPRMC,152035.000,A,4028.4383,N,08353.4178,W,0.04,355.44,130620,,,D*7D
$GPRMC,152036.000,A,4028.4383,N,08353.4179,W,0.05,201.24,130620,,,D*78
$GPRMC,152037.000,A,4028.4383,N,08353.4179,W,0.07,120.88,130620,,,D*7D
$GPRMC,152038.000,A,4028.4384,N,08353.4179,W,0.09,141.19,130620,,,D*74
$GPRMC,152039.000,A,4028.4384,N,08353.4180,W,0.08,122.18,130620,,,D*76
$GPRMC,152040.000,A,4028.4384,N,08353.4180,W,0.12,128.21,130620,,,D*73
$GPRMC,152041.000,A,4028.4384,N,08353.4180,W,0.17,121.87,130620,,,D*72
$GPRMC,152042.000,A,4028.4383,N,08353.4179,W,0.20,119.23,130620,,,D*71
$GPRMC,152043.000,A,4028.4383,N,08353.4179,W,0.17,134.23,130620,,,D*7B
$GPRMC,152044.000,A,4028.4383,N,08353.4179,W,0.16,125.41,130620,,,D*79
$GPRMC,152045.000,A,4028.4383,N,08353.4179,W,0.14,126.06,130620,,,D*7A
$GPRMC,152046.000,A,4028.4382,N,08353.4179,W,0.15,129.72,130620,,,D*75
$GPRMC,152047.000,A,4028.4382,N,08353.4179,W,0.12,113.08,130620,,,D*77
$GPRMC,152048.000,A,4028.4383,N,08353.4179,W,0.11,85.99,130620,,,D*4C
$GPRMC,152049.000,A,4028.4383,N,08353.4180,W,0.12,82.93,130620,,,D*45
$GPRMC,152050.000,A,4028.4383,N,08353.4180,W,0.11,101.18,130620,,,D*77
$GPRMC,152051.000,A,4028.4383,N,08353.4180,W,0.13,96.56,130620,,,D*41
$GPRMC,152052.000,A,4028.4384,N,08353.4180,W,0.12,97.77,130620,,,D*46
$GPRMC,152053.000,A,4028.4384,N,08353.4180,W,0.16,98.81,130620,,,D*45
$GPRMC,152054.000,A,4028.4384,N,08353.4180,W,0.17,127.14,130620,,,D*7A
$GPRMC,152055.000,A,4028.4384,N,08353.4180,W,0.20,146.43,130620,,,D*7A
$GPRMC,152056.000,A,4028.4384,N,08353.4181,W,0.14,143.91,130620,,,D*75
$GPRMC,152057.000,A,4028.4384,N,08353.4182,W,0.13,139.18,130620,,,D*7C
$GPRMC,152058.000,A,4028.4384,N,08353.4183,W,0.19,151.02,130620,,,D*7D
$GPRMC,152059.000,A,4028.4384,N,08353.4184,W,0.11,141.53,130620,,,D*76
$GPRMC,152100.000,A,4028.4384,N,08353.4185,W,0.11,116.61,130620,,,D*79
$GPRMC,152101.000,A,4028.4385,N,08353.4186,W,0.10,96.91,130620,,,D*4D
$GPRMC,152102.000,A,4028.4385,N,08353.4185,W,0.15,109.91,130620,,,D*7F
$GPRMC,152103.000,A,4028.4385,N,08353.4185,W,0.16,102.72,130620,,,D*7B
$GPRMC,152104.000,A,4028.4385,N,08353.4184,W,0.17,106.21,130620,,,D*7E
$GPRMC,152105.000,A,4028.4385,N,08353.4184,W,0.20,110.49,130620,,,D*72
$GPRMC,152106.000,A,4028.4385,N,08353.4183,W,0.21,123.83,130620,,,D*71
$GPRMC,152107.000,A,4028.4384,N,08353.4183,W,0.18,131.90,130620,,,D*7A
$GPRMC,152108.000,A,4028.4384,N,08353.4183,W,0.20,131.08,130620,,,D*7F
$GPRMC,152109.000,A,4028.4383,N,08353.4182,W,0.17,135.56,130620,,,D*73
$GPRMC,152110.000,A,4028.4383,N,08353.4182,W,0.20,129.25,130620,,,D*76
$GPRMC,152111.000,A,4028.4383,N,08353.4182,W,0.12,135.77,130620,,,D*7C
$GPRMC,152112.000,A,4028.4383,N,08353.4182,W,0.17,102.43,130620,,,D*79
$GPRMC,152113.000,A,4028.4383,N,08353.4182,W,0.12,96.26,130620,,,D*42
$GPRMC,152114.000,A,4028.4384,N,08353.4181,W,0.17,109.02,130620,,,D*75
$GPRMC,152115.000,A,4028.4384,N,08353.4181,W,0.14,104.83,130620,,,D*73
$GPRMC,152116.000,A,4028.4384,N,08353.4181,W,0.14,115.41,130620,,,D*7E
$GPRMC,152117.000,A,4028.4384,N,08353.4181,W,0.17,116.81,130620,,,D*73
$GPRMC,152118.000,A,4028.4384,N,08353.4181,W,0.06,168.27,130620,,,D*79
$GPRMC,152119.000,A,4028.4383,N,08353.4181,W,0.03,183.55,130620,,,D*7A
$GPRMC,152120.000,A,4028.4383,N,08353.4181,W,0.03,178.91,130620,,,D*7C
$GPRMC,152121.000,A,4028.4383,N,08353.4181,W,0.06,162.41,130620,,,D*7E
$GPRMC,152122.000,A,4028.4382,N,08353.4181,W,0.24,138.12,130620,,,D*75
$GPRMC,152123.000,A,4028.4382,N,08353.4181,W,0.03,136.28,130620,,,D*76
$GPRMC,152124.000,A,4028.4381,N,08353.4181,W,0.21,125.69,130620,,,D*75
$GPRMC,152125.000,A,4028.4381,N,08353.4181,W,0.08,52.07,130620,,,D*46
$GPRMC,152126.000,A,4028.4381,N,08353.4181,W,0.10,83.93,130620,,,D*4D
$GPRMC,152127.000,A,4028.4381,N,08353.4181,W,0.09,82.82,130620,,,D*45
$GPRMC,152128.000,A,4028.4381,N,08353.4180,W,0.11,85.97,130620,,,D*41
$GPRMC,152129.000,A,4028.4381,N,08353.4180,W,0.14,87.00,130620,,,D*49
$GPRMC,152130.000,A,4028.4381,N,08353.4180,W,0.09,110.18,130620,,,D*7B
$GPRMC,152131.000,A,4028.4380,N,08353.4180,W,0.10,113.40,130620,,,D*7D
$GPRMC,152132.000,A,4028.4380,N,08353.4179,W,0.11,110.88,130620,,,D*7E
$GPRMC,152133.000,A,4028.4380,N,08353.4179,W,0.10,114.92,130620,,,D*71
$GPRMC,152134.000,A,4028.4380,N,08353.4179,W,0.12,124.70,130620,,,D*7B
$GPRMC,152135.000,A,4028.4379,N,08353.4179,W,0.10,92.68,130620,,,D*4B
$GPRMC,152136.000,A,4028.4379,N,08353.4179,W,0.16,102.70,130620,,,D*7F
$GPRMC,152137.000,A,4028.4379,N,08353.4178,W,0.14,90.99,130620,,,D*40
$GPRMC,152138.000,A,4028.4379,N,08353.4178,W,0.16,102.42,130620,,,D*71
$GPRMC,152139.000,A,4028.4379,N,08353.4178,W,0.16,97.97,130620,,,D*45
$GPRMC,152140.000,A,4028.4379,N,08353.4177,W,0.17,101.55,130620,,,D*75
$GPRMC,152141.000,A,4028.4378,N,08353.4177,W,0.27,116.30,130620,,,D*73
$GPRMC,152142.000,A,4028.4378,N,08353.4176,W,0.31,133.21,130620,,,D*71
$GPRMC,152143.000,A,4028.4377,N,08353.4176,W,0.19,128.91,130620,,,D*74
$GPRMC,152144.000,A,4028.4377,N,08353.4175,W,0.14,108.83,130620,,,D*7C
$GPRMC,152145.000,A,4028.4377,N,08353.4175,W,0.13,124.12,130620,,,D*7C
$GPRMC,152146.000,A,4028.4376,N,08353.4175,W,0.15,116.79,130620,,,D*74
$GPRMC,152147.000,A,4028.4376,N,08353.4175,W,0.08,110.21,130620,,,D*72
$GPRMC,152148.000,A,4028.4376,N,08353.4175,W,0.11,93.29,130620,,,D*47
$GPRMC,152149.000,A,4028.4376,N,08353.4174,W,0.11,81.22,130620,,,D*4F
$GPRMC,152150.000,A,4028.4376,N,08353.4174,W,0.08,85.14,130620,,,D*4E
$GPRMC,152151.000,A,4028.4376,N,08353.4174,W,0.05,70.70,130620,,,D*4A
$GPRMC,152152.000,A,4028.4376,N,08353.4174,W,0.06,69.03,130620,,,D*46
$GPRMC,152153.000,A,4028.4376,N,08353.4174,W,0.04,115.39,130620,,,D*76
$GPRMC,152154.000,A,4028.4376,N,08353.4174,W,0.04,173.64,130620,,,D*79
$GPRMC,152155.000,A,4028.4376,N,08353.4174,W,0.12,140.99,130620,,,D*7D
$GPRMC,152156.000,A,4028.4377,N,08353.4175,W,0.11,157.03,130620,,,D*78
$GPRMC,152157.000,A,4028.4377,N,08353.4175,W,0.08,110.31,130620,,,D*73
$GPRMC,152158.000,A,4028.4378,N,08353.4176,W,0.11,116.81,130620,,,D*75
$GPRMC,152159.000,A,4028.4378,N,08353.4176,W,0.13,100.00,130620,,,D*78
$GPRMC,152200.000,A,4028.4379,N,08353.4176,W,0.18,70.25,130620,,,D*4C
$GPRMC,152201.000,A,4028.4380,N,08353.4176,W,0.15,60.34,130620,,,D*47
$GPRMC,152202.000,A,4028.4381,N,08353.4176,W,0.21,74.86,130620,,,D*4E
$GPRMC,152203.000,A,4028.4381,N,08353.4175,W,0.20,82.54,130620,,,D*4B
$GPRMC,152204.000,A,4028.4382,N,08353.4175,W,0.22,81.87,130620,,,D*40
$GPRMC,152205.000,A,4028.4383,N,08353.4175,W,0.26,90.06,130620,,,D*4D
$GPRMC,152206.000,A,4028.4383,N,08353.4174,W,0.24,110.65,130620,,,D*71
$GPRMC,152207.000,A,4028.4383,N,08353.4174,W,0.24,107.29,130620,,,D*7E
$GPRMC,152208.000,A,4028.4382,N,08353.4173,W,0.25,102.54,130620,,,D*79
$GPRMC,152209.000,A,4028.4382,N,08353.4173,W,0.30,117.28,130620,,,D*73
$GPRMC,152210.000,A,4028.4382,N,08353.4173,W,0.25,98.42,130620,,,D*45
$GPRMC,152211.000,A,4028.4382,N,08353.4172,W,0.21,88.99,130620,,,D*46
$GPRMC,152212.000,A,4028.4382,N,08353.4171,W,0.23,78.43,130620,,,D*4C
$GPRMC,152213.000,A,4028.4382,N,08353.4171,W,0.22,59.15,130620,,,D*4C
$GPRMC,152214.000,A,4028.4382,N,08353.4170,W,0.27,98.56,130620,,,D*45
$GPRMC,152215.000,A,4028.4382,N,08353.4170,W,0.23,91.69,130620,,,D*45
$GPRMC,152216.000,A,4028.4383,N,08353.4170,W,0.16,68.59,130620,,,D*44
$GPRMC,152217.000,A,4028.4384,N,08353.4170,W,0.18,85.63,130620,,,D*46
$GPRMC,152218.000,A,4028.4384,N,08353.4170,W,0.13,112.59,130620,,,D*74
$GPRMC,152219.000,A,4028.4384,N,08353.4170,W,0.27,126.36,130620,,,D*7C
$GPRMC,152220.000,A,4028.4384,N,08353.4170,W,0.16,115.31,130620,,,D*73
$GPRMC,152221.000,A,4028.4384,N,08353.4170,W,0.12,144.02,130620,,,D*72
$GPRMC,152222.000,A,4028.4384,N,08353.4170,W,0.10,125.64,130620,,,D*74
$GPRMC,152223.000,A,4028.4385,N,08353.4170,W,0.06,163.59,130620,,,D*7F
$GPRMC,152224.000,A,4028.4384,N,08353.4171,W,0.18,148.24,130620,,,D*74
$GPRMC,152225.000,A,4028.4384,N,08353.4171,W,0.14,156.33,130620,,,D*70
$GPRMC,152226.000,A,4028.4384,N,08353.4171,W,0.15,171.09,130620,,,D*7E
$GPRMC,152227.000,A,4028.4384,N,08353.4172,W,0.20,152.06,130620,,,D*74
$GPRMC,152228.000,A,4028.4384,N,08353.4172,W,0.11,176.55,130620,,,D*79
$GPRMC,152229.000,A,4028.4384,N,08353.4172,W,0.21,169.61,130620,,,D*72
$GPRMC,152230.000,A,4028.4383,N,08353.4173,W,0.11,201.90,130620,,,D*7C
$GPRMC,152231.000,A,4028.4383,N,08353.4173,W,0.01,146.77,130620,,,D*75
$GPRMC,152232.000,A,4028.4383,N,08353.4173,W,0.09,159.55,130620,,,D*70
$GPRMC,152233.000,A,4028.4383,N,08353.4174,W,0.06,174.58,130620,,,D*7B
$GPRMC,152234.000,A,4028.4383,N,08353.4174,W,0.09,172.61,130620,,,D*7F
$GPRMC,152235.000,A,4028.4383,N,08353.4175,W,0.03,188.94,130620,,,D*7A
$GPRMC,152236.000,A,4028.4383,N,08353.4175,W,0.14,90.64,130620,,,D*48
$GPRMC,152237.000,A,4028.4383,N,08353.4175,W,0.06,96.97,130620,,,D*40
$GPRMC,152238.000,A,4028.4383,N,08353.4176,W,0.12,139.44,130620,,,D*73
$GPRMC,152239.000,A,4028.4384,N,08353.4176,W,0.04,22.78,130620,,,D*46
$GPRMC,152240.000,A,4028.4384,N,08353.4176,W,0.03,86.62,130620,,,D*4A
$GPRMC,152241.000,A,4028.4384,N,08353.4177,W,0.05,122.83,130620,,,D*7C
$GPRMC,152242.000,A,4028.4384,N,08353.4177,W,0.11,158.58,130620,,,D*71
$GPRMC,152243.000,A,4028.4384,N,08353.4177,W,0.26,140.77,130620,,,D*70
$GPRMC,152244.000,A,4028.4383,N,08353.4177,W,0.20,139.97,130620,,,D*76
$GPRMC,152245.000,A,4028.4383,N,08353.4177,W,0.21,139.93,130620,,,D*72
$GPRMC,152246.000,A,4028.4383,N,08353.4177,W,0.25,136.68,130620,,,D*7E
$GPRMC,152247.000,A,4028.4382,N,08353.4177,W,0.26,135.07,130620,,,D*77
$GPRMC,152248.000,A,4028.4382,N,08353.4177,W,0.19,106.13,130620,,,D*71
$GPRMC,152249.000,A,4028.4382,N,08353.4177,W,0.13,109.43,130620,,,D*70
$GPRMC,152250.000,A,4028.4383,N,08353.4177,W,0.17,102.64,130620,,,D*73
$GPRMC,152251.000,A,4028.4383,N,08353.4177,W,0.14,111.32,130620,,,D*70
$GPRMC,152252.000,A,4028.4383,N,08353.4177,W,0.13,105.49,130620,,,D*7D
$GPRMC,152253.000,A,4028.4383,N,08353.4177,W,0.11,94.17,130620,,,D*4C
$GPRMC,152254.000,A,4028.4383,N,08353.4177,W,0.18,126.26,130620,,,D*78
$GPRMC,152255.000,A,4028.4383,N,08353.4177,W,0.23,126.38,130620,,,D*7E
$GPRMC,152256.000,A,4028.4383,N,08353.4177,W,0.21,117.54,130620,,,D*77
$GPRMC,152257.000,A,4028.4383,N,08353.4176,W,0.19,118.78,130620,,,D*7D
$GPRMC,152258.000,A,4028.4383,N,08353.4176,W,0.16,119.45,130620,,,D*72
$GPRMC,152259.000,A,4028.4383,N,08353.4176,W,0.18,118.34,130620,,,D*7A
$GPRMC,152300.000,A,4028.4383,N,08353.4176,W,0.15,82.96,130620,,,D*40
$GPRMC,152301.000,A,4028.4383,N,08353.4176,W,0.13,78.93,130620,,,D*47
$GPRMC,152302.000,A,4028.4383,N,08353.4176,W,0.13,77.24,130620,,,D*47
$GPRMC,152303.000,A,4028.4383,N,08353.4176,W,0.13,84.65,130620,,,D*4F
$GPRMC,152304.000,A,4028.4384,N,08353.4176,W,0.10,74.15,130620,,,D*44
$GPRMC,152305.000,A,4028.4384,N,08353.4176,W,0.10,87.05,130620,,,D*48
$GPRMC,152306.000,A,4028.4384,N,08353.4176,W,0.13,125.96,130620,,,D*7B
$GPRMC,152307.000,A,4028.4384,N,08353.4176,W,0.11,138.86,130620,,,D*75
$GPRMC,152308.000,A,4028.4384,N,08353.4176,W,0.09,148.48,130620,,,D*76
$GPRMC,152309.000,A,4028.4383,N,08353.4176,W,0.18,138.99,130620,,,D*7B
$GPRMC,152310.000,A,4028.4383,N,08353.4176,W,0.13,119.45,130620,,,D*7A
$GPRMC,152311.000,A,4028.4383,N,08353.4176,W,0.15,149.48,130620,,,D*75
$GPRMC,152312.000,A,4028.4383,N,08353.4177,W,0.04,168.22,130620,,,D*78
$GPRMC,152313.000,A,4028.4383,N,08353.4177,W,0.14,88.43,130620,,,D*40
$GPRMC,152314.000,A,4028.4384,N,08353.4177,W,0.12,41.86,130620,,,D*4A
$GPRMC,152315.000,A,4028.4384,N,08353.4177,W,0.06,26.51,130620,,,D*45
$GPRMC,152316.000,A,4028.4385,N,08353.4177,W,0.05,44.94,130620,,,D*49
$GPRMC,152317.000,A,4028.4385,N,08353.4177,W,0.11,121.37,130620,,,D*76
$GPRMC,152318.000,A,4028.4385,N,08353.4177,W,0.09,166.63,130620,,,D*72
$GPRMC,152319.000,A,4028.4385,N,08353.4178,W,0.11,152.80,130620,,,D*7F
$GPRMC,152320.000,A,4028.4384,N,08353.4178,W,0.15,148.76,130620,,,D*72
$GPRMC,152321.000,A,4028.4384,N,08353.4178,W,0.16,140.23,130620,,,D*78
$GPRMC,152322.000,A,4028.4384,N,08353.4178,W,0.18,134.47,130620,,,D*74
$GPRMC,152323.000,A,4028.4383,N,08353.4178,W,0.17,126.63,130620,,,D*78
$GPRMC,152324.000,A,4028.4383,N,08353.4178,W,0.19,133.12,130620,,,D*73
$GPRMC,152325.000,A,4028.4383,N,08353.4178,W,0.25,131.70,130620,,,D*7B
$GPRMC,152326.000,A,4028.4383,N,08353.4177,W,0.18,128.23,130620,,,D*77
$GPRMC,152327.000,A,4028.4382,N,08353.4177,W,0.25,132.79,130620,,,D*7D
$GPRMC,152328.000,A,4028.4382,N,08353.4177,W,0.27,116.61,130620,,,D*7F
$GPRMC,152329.000,A,4028.4381,N,08353.4176,W,0.26,122.30,130620,,,D*7E
$GPRMC,152330.000,A,4028.4381,N,08353.4176,W,0.20,124.92,130620,,,D*7E
$GPRMC,152331.000,A,4028.4381,N,08353.4176,W,0.23,132.63,130620,,,D*75
$GPRMC,152332.000,A,4028.4381,N,08353.4176,W,0.21,132.16,130620,,,D*76
$GPRMC,152333.000,A,4028.4381,N,08353.4175,W,0.22,125.10,130620,,,D*77
$GPRMC,152334.000,A,4028.4381,N,08353.4175,W,0.24,123.41,130620,,,D*74
$GPRMC,152335.000,A,4028.4380,N,08353.4175,W,0.14,115.16,130620,,,D*70
$GPRMC,152336.000,A,4028.4381,N,08353.4175,W,0.14,102.02,130620,,,D*71
$GPRMC,152337.000,A,4028.4381,N,08353.4175,W,0.12,91.31,130620,,,D*4D
$GPRMC,152338.000,A,4028.4381,N,08353.4175,W,0.11,71.77,130620,,,D*4D
$GPRMC,152339.000,A,4028.4381,N,08353.4175,W,0.16,102.06,130620,,,D*78
$GPRMC,152340.000,A,4028.4381,N,08353.4174,W,0.12,78.57,130620,,,D*4B
$GPRMC,152341.000,A,4028.4382,N,08353.4174,W,0.09,63.62,130620,,,D*4F
$GPRMC,152342.000,A,4028.4382,N,08353.4174,W,0.15,126.05,130620,,,D*70
$GPRMC,152343.000,A,4028.4382,N,08353.4174,W,0.12,129.72,130620,,,D*79
$GPRMC,152344.000,A,4028.4381,N,08353.4175,W,0.11,126.59,130620,,,D*79
$GPRMC,152345.000,A,4028.4381,N,08353.4175,W,0.14,129.63,130620,,,D*7B
$GPRMC,152346.000,A,4028.4381,N,08353.4175,W,0.12,122.06,130620,,,D*76
$GPRMC,152347.000,A,4028.4381,N,08353.4175,W,0.14,112.95,130620,,,D*78
$GPRMC,152348.000,A,4028.4381,N,08353.4175,W,0.14,43.49,130620,,,D*43
$GPRMC,152349.000,A,4028.4382,N,08353.4175,W,0.20,79.99,130620,,,D*42
$GPRMC,152350.000,A,4028.4382,N,08353.4175,W,0.05,24.50,130620,,,D*40
$GPRMC,152351.000,A,4028.4383,N,08353.4175,W,0.09,25.97,130620,,,D*46
$GPRMC,152352.000,A,4028.4383,N,08353.4175,W,0.12,57.64,130620,,,D*46
$GPRMC,152353.000,A,4028.4383,N,08353.4175,W,0.08,55.64,130620,,,D*4E
$GPRMC,152354.000,A,4028.4383,N,08353.4175,W,0.13,133.00,130620,,,D*70
$GPRMC,152355.000,A,4028.4383,N,08353.4176,W,0.18,143.02,130620,,,D*7C
$GPRMC,152356.000,A,4028.4382,N,08353.4176,W,0.18,151.26,130620,,,D*7B
$GPRMC,152357.000,A,4028.4382,N,08353.4176,W,0.13,169.63,130620,,,D*7B
$GPRMC,152358.000,A,4028.4381,N,08353.4177,W,0.13,150.49,130620,,,D*74
$GPRMC,152359.000,A,4028.4381,N,08353.4177,W,0.10,156.85,130620,,,D*70
$GPRMC,152400.000,A,4028.4381,N,08353.4177,W,0.05,92.70,130620,,,D*4C
$GPRMC,152401.000,A,4028.4381,N,08353.4178,W,0.07,78.90,130620,,,D*4A
$GPRMC,152402.000,A,4028.4382,N,08353.4178,W,0.08,108.17,130620,,,D*7C
$GPRMC,152403.000,A,4028.4381,N,08353.4178,W,0.17,127.06,130620,,,D*7D
$GPRMC,152404.000,A,4028.4381,N,08353.4178,W,0.07,136.66,130620,,,D*7D
$GPRMC,152405.000,A,4028.4381,N,08353.4178,W,0.17,129.71,130620,,,D*75
$GPRMC,152406.000,A,4028.4381,N,08353.4178,W,0.25,142.24,130620,,,D*7A
$GPRMC,152407.000,A,4028.4381,N,08353.4178,W,0.20,157.20,130620,,,D*7E
$GPRMC,152408.000,A,4028.4380,N,08353.4178,W,0.15,153.93,130620,,,D*7A
$GPRMC,152409.000,A,4028.4380,N,08353.4179,W,0.16,156.36,130620,,,D*73
$GPRMC,152410.000,A,4028.4380,N,08353.4179,W,0.24,138.12,130620,,,D*74
$GPRMC,152411.000,A,4028.4380,N,08353.4178,W,0.15,150.11,130620,,,D*7B
$GPRMC,152412.000,A,4028.4380,N,08353.4178,W,0.08,94.61,130620,,,D*4A
$GPRMC,152413.000,A,4028.4380,N,08353.4178,W,0.18,105.86,130620,,,D*7A
$GPRMC,152414.000,A,4028.4380,N,08353.4178,W,0.17,112.58,130620,,,D*77
$GPRMC,152415.000,A,4028.4380,N,08353.4178,W,0.14,98.67,130620,,,D*4A
$GPRMC,152416.000,A,4028.4380,N,08353.4178,W,0.16,115.86,130620,,,D*70
$GPRMC,152417.000,A,4028.4380,N,08353.4177,W,0.20,111.40,130620,,,D*75
$GPRMC,152418.000,A,4028.4380,N,08353.4177,W,0.24,129.21,130620,,,D*72
$GPRMC,152419.000,A,4028.4380,N,08353.4177,W,0.21,125.79,130620,,,D*77
$GPRMC,152420.000,A,4028.4380,N,08353.4177,W,0.19,110.36,130620,,,D*7B
$GPRMC,152421.000,A,4028.4379,N,08353.4176,W,0.18,113.08,130620,,,D*72
$GPRMC,152422.000,A,4028.4379,N,08353.4176,W,0.15,103.73,130620,,,D*71
$GPRMC,152423.000,A,4028.4379,N,08353.4176,W,0.16,104.62,130620,,,D*74
$GPRMC,152424.000,A,4028.4380,N,08353.4176,W,0.16,87.30,130620,,,D*48
$GPRMC,152425.000,A,4028.4380,N,08353.4176,W,0.21,92.07,130620,,,D*4D
$GPRMC,152426.000,A,4028.4380,N,08353.4175,W,0.21,91.59,130620,,,D*45
$GPRMC,152427.000,A,4028.4380,N,08353.4175,W,0.19,88.74,130620,,,D*48
$GPRMC,152428.000,A,4028.4381,N,08353.4175,W,0.11,22.16,130620,,,D*4A
$GPRMC,152429.000,A,4028.4381,N,08353.4175,W,0.15,12.27,130620,,,D*4E
$GPRMC,152430.000,A,4028.4382,N,08353.4175,W,0.05,44.84,130620,,,D*4E
$GPRMC,152431.000,A,4028.4382,N,08353.4175,W,0.09,78.69,130620,,,D*4F
$GPRMC,152432.000,A,4028.4382,N,08353.4175,W,0.14,110.11,130620,,,D*70
$GPRMC,152433.000,A,4028.4382,N,08353.4175,W,0.08,99.53,130620,,,D*4A
$GPRMC,152434.000,A,4028.4382,N,08353.4175,W,0.08,90.72,130620,,,D*47
$GPRMC,152435.000,A,4028.4382,N,08353.4175,W,0.12,109.03,130620,,,D*7A
$GPRMC,152436.000,A,4028.4382,N,08353.4175,W,0.17,87.90,130620,,,D*41
$GPRMC,152437.000,A,4028.4383,N,08353.4175,W,0.14,76.86,130620,,,D*4B
$GPRMC,152438.000,A,4028.4383,N,08353.4175,W,0.13,122.57,130620,,,D*7F
$GPRMC,152439.000,A,4028.4383,N,08353.4175,W,0.15,119.98,130620,,,D*73
$GPRMC,152440.000,A,4028.4383,N,08353.4175,W,0.13,113.06,130620,,,D*76
$GPRMC,152441.000,A,4028.4383,N,08353.4175,W,0.02,126.45,130620,,,D*76
$GPRMC,152442.000,A,4028.4383,N,08353.4175,W,0.05,15.18,130620,,,D*4B
$GPRMC,152443.000,A,4028.4383,N,08353.4175,W,0.12,104.51,130620,,,D*70
$GPRMC,152444.000,A,4028.4383,N,08353.4175,W,0.09,114.06,130620,,,D*7E
$GPRMC,152445.000,A,4028.4384,N,08353.4175,W,0.11,91.82,130620,,,D*41
$GPRMC,152446.000,A,4028.4384,N,08353.4175,W,0.12,99.91,130620,,,D*4B
$GPRMC,152447.000,A,4028.4384,N,08353.4175,W,0.15,120.70,130620,,,D*71
$GPRMC,152448.000,A,4028.4383,N,08353.4175,W,0.24,139.77,130620,,,D*74
$GPRMC,152449.000,A,4028.4383,N,08353.4175,W,0.23,138.51,130620,,,D*77
$GPRMC,152450.000,A,4028.4383,N,08353.4175,W,0.24,143.24,130620,,,D*76
$GPRMC,152451.000,A,4028.4382,N,08353.4175,W,0.23,146.59,130620,,,D*7E
$GPRMC,152452.000,A,4028.4382,N,08353.4174,W,0.27,145.83,130620,,,D*7C
$GPRMC,152453.000,A,4028.4381,N,08353.4174,W,0.24,136.93,130620,,,D*78
$GPRMC,152454.000,A,4028.4381,N,08353.4174,W,0.33,124.61,130620,,,D*77
$GPRMC,152455.000,A,4028.4380,N,08353.4174,W,0.31,144.92,130620,,,D*7F
$GPRMC,152456.000,A,4028.4380,N,08353.4174,W,0.21,132.47,130620,,,D*74
$GPRMC,152457.000,A,4028.4380,N,08353.4173,W,0.26,135.38,130620,,,D*7A
$GPRMC,152458.000,A,4028.4379,N,08353.4173,W,0.29,119.15,130620,,,D*7D
$GPRMC,152459.000,A,4028.4379,N,08353.4172,W,0.21,108.65,130620,,,D*72
$GPRMC,152500.000,A,4028.4379,N,08353.4172,W,0.19,116.13,130620,,,D*7A
$GPRMC,152501.000,A,4028.4379,N,08353.4172,W,0.19,92.70,130620,,,D*43
$GPRMC,152502.000,A,4028.4379,N,08353.4172,W,0.24,108.54,130620,,,D*7A
$GPRMC,152503.000,A,4028.4380,N,08353.4171,W,0.17,82.93,130620,,,D*46
$GPRMC,152504.000,A,4028.4380,N,08353.4171,W,0.13,85.76,130620,,,D*49
$GPRMC,152505.000,A,4028.4380,N,08353.4171,W,0.14,86.99,130620,,,D*4D
$GPRMC,152506.000,A,4028.4380,N,08353.4171,W,0.15,86.39,130620,,,D*45
$GPRMC,152507.000,A,4028.4380,N,08353.4171,W,0.10,80.81,130620,,,D*44
$GPRMC,152508.000,A,4028.4381,N,08353.4171,W,0.14,92.17,130620,,,D*42
$GPRMC,152509.000,A,4028.4381,N,08353.4171,W,0.12,95.69,130620,,,D*4B
$GPRMC,152510.000,A,4028.4381,N,08353.4171,W,0.12,102.48,130620,,,D*7F
$GPRMC,152511.000,A,4028.4381,N,08353.4171,W,0.14,93.36,130620,,,D*48
$GPRMC,152512.000,A,4028.4381,N,08353.4171,W,0.07,82.84,130620,,,D*40
$GPRMC,152513.000,A,4028.4381,N,08353.4171,W,0.12,81.00,130620,,,D*4A
$GPRMC,152514.000,A,4028.4381,N,08353.4171,W,0.07,64.52,130620,,,D*45
$GPRMC,152515.000,A,4028.4382,N,08353.4171,W,0.04,74.84,130620,,,D*4E
$GPRMC,152516.000,A,4028.4382,N,08353.4171,W,0.09,83.77,130620,,,D*44
$GPRMC,152517.000,A,4028.4382,N,08353.4171,W,0.15,103.03,130620,,,D*72
$GPRMC,152518.000,A,4028.4382,N,08353.4171,W,0.29,112.47,130620,,,D*72
$GPRMC,152519.000,A,4028.4382,N,08353.4171,W,0.13,97.83,130620,,,D*4E
$GPRMC,152520.000,A,4028.4382,N,08353.4170,W,0.12,113.53,130620,,,D*74
$GPRMC,152521.000,A,4028.4382,N,08353.4170,W,0.12,109.01,130620,,,D*79
$GPRMC,152522.000,A,4028.4382,N,08353.4170,W,0.12,91.35,130620,,,D*4D
$GPRMC,152523.000,A,4028.4382,N,08353.4170,W,0.20,119.82,130620,,,D*70
$GPRMC,152524.000,A,4028.4382,N,08353.4170,W,0.09,102.46,130620,,,D*7E
$GPRMC,152525.000,A,4028.4382,N,08353.4170,W,0.07,95.86,130620,,,D*42
$GPRMC,152526.000,A,4028.4382,N,08353.4170,W,0.05,127.53,130620,,,D*73
$GPRMC,152527.000,A,4028.4382,N,08353.4170,W,0.09,101.45,130620,,,D*7D
$GPRMC,152528.000,A,4028.4382,N,08353.4170,W,0.10,117.55,130620,,,D*7C
$GPRMC,152529.000,A,4028.4382,N,08353.4170,W,0.08,95.19,130620,,,D*47
$GPRMC,152530.000,A,4028.4382,N,08353.4170,W,0.12,143.71,130620,,,D*70
$GPRMC,152531.000,A,4028.4382,N,08353.4170,W,0.14,137.00,130620,,,D*72
$GPRMC,152532.000,A,4028.4382,N,08353.4170,W,0.19,134.83,130620,,,D*74
$GPRMC,152533.000,A,4028.4381,N,08353.4170,W,0.21,133.63,130620,,,D*74
$GPRMC,152534.000,A,4028.4381,N,08353.4170,W,0.13,131.55,130620,,,D*75
$GPRMC,152535.000,A,4028.4381,N,08353.4170,W,0.17,139.02,130620,,,D*7A
$GPRMC,152536.000,A,4028.4381,N,08353.4169,W,0.18,112.82,130620,,,D*7F
$GPRMC,152537.000,A,4028.4381,N,08353.4169,W,0.16,99.64,130620,,,D*4A
