$ADVER,3080,2.2
$GPRMC,150658.480,A,4028.5264,N,08353.4912,W,0.05,314.64,130620,,,A*70
$GPRMC,150659.480,A,4028.5264,N,08353.4911,W,0.07,43.52,130620,,,A*44
$GPRMC,150700.480,A,4028.5264,N,08353.4912,W,0.02,29.47,130620,,,A*47
$GPRMC,150701.480,A,4028.5264,N,08353.4912,W,0.05,342.81,130620,,,A*75
$GPRMC,150702.480,A,4028.5263,N,08353.4913,W,0.08,225.33,130620,,,A*74
$GPRMC,150703.480,A,4028.5262,N,08353.4913,W,0.10,354.96,130620,,,A*75
$GPRMC,150704.480,A,4028.5262,N,08353.4914,W,0.10,309.66,130620,,,A*72
$GPRMC,150705.480,A,4028.5262,N,08353.4914,W,0.16,313.84,130620,,,A*72
$GPRMC,150706.480,A,4028.5267,N,08353.4919,W,0.47,285.30,130620,,,A*7C
$GPRMC,150707.480,A,4028.5211,N,08353.4919,W,1.09,272.76,130620,,,A*7D
$GPRMC,150708.480,A,4028.5202,N,08353.5032,W,4.82,291.34,130620,,,A*7C
$GPRMC,150709.480,A,4028.5320,N,08353.5020,W,0.55,308.12,130620,,,A*74
$GPRMC,150710.480,A,4028.5319,N,08353.4929,W,2.96,233.92,130620,,,A*7B
$GPRMC,150711.480,A,4028.5346,N,08353.4969,W,5.18,181.34,130620,,,A*73
$GPRMC,150712.480,A,4028.5266,N,08353.4953,W,0.52,49.35,130620,,,A*45
$GPRMC,150713.480,A,4028.5272,N,08353.4963,W,1.49,186.26,130620,,,A*79
$GPRMC,150714.480,A,4028.5225,N,08353.4936,W,1.94,202.64,130620,,,A*75
$GPRMC,150715.480,A,4028.5185,N,08353.4905,W,1.57,230.66,130620,,,A*71
$GPRMC,150716.480,A,4028.5233,N,08353.4935,W,1.43,164.48,130620,,,A*74
$GPRMC,150717.480,A,4028.5178,N,08353.4960,W,1.53,168.66,130620,,,A*78
$GPRMC,150718.480,A,4028.5182,N,08353.4955,W,2.06,192.42,130620,,,A*74
$GPRMC,150719.480,A,4028.5165,N,08353.4918,W,2.32,185.08,130620,,,A*7A
$GPRMC,150720.480,A,4028.5228,N,08353.4922,W,1.16,178.24,130620,,,A*7A
$GPRMC,150721.480,A,4028.5203,N,08353.4944,W,2.39,248.75,130620,,,A*78
$GPRMC,150722.480,A,4028.5186,N,08353.4978,W,4.64,233.08,130620,,,A*72
$GPRMC,150723.480,A,4028.5221,N,08353.4981,W,0.85,328.38,130620,,,A*78
$GPRMC,150724.480,A,4028.5136,N,08353.4963,W,2.91,206.96,130620,,,A*78
$GPRMC,150725.480,A,4028.5198,N,08353.4961,W,2.70,229.71,130620,,,A*74
$GPRMC,150726.480,A,4028.5185,N,08353.4928,W,0.86,35.87,130620,,,A*4B
$GPRMC,150727.480,A,4028.5169,N,08353.4960,W,1.54,87.39,130620,,,A*46
$GPRMC,150728.480,A,4028.5167,N,08353.4960,W,1.84,102.41,130620,,,A*79
$GPRMC,150729.480,A,4028.5148,N,08353.4964,W,3.11,74.69,130620,,,A*45
$GPRMC,150730.480,A,4028.5112,N,08353.4923,W,2.95,205.67,130620,,,A*76
$GPRMC,150731.480,A,4028.5116,N,08353.4951,W,2.22,125.50,130620,,,A*7F
$GPRMC,150732.480,A,4028.5116,N,08353.4940,W,3.36,176.42,130620,,,A*7D
$GPRMC,150733.480,A,4028.5129,N,08353.4911,W,2.76,116.88,130620,,,A*71
$GPRMC,150734.480,A,4028.5138,N,08353.4897,W,1.77,98.82,130620,,,A*46
$GPRMC,150735.480,A,4028.5105,N,08353.4920,W,2.72,162.93,130620,,,A*76
$GPRMC,150736.480,A,4028.5116,N,08353.4884,W,1.80,133.08,130620,,,A*70
$GPRMC,150737.480,A,4028.5084,N,08353.4923,W,2.41,121.21,130620,,,A*71
$GPRMC,150738.480,A,4028.5099,N,08353.4876,W,2.19,128.10,130620,,,A*75
$GPRMC,150739.480,A,4028.5110,N,08353.4849,W,2.03,125.61,130620,,,A*78
$GPRMC,150740.480,A,4028.5120,N,08353.4822,W,2.17,134.79,130620,,,A*74
$GPRMC,150741.480,A,4028.5111,N,08353.4825,W,2.32,161.63,130620,,,A*7C
$GPRMC,150742.480,A,4028.5081,N,08353.4860,W,2.52,128.56,130620,,,A*7B
$GPRMC,150743.480,A,4028.5103,N,08353.4818,W,2.07,80.48,130620,,,A*42
$GPRMC,150744.480,A,4028.5064,N,08353.4809,W,1.76,111.04,130620,,,A*71
$GPRMC,150745.480,A,4028.5062,N,08353.4760,W,2.10,158.20,130620,,,A*7E
$GPRMC,150746.480,A,4028.5056,N,08353.4756,W,2.62,116.51,130620,,,A*76
$GPRMC,150747.480,A,4028.5062,N,08353.4769,W,2.52,108.15,130620,,,A*70
$GPRMC,150748.480,A,4028.5063,N,08353.4759,W,2.40,140.77,130620,,,A*76
$GPRMC,150749.480,A,4028.5057,N,08353.4753,W,2.47,151.71,130620,,,A*7B
$GPRMC,150750.480,A,4028.5040,N,08353.4771,W,2.23,150.10,130620,,,A*71
$GPRMC,150751.480,A,4028.5030,N,08353.4763,W,3.10,113.19,130620,,,A*7B
$GPRMC,150752.479,A,4028.5028,N,08353.4759,W,1.96,114.54,130620,,,A*7C
$GPRMC,150753.479,A,4028.5055,N,08353.4749,W,2.93,133.75,130620,,,A*76
$GPRMC,150754.479,A,4028.5048,N,08353.4754,W,2.85,176.85,130620,,,A*78
$GPRMC,150755.479,A,4028.5040,N,08353.4712,W,2.01,167.34,130620,,,A*75
$GPRMC,150756.479,A,4028.5017,N,08353.4725,W,1.84,150.74,130620,,,A*7E
$GPRMC,150757.479,A,4028.5042,N,08353.4692,W,2.86,101.23,130620,,,A*75
$GPRMC,150758.479,A,4028.4982,N,08353.4789,W,2.66,119.48,130620,,,A*7F
$GPRMC,150759.479,A,4028.4970,N,08353.4743,W,2.30,142.47,130620,,,A*77
$GPRMC,150800.479,A,4028.5051,N,08353.4693,W,2.80,105.87,130620,,,A*77
$GPRMC,150801.479,A,4028.5038,N,08353.4667,W,1.69,110.95,130620,,,A*71
$GPRMC,150802.479,A,4028.4951,N,08353.4771,W,2.33,178.96,130620,,,A*72
$GPRMC,150803.479,A,4028.4958,N,08353.4690,W,3.44,117.01,130620,,,A*72
$GPRMC,150804.479,A,4028.4979,N,08353.4688,W,2.97,85.13,130620,,,A*49
$GPRMC,150806.479,A,4028.4970,N,08353.4720,W,1.02,19.75,130620,,,A*4B
$GPRMC,150807.479,A,4028.4991,N,08353.4675,W,2.78,139.07,130620,,,A*7C
$GPRMC,150808.479,A,4028.5002,N,08353.4604,W,1.78,145.81,130620,,,A*71
$GPRMC,150809.479,A,4028.4940,N,08353.4714,W,2.34,105.37,130620,,,A*7C
$GPRMC,150810.479,A,4028.4968,N,08353.4634,W,3.30,92.48,130620,,,D*4A
$GPRMC,150811.479,A,4028.4975,N,08353.4589,W,2.43,164.20,130620,,,D*71
$GPRMC,150812.479,A,4028.4973,N,08353.4609,W,2.82,178.91,130620,,,D*75
$GPRMC,150813.479,A,4028.4978,N,08353.4557,W,0.91,160.96,130620,,,D*79
$GPRMC,150814.479,A,4028.4938,N,08353.4579,W,1.06,127.31,130620,,,D*77
$GPRMC,150815.479,A,4028.4937,N,08353.4588,W,2.18,135.00,130620,,,D*7A
$GPRMC,150816.479,A,4028.4929,N,08353.4589,W,1.95,4.88,130620,,,D*72
$GPRMC,150817.479,A,4028.4911,N,08353.4635,W,1.09,53.66,130620,,,D*4B
$GPRMC,150818.479,A,4028.5020,N,08353.4574,W,0.57,49.38,130620,,,D*42
$GPRMC,150819.479,A,4028.5008,N,08353.4630,W,0.96,79.49,130620,,,D*42
$GPRMC,150820.479,A,4028.5009,N,08353.4593,W,0.52,185.62,130620,,,D*70
$GPRMC,150821.479,A,4028.4993,N,08353.4585,W,0.87,21.28,130620,,,D*44
$GPRMC,150822.479,A,4028.4966,N,08353.4604,W,0.21,342.28,130620,,,D*7D
$GPRMC,150823.479,A,4028.4978,N,08353.4632,W,0.44,101.02,130620,,,D*78
$GPRMC,150824.479,A,4028.4972,N,08353.4629,W,0.16,137.46,130620,,,D*7D
$GPRMC,150825.479,A,4028.4964,N,08353.4618,W,0.45,243.89,130620,,,D*7C
$GPRMC,150826.479,A,4028.4994,N,08353.4660,W,0.17,312.21,130620,,,D*7F
$GPRMC,150827.479,A,4028.5002,N,08353.4706,W,0.16,79.66,130620,,,D*44
$GPRMC,150828.479,A,4028.4957,N,08353.4691,W,0.07,25.61,130620,,,D*42
$GPRMC,150829.479,A,4028.4965,N,08353.4693,W,0.59,170.36,130620,,,D*78
$GPRMC,150830.479,A,4028.4989,N,08353.4702,W,0.38,296.01,130620,,,D*73
$GPRMC,150831.479,A,4028.5001,N,08353.4708,W,0.51,120.43,130620,,,D*77
$GPRMC,150832.479,A,4028.5018,N,08353.4671,W,0.61,98.45,130620,,,D*44
$GPRMC,150833.479,A,4028.5005,N,08353.4673,W,0.34,45.42,130620,,,D*4C
$GPRMC,150834.479,A,4028.5004,N,08353.4645,W,0.24,70.59,130620,,,D*42
$GPRMC,150835.479,A,4028.5031,N,08353.4569,W,1.22,202.45,130620,,,D*75
$GPRMC,150836.479,A,4028.4999,N,08353.4622,W,4.05,36.87,130620,,,D*4B
$GPRMC,150837.479,A,4028.4956,N,08353.4695,W,1.45,19.35,130620,,,D*40
$GPRMC,150838.479,A,4028.5018,N,08353.4650,W,1.23,345.18,130620,,,D*71
$GPRMC,150839.479,A,4028.4843,N,08353.4709,W,0.74,55.53,130620,,,D*44
$GPRMC,150840.479,A,4028.4917,N,08353.4687,W,1.99,183.78,130620,,,D*7C
$GPRMC,150841.479,A,4028.4934,N,08353.4666,W,1.18,217.45,130620,,,D*7A
$GPRMC,150842.479,A,4028.5083,N,08353.4662,W,0.35,129.45,130620,,,D*79
$GPRMC,150843.479,A,4028.5020,N,08353.4667,W,0.37,234.79,130620,,,D*76
$GPRMC,150844.479,A,4028.5002,N,08353.4648,W,0.10,186.25,130620,,,D*7A
$GPRMC,150845.479,A,4028.5000,N,08353.4634,W,0.10,26.33,130620,,,D*4E
$GPRMC,150846.479,A,4028.4995,N,08353.4630,W,0.12,30.58,130620,,,D*45
$GPRMC,150847.479,A,4028.5002,N,08353.4628,W,0.45,28.63,130620,,,D*48
$GPRMC,150848.479,A,4028.5014,N,08353.4632,W,0.44,355.41,130620,,,D*73
$GPRMC,150849.479,A,4028.4955,N,08353.4646,W,0.40,241.26,130620,,,D*7D
$GPRMC,150850.479,A,4028.4907,N,08353.4640,W,0.17,43.69,130620,,,D*4D
$GPRMC,150851.479,A,4028.4939,N,08353.4649,W,0.15,106.34,130620,,,D*72
$GPRMC,150852.479,A,4028.4974,N,08353.4656,W,0.28,265.05,130620,,,D*7C
$GPRMC,150853.479,A,4028.4931,N,08353.4773,W,0.36,199.98,130620,,,D*71
$GPRMC,150854.479,A,4028.5001,N,08353.4698,W,2.01,194.00,130620,,,D*73
$GPRMC,150855.479,A,4028.4924,N,08353.4762,W,0.17,219.07,130620,,,D*7D
$GPRMC,150856.479,A,4028.4869,N,08353.4775,W,0.12,331.64,130620,,,D*7B
$GPRMC,150857.479,A,4028.4867,N,08353.4769,W,0.03,46.45,130620,,,D*49
$GPRMC,150858.479,A,4028.4858,N,08353.4766,W,0.20,34.11,130620,,,D*40
$GPRMC,150859.479,A,4028.4864,N,08353.4754,W,0.06,34.81,130620,,,D*42
$GPRMC,150900.479,A,4028.4863,N,08353.4743,W,0.42,223.69,130620,,,D*7C
$GPRMC,150901.479,A,4028.4877,N,08353.4726,W,1.38,15.58,130620,,,D*42
$GPRMC,150902.479,A,4028.4885,N,08353.4720,W,0.56,173.12,130620,,,D*7C
$GPRMC,150903.479,A,4028.4911,N,08353.4661,W,0.42,194.58,130620,,,D*77
$GPRMC,150904.479,A,4028.4968,N,08353.4616,W,1.37,62.84,130620,,,D*44
$GPRMC,150905.479,A,4028.5028,N,08353.4629,W,2.76,14.34,130620,,,D*49
$GPRMC,150906.479,A,4028.4952,N,08353.4705,W,2.71,355.56,130620,,,D*75
$GPRMC,150907.479,A,4028.4998,N,08353.4679,W,2.59,201.00,130620,,,D*71
$GPRMC,150908.479,A,4028.5002,N,08353.4572,W,0.47,101.90,130620,,,D*7A
$GPRMC,150909.479,A,4028.4928,N,08353.4590,W,0.85,355.26,130620,,,D*77
$GPRMC,150910.479,A,4028.4911,N,08353.4589,W,4.04,189.05,130620,,,D*72
$GPRMC,150911.479,A,4028.4877,N,08353.4596,W,2.62,203.98,130620,,,D*7F
$GPRMC,150912.479,A,4028.4949,N,08353.4598,W,1.14,162.44,130620,,,D*79
$GPRMC,150913.479,A,4028.4916,N,08353.4606,W,0.23,122.02,130620,,,D*75
$GPRMC,150914.479,A,4028.4902,N,08353.4608,W,0.92,358.75,130620,,,D*7C
$GPRMC,150915.479,A,4028.4986,N,08353.4697,W,0.36,204.94,130620,,,D*7E
$GPRMC,150916.479,A,4028.4907,N,08353.4818,W,0.19,217.28,130620,,,D*75
$GPRMC,150917.479,A,4028.4950,N,08353.4678,W,0.45,120.07,130620,,,D*7D
$GPRMC,150918.479,A,4028.4899,N,08353.4701,W,0.67,22.56,130620,,,D*4E
$GPRMC,150919.479,A,4028.4955,N,08353.4682,W,0.19,51.65,130620,,,D*49
$GPRMC,150920.479,A,4028.4988,N,08353.4704,W,0.54,66.07,130620,,,D*45
$GPRMC,150921.480,A,4028.5076,N,08353.4612,W,0.92,38.09,130620,,,D*42
$GPRMC,150922.480,A,4028.4955,N,08353.4812,W,0.47,90.32,130620,,,D*44
$GPRMC,150923.480,A,4028.5010,N,08353.4735,W,0.28,256.51,130620,,,D*72
$GPRMC,150924.480,A,4028.4990,N,08353.4774,W,2.27,232.70,130620,,,D*7C
$GPRMC,150925.480,A,4028.4990,N,08353.4765,W,2.02,50.64,130620,,,D*49
$GPRMC,150927.480,A,4028.4968,N,08353.4782,W,1.49,47.49,130620,,,D*40
$GPRMC,150928.480,A,4028.4968,N,08353.4773,W,0.27,15.30,130620,,,D*41
$GPRMC,150929.480,A,4028.4931,N,08353.4763,W,0.46,333.40,130620,,,D*7A
$GPRMC,150930.480,A,4028.4934,N,08353.4774,W,0.13,223.40,130620,,,D*71
$GPRMC,150931.480,A,4028.4933,N,08353.4779,W,0.48,298.48,130620,,,D*7C
$GPRMC,150932.480,A,4028.4937,N,08353.4774,W,0.31,138.42,130620,,,D*7B
$GPRMC,150933.480,A,4028.4993,N,08353.4672,W,0.67,335.19,130620,,,D*71
$GPRMC,150934.480,A,4028.4934,N,08353.4768,W,0.22,265.90,130620,,,D*75
$GPRMC,150935.480,A,4028.4977,N,08353.4705,W,0.47,1.37,130620,,,D*76
$GPRMC,150936.480,A,4028.4994,N,08353.4662,W,0.30,204.70,130620,,,D*7C
$GPRMC,150937.480,A,4028.5023,N,08353.4613,W,0.18,315.02,130620,,,D*71
$GPRMC,150938.480,A,4028.5115,N,08353.4469,W,0.05,275.69,130620,,,D*73
$GPRMC,150939.480,A,4028.5040,N,08353.4590,W,0.42,32.32,130620,,,D*48
$GPRMC,150940.480,A,4028.5045,N,08353.4585,W,0.05,314.38,130620,,,D*79
$GPRMC,150941.480,A,4028.5017,N,08353.4628,W,0.07,220.49,130620,,,D*79
$GPRMC,150942.480,A,4028.5004,N,08353.4648,W,0.12,190.27,130620,,,D*7A
$GPRMC,150943.480,A,4028.4942,N,08353.4744,W,1.02,199.92,130620,,,D*7B
$GPRMC,150944.480,A,4028.4965,N,08353.4827,W,0.94,79.02,130620,,,D*4B
$GPRMC,150945.480,A,4028.5060,N,08353.4710,W,0.18,37.50,130620,,,D*45
$GPRMC,150946.480,A,4028.5010,N,08353.4739,W,0.06,104.61,130620,,,D*76
$GPRMC,150947.480,A,4028.4968,N,08353.4770,W,1.72,227.16,130620,,,D*7D
$GPRMC,150948.480,A,4028.4945,N,08353.4758,W,1.58,228.51,130620,,,D*73
$GPRMC,150949.480,A,4028.4832,N,08353.4908,W,2.62,229.23,130620,,,D*76
$GPRMC,150950.480,A,4028.4780,N,08353.4969,W,0.08,183.67,130620,,,D*72
$GPRMC,150951.480,A,4028.4815,N,08353.4892,W,1.08,46.20,130620,,,D*4F
$GPRMC,150952.480,A,4028.4906,N,08353.4736,W,0.20,304.36,130620,,,D*77
$GPRMC,150953.480,A,4028.5007,N,08353.4737,W,1.24,327.41,130620,,,D*7A
$GPRMC,150954.480,A,4028.5018,N,08353.4711,W,0.70,140.68,130620,,,D*7F
$GPRMC,150955.480,A,4028.4956,N,08353.4606,W,3.09,318.43,130620,,,D*70
$GPRMC,150956.480,A,4028.4887,N,08353.4470,W,2.34,57.31,130620,,,D*4F
$GPRMC,150957.480,A,4028.4788,N,08353.4310,W,2.59,36.88,130620,,,D*41
$GPRMC,150958.480,A,4028.4908,N,08353.4529,W,1.80,248.49,130620,,,D*75
$GPRMC,150959.480,A,4028.4858,N,08353.4574,W,0.44,296.13,130620,,,D*7D
$GPRMC,151000.480,A,4028.4976,N,08353.4504,W,1.79,154.98,130620,,,D*72
$GPRMC,151001.480,A,4028.5050,N,08353.4524,W,2.74,227.11,130620,,,D*75
$GPRMC,151002.480,A,4028.4883,N,08353.4386,W,2.14,266.77,130620,,,D*7C
$GPRMC,151003.480,A,4028.4821,N,08353.4410,W,2.76,317.52,130620,,,D*79
$GPRMC,151004.480,A,4028.4918,N,08353.4562,W,1.79,141.23,130620,,,D*7A
$GPRMC,151007.480,A,4028.4904,N,08353.4524,W,0.95,179.90,130620,,,D*76
$GPRMC,151008.480,A,4028.4928,N,08353.4545,W,0.04,42.85,130620,,,D*45
$GPRMC,151009.480,A,4028.4906,N,08353.4551,W,0.35,60.94,130620,,,D*4F
$GPRMC,151010.480,A,4028.4927,N,08353.4570,W,1.27,145.46,130620,,,D*7C
$GPRMC,151011.480,A,4028.4899,N,08353.4575,W,0.83,121.88,130620,,,D*73
$GPRMC,151012.480,A,4028.4948,N,08353.4559,W,0.39,353.00,130620,,,D*75
$GPRMC,151013.480,A,4028.4965,N,08353.4542,W,0.58,101.75,130620,,,D*71
$GPRMC,151014.480,A,4028.4957,N,08353.4563,W,0.73,330.80,130620,,,D*77
$GPRMC,151015.480,A,4028.4960,N,08353.4559,W,0.78,296.09,130620,,,D*7C
$GPRMC,151016.480,A,4028.4985,N,08353.4544,W,0.37,90.94,130620,,,D*43
$GPRMC,151017.480,A,4028.5042,N,08353.4600,W,1.81,312.93,130620,,,D*70
$GPRMC,151018.480,A,4028.4977,N,08353.4704,W,1.62,59.87,130620,,,D*40
$GPRMC,151019.480,A,4028.5089,N,08353.4642,W,0.76,262.02,130620,,,D*78
$GPRMC,151020.480,A,4028.5002,N,08353.4535,W,1.12,289.98,130620,,,D*77
$GPRMC,151021.480,A,4028.5149,N,08353.4590,W,0.47,343.20,130620,,,D*72
$GPRMC,151022.480,A,4028.5280,N,08353.4595,W,0.20,352.80,130620,,,D*79
$GPRMC,151023.480,A,4028.5288,N,08353.4574,W,0.11,192.37,130620,,,D*7F
$GPRMC,151024.480,A,4028.5278,N,08353.4558,W,0.16,346.59,130620,,,D*7D
$GPRMC,151025.480,A,4028.5256,N,08353.4545,W,0.03,256.39,130620,,,D*7E
$GPRMC,151026.480,A,4028.5243,N,08353.4538,W,0.07,267.32,130620,,,D*7E
$GPRMC,151027.480,A,4028.5224,N,08353.4538,W,0.03,251.27,130620,,,D*7B
$GPRMC,151028.480,A,4028.5207,N,08353.4538,W,0.23,325.75,130620,,,D*72
$GPRMC,151029.480,A,4028.5193,N,08353.4539,W,0.06,271.08,130620,,,D*71
$GPRMC,151030.480,A,4028.5177,N,08353.4542,W,0.18,320.81,130620,,,D*74
$GPRMC,151031.480,A,4028.5165,N,08353.4542,W,0.26,328.85,130620,,,D*77
$GPRMC,151032.480,A,4028.5150,N,08353.4540,W,0.07,164.83,130620,,,D*7F
$GPRMC,151033.480,A,4028.5135,N,08353.4541,W,0.10,328.96,130620,,,D*74
$GPRMC,151034.480,A,4028.5024,N,08353.4546,W,0.27,318.03,130620,,,D*7E
$GPRMC,151035.480,A,4028.5096,N,08353.4685,W,1.42,194.55,130620,,,D*7D
$GPRMC,151036.480,A,4028.5012,N,08353.4718,W,5.26,355.83,130620,,,D*75
$GPRMC,151037.480,A,4028.5084,N,08353.4679,W,2.99,12.48,130620,,,D*49
$GPRMC,151038.480,A,4028.4980,N,08353.4663,W,1.36,127.62,130620,,,D*78
$GPRMC,151039.480,A,4028.5000,N,08353.4608,W,1.86,129.19,130620,,,D*7D
$GPRMC,151040.480,A,4028.4944,N,08353.4601,W,2.44,114.76,130620,,,D*78
$GPRMC,151041.480,A,4028.5007,N,08353.4570,W,3.32,131.21,130620,,,D*76
$GPRMC,151042.480,A,4028.5023,N,08353.4552,W,1.47,144.51,130620,,,D*76
$GPRMC,151043.480,A,4028.4960,N,08353.4527,W,0.51,101.63,130620,,,D*7C
$GPRMC,151044.480,A,4028.4982,N,08353.4555,W,1.81,113.05,130620,,,D*7D
$GPRMC,151045.480,A,4028.4966,N,08353.4537,W,4.41,198.63,130620,,,D*78
$GPRMC,151046.480,A,4028.5056,N,08353.4497,W,1.32,62.30,130620,,,D*48
$GPRMC,151047.480,A,4028.5007,N,08353.4488,W,1.98,190.57,130620,,,D*7E
$GPRMC,151048.480,A,4028.4924,N,08353.4557,W,1.76,151.25,130620,,,D*73
$GPRMC,151049.480,A,4028.4925,N,08353.4522,W,1.81,146.08,130620,,,D*70
$GPRMC,151050.480,A,4028.4926,N,08353.4608,W,1.40,152.38,130620,,,D*7B
$GPRMC,151051.480,A,4028.4986,N,08353.4569,W,2.06,183.49,130620,,,D*7F
$GPRMC,151052.480,A,4028.4921,N,08353.4506,W,4.53,197.19,130620,,,D*7E
$GPRMC,151053.480,A,4028.4971,N,08353.4500,W,3.26,166.29,130620,,,D*74
$GPRMC,151054.480,A,4028.4881,N,08353.4482,W,6.91,190.62,130620,,,D*79
$GPRMC,151055.480,A,4028.4909,N,08353.4428,W,0.90,159.48,130620,,,D*73
$GPRMC,151056.480,A,4028.4951,N,08353.4524,W,5.55,177.09,130620,,,D*75
$GPRMC,151057.480,A,4028.4914,N,08353.4539,W,1.76,190.23,130620,,,D*7D
$GPRMC,151058.480,A,4028.4861,N,08353.4451,W,3.88,204.27,130620,,,D*77
$GPRMC,151059.480,A,4028.4865,N,08353.4518,W,2.32,203.84,130620,,,D*70
$GPRMC,151100.480,A,4028.4819,N,08353.4443,W,1.11,181.28,130620,,,D*74
$GPRMC,151101.480,A,4028.4774,N,08353.4343,W,1.52,257.46,130620,,,D*71
$GPRMC,151102.480,A,4028.4784,N,08353.4379,W,4.13,159.71,130620,,,D*7D
$GPRMC,151103.480,A,4028.4823,N,08353.4486,W,3.07,182.51,130620,,,D*7F
$GPRMC,151104.480,A,4028.4861,N,08353.4517,W,3.58,213.03,130620,,,D*71
$GPRMC,151105.480,A,4028.4836,N,08353.4501,W,2.08,182.09,130620,,,D*70
$GPRMC,151106.480,A,4028.4803,N,08353.4557,W,1.53,9.66,130620,,,D*70
$GPRMC,151107.480,A,4028.4820,N,08353.4499,W,1.63,104.29,130620,,,D*77
$GPRMC,151108.480,A,4028.4750,N,08353.4543,W,3.10,160.13,130620,,,D*7B
$GPRMC,151109.480,A,4028.4743,N,08353.4525,W,1.48,148.10,130620,,,D*7E
$GPRMC,151110.480,A,4028.4793,N,08353.4525,W,3.07,149.06,130620,,,D*74
$GPRMC,151111.480,A,4028.4799,N,08353.4501,W,2.60,117.22,130620,,,D*74
$GPRMC,151112.480,A,4028.4770,N,08353.4417,W,1.83,114.29,130620,,,D*70
$GPRMC,151113.480,A,4028.4796,N,08353.4403,W,1.08,123.66,130620,,,D*70
$GPRMC,151114.480,A,4028.4795,N,08353.4432,W,0.16,251.03,130620,,,D*7D
$GPRMC,151115.480,A,4028.4787,N,08353.4425,W,2.86,150.55,130620,,,D*73
$GPRMC,151116.480,A,4028.4798,N,08353.4445,W,1.93,158.39,130620,,,D*7D
$GPRMC,151117.480,A,4028.4815,N,08353.4425,W,2.50,200.29,130620,,,D*73
$GPRMC,151118.480,A,4028.4769,N,08353.4382,W,1.09,89.31,130620,,,D*47
$GPRMC,151119.480,A,4028.4764,N,08353.4430,W,3.29,170.74,130620,,,D*73
$GPRMC,151120.480,A,4028.4748,N,08353.4419,W,3.12,194.23,130620,,,D*7C
$GPRMC,151121.480,A,4028.4770,N,08353.4399,W,2.22,166.20,130620,,,D*75
$GPRMC,151122.480,A,4028.4751,N,08353.4404,W,1.89,173.00,130620,,,D*72
$GPRMC,151123.480,A,4028.4759,N,08353.4401,W,1.50,312.79,130620,,,D*71
$GPRMC,151124.480,A,4028.4722,N,08353.4356,W,0.64,290.98,130620,,,D*7D
$GPRMC,151125.480,A,4028.4738,N,08353.4380,W,2.18,204.27,130620,,,D*7C
$GPRMC,151126.480,A,4028.4756,N,08353.4389,W,0.49,220.04,130620,,,D*7F
$GPRMC,151127.480,A,4028.4752,N,08353.4420,W,0.31,27.36,130620,,,D*45
$GPRMC,151128.480,A,4028.4750,N,08353.4421,W,1.07,40.08,130620,,,D*41
$GPRMC,151129.480,A,4028.4774,N,08353.4414,W,0.53,25.06,130620,,,D*4D
$GPRMC,151130.480,A,4028.4783,N,08353.4444,W,0.46,233.07,130620,,,D*78
$GPRMC,151131.480,A,4028.4772,N,08353.4431,W,0.70,172.96,130620,,,A*7B
$GPRMC,151132.480,A,4028.4761,N,08353.4429,W,0.67,141.91,130620,,,A*72
$GPRMC,151133.480,A,4028.4748,N,08353.4447,W,0.64,211.43,130620,,,A*7A
$GPRMC,151134.480,A,4028.4719,N,08353.4425,W,1.84,344.42,130620,,,A*72
$GPRMC,151135.480,A,4028.4738,N,08353.4410,W,0.66,300.23,130620,,,A*7C
$GPRMC,151136.480,A,4028.4731,N,08353.4413,W,0.26,327.41,130620,,,A*70
$GPRMC,151137.480,A,4028.4799,N,08353.4429,W,0.50,45.01,130620,,,A*48
$GPRMC,151138.480,A,4028.4782,N,08353.4415,W,0.47,254.57,130620,,,A*75
$GPRMC,151139.480,A,4028.4725,N,08353.4380,W,0.46,176.28,130620,,,A*78
$GPRMC,151140.480,A,4028.4739,N,08353.4381,W,0.26,34.27,130620,,,A*44
$GPRMC,151141.480,A,4028.4726,N,08353.4386,W,1.06,46.37,130620,,,A*4B
$GPRMC,151142.480,A,4028.4772,N,08353.4433,W,0.71,14.55,130620,,,A*42
$GPRMC,151143.480,A,4028.4885,N,08353.4440,W,0.98,301.98,130620,,,A*71
$GPRMC,151144.480,A,4028.4792,N,08353.4488,W,0.67,261.36,130620,,,A*78
$GPRMC,151145.480,A,4028.4790,N,08353.4470,W,0.23,97.25,130620,,,A*45
$GPRMC,151146.480,A,4028.4796,N,08353.4446,W,0.59,60.23,130620,,,A*46
$GPRMC,151147.480,A,4028.4720,N,08353.4438,W,2.31,124.79,130620,,,A*71
$GPRMC,151148.480,A,4028.4741,N,08353.4441,W,0.79,110.12,130620,,,A*73
$GPRMC,151149.480,A,4028.4844,N,08353.4431,W,1.67,331.38,130620,,,A*78
$GPRMC,151150.480,A,4028.4773,N,08353.4400,W,1.67,354.25,130620,,,A*76
$GPRMC,151151.480,A,4028.4777,N,08353.4390,W,0.15,183.67,130620,,,A*77
$GPRMC,151152.480,A,4028.4747,N,08353.4379,W,0.25,336.03,130620,,,A*7D
$GPRMC,151153.480,A,4028.4737,N,08353.4412,W,0.67,182.44,130620,,,A*79
$GPRMC,151154.480,A,4028.4742,N,08353.4380,W,0.10,165.88,130620,,,A*79
$GPRMC,151155.480,A,4028.4748,N,08353.4431,W,0.43,203.09,130620,,,A*73
$GPRMC,151156.480,A,4028.4749,N,08353.4427,W,0.18,5.87,130620,,,A*7A
$GPRMC,151157.480,A,4028.4765,N,08353.4424,W,0.50,147.39,130620,,,A*78
$GPRMC,151158.480,A,4028.4806,N,08353.4453,W,0.21,254.03,130620,,,A*73
$GPRMC,151159.480,A,4028.4796,N,08353.4435,W,1.18,337.31,130620,,,A*7A
$GPRMC,151200.480,A,4028.4703,N,08353.4383,W,1.08,151.41,130620,,,A*77
$GPRMC,151201.480,A,4028.4734,N,08353.4392,W,0.55,202.76,130620,,,A*7A
$GPRMC,151202.480,A,4028.4758,N,08353.4404,W,0.69,155.45,130620,,,A*75
$GPRMC,151203.480,A,4028.4754,N,08353.4412,W,0.18,316.62,130620,,,A*79
$GPRMC,151204.480,A,4028.4766,N,08353.4431,W,0.13,75.47,130620,,,A*44
$GPRMC,151205.480,A,4028.4799,N,08353.4404,W,0.31,292.37,130620,,,A*7F
$GPRMC,151206.480,A,4028.4836,N,08353.4415,W,0.60,22.63,130620,,,A*4A
$GPRMC,151207.480,A,4028.4819,N,08353.4418,W,0.90,10.22,130620,,,A*40
$GPRMC,151208.480,A,4028.4804,N,08353.4426,W,1.03,72.13,130620,,,A*43
$GPRMC,151209.480,A,4028.4764,N,08353.4407,W,2.05,162.47,130620,,,A*7C
$GPRMC,151210.480,A,4028.4727,N,08353.4406,W,2.56,7.05,130620,,,A*70
$GPRMC,151211.480,A,4028.4705,N,08353.4421,W,0.43,82.62,130620,,,A*4E
$GPRMC,151212.480,A,4028.4702,N,08353.4504,W,0.30,304.29,130620,,,A*7A
$GPRMC,151213.480,A,4028.4761,N,08353.4480,W,0.76,157.19,130620,,,A*76
$GPRMC,151214.480,A,4028.4821,N,08353.4519,W,1.06,230.16,130620,,,A*70
$GPRMC,151215.480,A,4028.4762,N,08353.4522,W,0.10,339.88,130620,,,A*78
$GPRMC,151216.480,A,4028.4766,N,08353.4483,W,0.18,47.46,130620,,,A*45
$GPRMC,151217.480,A,4028.4771,N,08353.4470,W,0.20,63.44,130620,,,A*41
$GPRMC,151218.480,A,4028.4774,N,08353.4457,W,0.27,45.68,130620,,,A*43
$GPRMC,151219.480,A,4028.4781,N,08353.4445,W,0.18,55.15,130620,,,A*4C
$GPRMC,151220.480,A,4028.4783,N,08353.4444,W,0.25,46.34,130620,,,A*4A
$GPRMC,151221.480,A,4028.4781,N,08353.4438,W,0.09,28.10,130620,,,D*47
$GPRMC,151222.480,A,4028.4784,N,08353.4441,W,0.31,42.82,130620,,,D*43
$GPRMC,151223.480,A,4028.4782,N,08353.4438,W,0.21,243.55,130620,,,D*72
$GPRMC,151224.480,A,4028.4778,N,08353.4437,W,0.11,1.17,130620,,,D*7E
$GPRMC,151225.480,A,4028.4778,N,08353.4435,W,0.19,70.40,130620,,,D*41
$GPRMC,151226.480,A,4028.4777,N,08353.4434,W,0.03,235.14,130620,,,D*75
$GPRMC,151227.480,A,4028.4777,N,08353.4429,W,0.17,39.86,130620,,,D*48
$GPRMC,151228.480,A,4028.4779,N,08353.4425,W,0.17,211.76,130620,,,D*72
$GPRMC,151229.480,A,4028.4773,N,08353.4421,W,0.24,340.82,130620,,,D*73
$GPRMC,151230.480,A,4028.4769,N,08353.4419,W,0.14,7.07,130620,,,D*75
$GPRMC,151231.480,A,4028.4773,N,08353.4420,W,0.24,309.41,130620,,,D*79
$GPRMC,151232.480,A,4028.4776,N,08353.4420,W,0.58,337.34,130620,,,D*7B
$GPRMC,151233.480,A,4028.4773,N,08353.4416,W,0.17,243.29,130620,,,D*7F
$GPRMC,151234.480,A,4028.4775,N,08353.4414,W,0.31,325.29,130620,,,D*79
$GPRMC,151235.480,A,4028.4779,N,08353.4413,W,0.14,287.50,130620,,,D*73
$GPRMC,151236.480,A,4028.4780,N,08353.4411,W,0.17,288.80,130620,,,D*75
$GPRMC,151237.480,A,4028.4782,N,08353.4409,W,0.09,320.86,130620,,,D*75
$GPRMC,151238.480,A,4028.4784,N,08353.4409,W,0.27,242.81,130620,,,D*72
$GPRMC,151239.480,A,4028.4786,N,08353.4408,W,0.12,263.30,130620,,,D*7F
$GPRMC,151240.480,A,4028.4790,N,08353.4408,W,0.25,227.61,130620,,,D*76
$GPRMC,151241.480,A,4028.4791,N,08353.4407,W,0.13,243.55,130620,,,D*79
$GPRMC,151242.480,A,4028.4790,N,08353.4406,W,0.28,198.37,130620,,,D*73
$GPRMC,151243.480,A,4028.4790,N,08353.4407,W,0.19,252.36,130620,,,D*75
$GPRMC,151244.480,A,4028.4791,N,08353.4410,W,0.21,249.92,130620,,,D*7A
$GPRMC,151245.480,A,4028.4791,N,08353.4410,W,0.24,282.60,130620,,,D*74
$GPRMC,151246.480,A,4028.4790,N,08353.4410,W,0.27,224.98,130620,,,D*7E
$GPRMC,151247.480,A,4028.4790,N,08353.4411,W,0.23,233.98,130620,,,D*7C
$GPRMC,151248.480,A,4028.4790,N,08353.4411,W,0.21,260.13,130620,,,D*74
$GPRMC,151249.480,A,4028.4791,N,08353.4411,W,0.22,269.16,130620,,,D*7B
$GPRMC,151250.480,A,4028.4791,N,08353.4412,W,0.21,227.31,130620,,,D*7C
$GPRMC,151251.480,A,4028.4791,N,08353.4413,W,0.23,246.40,130620,,,D*7F
$GPRMC,151252.480,A,4028.4885,N,08353.4418,W,0.35,214.76,130620,,,D*78
$GPRMC,151253.480,A,4028.4924,N,08353.4422,W,0.18,306.63,130620,,,D*73
$GPRMC,151254.480,A,4028.4910,N,08353.4421,W,0.08,319.29,130620,,,D*71
$GPRMC,151255.480,A,4028.4814,N,08353.4415,W,0.63,183.85,130620,,,D*78
$GPRMC,151256.480,A,4028.4906,N,08353.4420,W,1.63,353.82,130620,,,D*76
$GPRMC,151257.480,A,4028.5051,N,08353.4430,W,0.27,304.80,130620,,,D*7D
$GPRMC,151258.480,A,4028.4865,N,08353.4419,W,1.05,351.33,130620,,,D*7E
$GPRMC,151259.480,A,4028.4908,N,08353.4421,W,0.06,322.29,130620,,,D*73
$GPRMC,151300.480,A,4028.4879,N,08353.4419,W,0.27,343.70,130620,,,D*7A
$GPRMC,151301.480,A,4028.4850,N,08353.4417,W,0.12,0.26,130620,,,D*7F
$GPRMC,151302.480,A,4028.4844,N,08353.4417,W,0.07,343.08,130620,,,D*75
$GPRMC,151303.480,A,4028.4838,N,08353.4419,W,0.12,328.84,130620,,,D*7C
$GPRMC,151304.480,A,4028.4839,N,08353.4416,W,0.07,57.13,130620,,,D*44
$GPRMC,151305.480,A,4028.4840,N,08353.4417,W,0.15,148.68,130620,,,D*7A
$GPRMC,151306.480,A,4028.4917,N,08353.4422,W,0.28,169.63,130620,,,D*7A
$GPRMC,151307.480,A,4028.5052,N,08353.4429,W,1.64,172.73,130620,,,D*7B
$GPRMC,151308.480,A,4028.5026,N,08353.4425,W,1.00,0.52,130620,,,D*7E
$GPRMC,151309.480,A,4028.4993,N,08353.4422,W,0.22,91.41,130620,,,D*45
$GPRMC,151310.480,A,4028.4922,N,08353.4418,W,2.33,173.64,130620,,,D*76
$GPRMC,151311.480,A,4028.4822,N,08353.4412,W,0.30,134.47,130620,,,D*7F
$GPRMC,151312.480,A,4028.4810,N,08353.4411,W,0.17,93.97,130620,,,D*4A
$GPRMC,151313.480,A,4028.4789,N,08353.4409,W,0.10,33.54,130620,,,D*4F
$GPRMC,151314.480,A,4028.4782,N,08353.4408,W,0.12,104.67,130620,,,D*75
$GPRMC,151315.480,A,4028.4783,N,08353.4411,W,0.18,339.18,130620,,,D*73
$GPRMC,151316.480,A,4028.4788,N,08353.4414,W,0.16,303.40,130620,,,D*74
$GPRMC,151317.480,A,4028.4795,N,08353.4414,W,0.18,320.81,130620,,,D*7B
$GPRMC,151318.480,A,4028.4796,N,08353.4414,W,0.21,313.26,130620,,,D*70
$GPRMC,151319.480,A,4028.4794,N,08353.4414,W,0.13,295.52,130620,,,D*7E
$GPRMC,151320.480,A,4028.4789,N,08353.4414,W,0.34,329.75,130620,,,D*7E
$GPRMC,151321.480,A,4028.4782,N,08353.4412,W,0.09,195.67,130620,,,D*7A
$GPRMC,151322.480,A,4028.4782,N,08353.4414,W,0.11,285.41,130620,,,D*70
$GPRMC,151323.480,A,4028.4781,N,08353.4414,W,0.21,318.89,130620,,,D*70
$GPRMC,151324.480,A,4028.4780,N,08353.4415,W,0.07,237.01,130620,,,D*7F
$GPRMC,151325.480,A,4028.4768,N,08353.4415,W,0.35,338.06,130620,,,D*70
$GPRMC,151326.480,A,4028.4825,N,08353.4421,W,0.68,338.85,130620,,,D*71
$GPRMC,151327.480,A,4028.4943,N,08353.4430,W,0.32,218.17,130620,,,D*76
$GPRMC,151328.480,A,4028.4862,N,08353.4424,W,0.27,335.45,130620,,,D*73
$GPRMC,151329.480,A,4028.4872,N,08353.4425,W,0.20,304.52,130620,,,D*71
$GPRMC,151330.480,A,4028.4918,N,08353.4427,W,2.62,178.14,130620,,,D*79
$GPRMC,151331.480,A,4028.5201,N,08353.4447,W,0.35,204.15,130620,,,D*75
$GPRMC,151332.480,A,4028.5405,N,08353.4460,W,1.27,181.62,130620,,,D*7D
$GPRMC,151333.480,A,4028.5496,N,08353.4467,W,0.72,192.69,130620,,,D*79
$GPRMC,151334.480,A,4028.5421,N,08353.4460,W,0.89,187.44,130620,,,D*7A
$GPRMC,151335.480,A,4028.5472,N,08353.4464,W,0.99,183.15,130620,,,D*78
$GPRMC,151336.480,A,4028.5535,N,08353.4470,W,1.12,188.80,130620,,,D*79
$GPRMC,151337.480,A,4028.5322,N,08353.4455,W,1.27,354.58,130620,,,D*7F
$GPRMC,151338.480,A,4028.5211,N,08353.4445,W,0.19,350.10,130620,,,D*74
$GPRMC,151339.480,A,4028.5181,N,08353.4441,W,0.16,155.31,130620,,,D*70
$GPRMC,151340.480,A,4028.5143,N,08353.4438,W,0.27,351.78,130620,,,D*77
$GPRMC,151341.480,A,4028.5028,N,08353.4429,W,0.26,6.42,130620,,,D*73
$GPRMC,151342.480,A,4028.4942,N,08353.4422,W,0.05,343.50,130620,,,D*7F
$GPRMC,151343.480,A,4028.4896,N,08353.4419,W,0.05,107.98,130620,,,D*78
$GPRMC,151344.480,A,4028.4919,N,08353.4421,W,0.07,60.60,130620,,,D*47
$GPRMC,151345.480,A,4028.4934,N,08353.4421,W,0.10,88.29,130620,,,D*44
$GPRMC,151346.480,A,4028.4963,N,08353.4427,W,0.08,283.52,130620,,,D*7F
$GPRMC,151347.480,A,4028.4963,N,08353.4426,W,0.17,63.29,130620,,,D*41
$GPRMC,151348.480,A,4028.4970,N,08353.4426,W,0.45,169.13,130620,,,D*79
$GPRMC,151349.480,A,4028.5027,N,08353.4430,W,0.06,249.81,130620,,,D*78
$GPRMC,151350.480,A,4028.5015,N,08353.4432,W,0.18,252.92,130620,,,D*74
$GPRMC,151351.480,A,4028.4980,N,08353.4427,W,0.10,0.32,130620,,,D*72
$GPRMC,151352.480,A,4028.4958,N,08353.4425,W,0.20,334.17,130620,,,D*76
$GPRMC,151353.480,A,4028.4933,N,08353.4422,W,0.11,273.97,130620,,,D*75
$GPRMC,151354.480,A,4028.4904,N,08353.4420,W,0.19,301.86,130620,,,D*78
$GPRMC,151355.480,A,4028.4897,N,08353.4419,W,0.15,239.71,130620,,,D*76
$GPRMC,151356.480,A,4028.4899,N,08353.4420,W,0.19,327.06,130620,,,D*73
$GPRMC,151357.480,A,4028.4904,N,08353.4418,W,0.08,0.36,130620,,,D*79
$GPRMC,151358.480,A,4028.4913,N,08353.4422,W,0.13,283.43,130620,,,D*78
$GPRMC,151359.480,A,4028.4918,N,08353.4423,W,0.06,266.53,130620,,,D*7D
$GPRMC,151400.480,A,4028.4920,N,08353.4423,W,0.13,356.93,130620,,,D*77
$GPRMC,151401.480,A,4028.4926,N,08353.4424,W,0.19,297.69,130620,,,D*74
$GPRMC,151402.480,A,4028.4929,N,08353.4424,W,0.19,13.83,130620,,,D*42
$GPRMC,151403.480,A,4028.4931,N,08353.4427,W,0.13,264.53,130620,,,D*7C
$GPRMC,151404.480,A,4028.4930,N,08353.4424,W,0.21,335.96,130620,,,D*74
$GPRMC,151405.480,A,4028.4929,N,08353.4424,W,0.12,319.92,130620,,,D*77
$GPRMC,151406.480,A,4028.4926,N,08353.4424,W,0.11,309.53,130620,,,D*74
$GPRMC,151407.480,A,4028.4924,N,08353.4423,W,0.13,288.26,130620,,,D*78
$GPRMC,151408.479,A,4028.4919,N,08353.4421,W,0.15,180.81,130620,,,D*7D
$GPRMC,151409.479,A,4028.4918,N,08353.4420,W,0.17,178.75,130620,,,D*72
$GPRMC,151410.479,A,4028.4917,N,08353.4420,W,0.06,142.49,130620,,,D*73
$GPRMC,151411.479,A,4028.4916,N,08353.4419,W,0.27,140.83,130620,,,D*7E
$GPRMC,151412.479,A,4028.4766,N,08353.4406,W,0.55,10.93,130620,,,D*4A
$GPRMC,151413.479,A,4028.4845,N,08353.4412,W,0.41,143.69,130620,,,D*77
$GPRMC,151414.479,A,4028.4906,N,08353.4417,W,0.56,154.65,130620,,,D*7F
$GPRMC,151415.479,A,4028.5003,N,08353.4428,W,0.48,170.07,130620,,,D*72
$GPRMC,151416.479,A,4028.5043,N,08353.4434,W,0.06,63.89,130620,,,D*47
$GPRMC,151417.479,A,4028.4985,N,08353.4430,W,0.12,307.22,130620,,,D*75
$GPRMC,151418.479,A,4028.4943,N,08353.4426,W,0.03,72.62,130620,,,D*42
$GPRMC,151419.479,A,4028.4935,N,08353.4425,W,0.10,260.58,130620,,,D*7B
$GPRMC,151420.479,A,4028.4920,N,08353.4420,W,0.17,138.34,130620,,,D*73
$GPRMC,151421.479,A,4028.4835,N,08353.4412,W,0.47,181.17,130620,,,D*70
$GPRMC,151422.479,A,4028.4783,N,08353.4407,W,0.06,201.19,130620,,,D*75
$GPRMC,151423.479,A,4028.4743,N,08353.4403,W,0.07,248.88,130620,,,D*78
$GPRMC,151424.479,A,4028.4712,N,08353.4401,W,0.27,357.71,130620,,,D*72
$GPRMC,151425.479,A,4028.4791,N,08353.4408,W,0.04,238.82,130620,,,D*74
$GPRMC,151426.479,A,4028.4793,N,08353.4408,W,0.09,303.57,130620,,,D*79
$GPRMC,151427.479,A,4028.4790,N,08353.4412,W,0.20,318.20,130620,,,D*71
$GPRMC,151428.479,A,4028.4796,N,08353.4413,W,0.36,322.89,130620,,,D*74
$GPRMC,151429.479,A,4028.4803,N,08353.4415,W,0.18,305.07,130620,,,D*7F
$GPRMC,151430.479,A,4028.4807,N,08353.4416,W,0.14,273.97,130620,,,D*75
$GPRMC,151431.479,A,4028.4804,N,08353.4417,W,0.23,307.22,130620,,,D*7E
$GPRMC,151432.479,A,4028.4803,N,08353.4415,W,0.03,224.66,130620,,,D*7A
$GPRMC,151433.479,A,4028.4806,N,08353.4416,W,0.13,293.49,130620,,,D*7D
$GPRMC,151434.479,A,4028.4409,N,08353.4053,W,0.10,194.84,130620,,,D*7A
$GPRMC,151435.479,A,4028.4410,N,08353.4043,W,0.11,178.74,130620,,,D*7E
$GPRMC,151436.479,A,4028.4412,N,08353.4049,W,0.10,197.54,130620,,,D*77
$GPRMC,151437.000,A,4028.4412,N,08353.4050,W,0.10,128.42,130620,,,D*77
$GPRMC,151438.000,A,4028.4411,N,08353.4051,W,0.09,213.03,130620,,,D*7C
$GPRMC,151439.000,A,4028.4410,N,08353.4053,W,0.05,265.69,130620,,,D*7F
$GPRMC,151440.000,A,4028.4409,N,08353.4053,W,0.12,125.05,130620,,,D*72
$GPRMC,151441.000,A,4028.4409,N,08353.4053,W,0.03,109.90,130620,,,D*71
$GPRMC,151442.000,A,4028.4408,N,08353.4053,W,0.21,145.44,130620,,,D*72
$GPRMC,151443.000,A,4028.4408,N,08353.4052,W,0.23,135.83,130620,,,D*7C
$GPRMC,151444.000,A,4028.4408,N,08353.4052,W,0.15,129.18,130620,,,D*71
$GPRMC,151445.000,A,4028.4408,N,08353.4051,W,0.25,131.76,130620,,,D*71
$GPRMC,151446.000,A,4028.4409,N,08353.4051,W,0.14,117.54,130620,,,D*75
$GPRMC,151447.000,A,4028.4411,N,08353.4052,W,0.36,7.84,130620,,,D*73
$GPRMC,151448.000,A,4028.4413,N,08353.4052,W,0.24,22.98,130620,,,D*47
$GPRMC,151449.000,A,4028.4415,N,08353.4051,W,0.33,12.91,130620,,,D*4F
$GPRMC,151450.000,A,4028.4416,N,08353.4051,W,0.18,59.94,130620,,,D*47
$GPRMC,151451.000,A,4028.4436,N,08353.4055,W,0.66,8.72,130620,,,D*75
$GPRMC,151452.000,A,4028.4452,N,08353.4057,W,0.60,15.88,130620,,,D*49
$GPRMC,151453.000,A,4028.4462,N,08353.4058,W,0.51,25.52,130620,,,D*42
$GPRMC,151454.000,A,4028.4467,N,08353.4058,W,0.30,31.45,130620,,,D*44
$GPRMC,151455.000,A,4028.4472,N,08353.4058,W,0.29,55.10,130620,,,D*4B
$GPRMC,151456.000,A,4028.4477,N,08353.4056,W,0.37,75.22,130620,,,D*4F
$GPRMC,151457.000,A,4028.4484,N,08353.4051,W,0.40,53.90,130620,,,D*48
$GPRMC,151458.000,A,4028.4489,N,08353.4049,W,0.37,33.67,130620,,,D*4D
$GPRMC,151459.000,A,4028.4492,N,08353.4048,W,0.15,339.58,130620,,,D*72
$GPRMC,151500.000,A,4028.4493,N,08353.4048,W,0.10,336.12,130620,,,D*7A
$GPRMC,151501.000,A,4028.4494,N,08353.4047,W,0.04,137.44,130620,,,D*76
$GPRMC,151502.000,A,4028.4494,N,08353.4046,W,0.12,101.36,130620,,,D*73
$GPRMC,151503.000,A,4028.4493,N,08353.4045,W,0.21,63.49,130620,,,D*4B
$GPRMC,151504.000,A,4028.4498,N,08353.4045,W,0.33,60.43,130620,,,D*4D
$GPRMC,151505.000,A,4028.4499,N,08353.4044,W,0.51,20.61,130620,,,D*4C
$GPRMC,151506.000,A,4028.4497,N,08353.4042,W,0.26,57.38,130620,,,D*4B
$GPRMC,151507.000,A,4028.4496,N,08353.4041,W,0.24,89.25,130620,,,D*45
$GPRMC,151508.000,A,4028.4495,N,08353.4041,W,0.22,105.56,130620,,,D*7E
$GPRMC,151509.000,A,4028.4493,N,08353.4040,W,0.24,128.86,130620,,,D*7C
$GPRMC,151510.000,A,4028.4487,N,08353.4039,W,0.33,144.13,130620,,,D*7F
$GPRMC,151511.000,A,4028.4475,N,08353.4038,W,0.83,163.16,130620,,,D*79
$GPRMC,151512.000,A,4028.4471,N,08353.4037,W,0.32,163.42,130620,,,D*7A
$GPRMC,151513.000,A,4028.4468,N,08353.4037,W,0.17,162.93,130620,,,D*79
$GPRMC,151514.000,A,4028.4467,N,08353.4038,W,0.43,150.16,130620,,,D*73
$GPRMC,151515.000,A,4028.4467,N,08353.4038,W,0.16,183.43,130620,,,D*7C
$GPRMC,151516.000,A,4028.4467,N,08353.4039,W,0.07,271.13,130620,,,D*75
$GPRMC,151517.000,A,4028.4466,N,08353.4039,W,0.05,252.85,130620,,,D*79
$GPRMC,151518.000,A,4028.4465,N,08353.4039,W,0.17,209.29,130620,,,D*7E
$GPRMC,151519.000,A,4028.4464,N,08353.4040,W,0.14,203.12,130620,,,D*71
$GPRMC,151520.000,A,4028.4463,N,08353.4040,W,0.20,170.89,130620,,,D*7E
$GPRMC,151521.000,A,4028.4461,N,08353.4040,W,0.32,148.51,130620,,,D*70
$GPRMC,151522.000,A,4028.4461,N,08353.4040,W,0.08,182.35,130620,,,D*7E
$GPRMC,151523.000,A,4028.4460,N,08353.4041,W,0.21,178.79,130620,,,D*79
$GPRMC,151524.000,A,4028.4460,N,08353.4041,W,0.09,172.03,130620,,,D*73
$GPRMC,151525.000,A,4028.4459,N,08353.4041,W,0.15,183.48,130620,,,D*74
$GPRMC,151526.000,A,4028.4459,N,08353.4041,W,0.18,141.36,130620,,,D*7D
$GPRMC,151527.000,A,4028.4458,N,08353.4041,W,0.07,290.43,130620,,,D*7E
$GPRMC,151528.000,A,4028.4458,N,08353.4041,W,0.07,114.87,130620,,,D*76
$GPRMC,151529.000,A,4028.4457,N,08353.4041,W,0.13,151.58,130620,,,D*7E
$GPRMC,151530.000,A,4028.4456,N,08353.4041,W,0.09,113.06,130620,,,D*71
$GPRMC,151531.000,A,4028.4455,N,08353.4040,W,0.15,134.39,130620,,,D*76
$GPRMC,151532.000,A,4028.4454,N,08353.4040,W,0.19,155.03,130620,,,D*76
$GPRMC,151533.000,A,4028.4452,N,08353.4040,W,0.30,148.85,130620,,,D*78
$GPRMC,151534.000,A,4028.4450,N,08353.4039,W,0.27,159.95,130620,,,D*74
$GPRMC,151535.000,A,4028.4449,N,08353.4039,W,0.17,139.35,130620,,,D*72
$GPRMC,151536.000,A,4028.4448,N,08353.4039,W,0.12,141.56,130620,,,D*7F
$GPRMC,151537.000,A,4028.4446,N,08353.4039,W,0.25,157.29,130620,,,D*7B
$GPRMC,151538.000,A,4028.4445,N,08353.4039,W,0.21,154.26,130620,,,D*7F
$GPRMC,151539.000,A,4028.4445,N,08353.4039,W,0.21,258.14,130620,,,D*70
$GPRMC,151540.000,A,4028.4445,N,08353.4041,W,0.09,237.72,130620,,,D*72
$GPRMC,151541.000,A,4028.4444,N,08353.4041,W,0.04,223.52,130620,,,D*78
$GPRMC,151542.000,A,4028.4443,N,08353.4042,W,0.18,246.73,130620,,,D*72
$GPRMC,151543.000,A,4028.4443,N,08353.4042,W,0.12,282.94,130620,,,D*78
$GPRMC,151544.000,A,4028.4442,N,08353.4043,W,0.18,265.05,130620,,,D*74
$GPRMC,151545.000,A,4028.4441,N,08353.4044,W,0.19,254.11,130620,,,D*77
$GPRMC,151546.000,A,4028.4441,N,08353.4044,W,0.21,259.96,130620,,,D*7D
$GPRMC,151547.000,A,4028.4440,N,08353.4045,W,0.23,219.39,130620,,,D*7F
$GPRMC,151548.000,A,4028.4439,N,08353.4045,W,0.14,204.13,130620,,,D*7E
$GPRMC,151549.000,A,4028.4437,N,08353.4045,W,0.29,215.11,130620,,,D*7D
$GPRMC,151550.000,A,4028.4436,N,08353.4045,W,0.29,239.38,130620,,,D*71
$GPRMC,151551.000,A,4028.4435,N,08353.4046,W,0.32,226.10,130620,,,D*7E
$GPRMC,151552.000,A,4028.4432,N,08353.4047,W,0.25,288.00,130620,,,D*78
$GPRMC,151553.000,A,4028.4422,N,08353.4046,W,0.24,249.02,130620,,,D*77
$GPRMC,151554.000,A,4028.4421,N,08353.4047,W,0.37,289.15,130620,,,D*7A
$GPRMC,151555.000,A,4028.4420,N,08353.4048,W,0.32,290.18,130620,,,D*75
$GPRMC,151556.000,A,4028.4421,N,08353.4050,W,0.30,288.48,130620,,,D*70
$GPRMC,151557.000,A,4028.4423,N,08353.4052,W,0.45,311.04,130620,,,D*7A
$GPRMC,151558.000,A,4028.4426,N,08353.4054,W,0.24,289.46,130620,,,D*77
$GPRMC,151559.000,A,4028.4428,N,08353.4056,W,0.31,316.14,130620,,,D*7E
$GPRMC,151600.000,A,4028.4430,N,08353.4055,W,0.21,316.36,130620,,,D*7A
$GPRMC,151601.000,A,4028.4429,N,08353.4051,W,0.31,22.56,130620,,,D*44
$GPRMC,151602.000,A,4028.4427,N,08353.4047,W,0.09,130.95,130620,,,D*78
$GPRMC,151603.000,A,4028.4425,N,08353.4044,W,0.11,63.86,130620,,,D*44
$GPRMC,151604.000,A,4028.4426,N,08353.4045,W,0.13,331.03,130620,,,D*7A
$GPRMC,151605.000,A,4028.4424,N,08353.4046,W,0.19,241.67,130620,,,D*74
$GPRMC,151606.000,A,4028.4425,N,08353.4051,W,0.24,293.23,130620,,,D*71
$GPRMC,151607.000,A,4028.4426,N,08353.4055,W,0.26,327.86,130620,,,D*74
$GPRMC,151608.000,A,4028.4427,N,08353.4058,W,0.23,297.57,130620,,,D*74
$GPRMC,151609.000,A,4028.4427,N,08353.4059,W,0.10,315.76,130620,,,D*7C
$GPRMC,151610.000,A,4028.4421,N,08353.4060,W,0.13,268.71,130620,,,D*77
$GPRMC,151611.000,A,4028.4413,N,08353.4060,W,0.51,170.22,130620,,,D*7D
$GPRMC,151612.000,A,4028.4407,N,08353.4060,W,0.06,192.38,130620,,,D*7E
$GPRMC,151613.000,A,4028.4401,N,08353.4060,W,0.06,257.51,130620,,,D*7C
$GPRMC,151614.000,A,4028.4398,N,08353.4060,W,0.11,331.51,130620,,,D*7B
$GPRMC,151615.000,A,4028.4395,N,08353.4060,W,0.13,299.19,130620,,,D*7A
$GPRMC,151616.000,A,4028.4392,N,08353.4061,W,0.04,219.75,130620,,,D*7B
$GPRMC,151617.000,A,4028.4390,N,08353.4062,W,0.08,160.46,130620,,,D*7A
$GPRMC,151618.000,A,4028.4393,N,08353.4062,W,0.11,169.19,130620,,,D*7D
$GPRMC,151619.000,A,4028.4393,N,08353.4062,W,0.20,170.82,130620,,,D*74
$GPRMC,151620.000,A,4028.4393,N,08353.4063,W,0.12,160.55,130620,,,D*75
$GPRMC,151621.000,A,4028.4392,N,08353.4063,W,0.20,156.06,130620,,,D*77
$GPRMC,151622.000,A,4028.4391,N,08353.4063,W,0.12,169.09,130620,,,D*75
$GPRMC,151623.000,A,4028.4391,N,08353.4064,W,0.13,168.95,130620,,,D*76
$GPRMC,151624.000,A,4028.4390,N,08353.4065,W,0.09,166.03,130620,,,D*7B
$GPRMC,151625.000,A,4028.4389,N,08353.4065,W,0.12,169.54,130620,,,D*75
$GPRMC,151626.000,A,4028.4388,N,08353.4066,W,0.13,163.04,130620,,,D*7A
$GPRMC,151627.000,A,4028.4387,N,08353.4067,W,0.15,170.98,130620,,,D*74
$GPRMC,151628.000,A,4028.4385,N,08353.4068,W,0.22,160.50,130620,,,D*77
$GPRMC,151629.000,A,4028.4384,N,08353.4069,W,0.21,181.01,130620,,,D*7E
$GPRMC,151630.000,A,4028.4383,N,08353.4069,W,0.23,174.28,130620,,,D*72
$GPRMC,151631.000,A,4028.4382,N,08353.4070,W,0.20,175.70,130620,,,D*75
$GPRMC,151632.000,A,4028.4381,N,08353.4070,W,0.28,167.67,130620,,,D*78
$GPRMC,151633.000,A,4028.4380,N,08353.4070,W,0.21,171.50,130620,,,D*72
$GPRMC,151634.000,A,4028.4379,N,08353.4071,W,0.15,169.37,130620,,,D*7D
$GPRMC,151635.000,A,4028.4379,N,08353.4071,W,0.11,56.83,130620,,,D*4A
$GPRMC,151636.000,A,4028.4379,N,08353.4071,W,0.13,35.56,130620,,,D*46
$GPRMC,151637.000,A,4028.4387,N,08353.4072,W,0.20,15.81,130620,,,D*4D
$GPRMC,151638.000,A,4028.4389,N,08353.4074,W,0.36,152.08,130620,,,D*7E
$GPRMC,151639.000,A,4028.4391,N,08353.4075,W,0.07,101.93,130620,,,D*71
$GPRMC,151640.000,A,4028.4395,N,08353.4076,W,0.24,133.87,130620,,,D*7D
$GPRMC,151641.000,A,4028.4399,N,08353.4076,W,0.28,139.58,130620,,,D*74
$GPRMC,151642.000,A,4028.4399,N,08353.4076,W,0.30,135.61,130620,,,D*78
$GPRMC,151643.000,A,4028.4397,N,08353.4076,W,0.29,116.11,130620,,,D*79
$GPRMC,151644.000,A,4028.4398,N,08353.4075,W,0.41,128.38,130620,,,D*7A
$GPRMC,151645.000,A,4028.4399,N,08353.4074,W,0.45,117.23,130620,,,D*79
$GPRMC,151646.000,A,4028.4400,N,08353.4073,W,0.30,105.31,130620,,,D*78
$GPRMC,151647.000,A,4028.4400,N,08353.4073,W,0.32,109.33,130620,,,D*75
$GPRMC,151648.000,A,4028.4400,N,08353.4072,W,0.42,116.06,130620,,,D*74
$GPRMC,151649.000,A,4028.4400,N,08353.4071,W,0.38,123.85,130620,,,D*76
$GPRMC,151650.000,A,4028.4400,N,08353.4070,W,0.47,120.95,130620,,,D*75
$GPRMC,151651.000,A,4028.4402,N,08353.4068,W,0.32,103.97,130620,,,D*7E
$GPRMC,151652.000,A,4028.4401,N,08353.4066,W,0.60,125.76,130620,,,D*7C
$GPRMC,151653.000,A,4028.4403,N,08353.4065,W,0.57,119.61,130620,,,D*71
$GPRMC,151654.000,A,4028.4406,N,08353.4064,W,0.33,118.53,130620,,,D*70
$GPRMC,151655.000,A,4028.4410,N,08353.4064,W,0.42,111.63,130620,,,D*7A
$GPRMC,151656.000,A,4028.4413,N,08353.4064,W,0.40,125.11,130620,,,D*7A
$GPRMC,151657.000,A,4028.4415,N,08353.4064,W,0.27,130.08,130620,,,D*70
$GPRMC,151658.000,A,4028.4421,N,08353.4065,W,0.23,40.55,130620,,,D*43
$GPRMC,151659.000,A,4028.4429,N,08353.4068,W,0.16,62.68,130620,,,D*4F
$GPRMC,151700.000,A,4028.4431,N,08353.4068,W,0.36,104.88,130620,,,D*76
$GPRMC,151701.000,A,4028.4434,N,08353.4067,W,0.34,8.56,130620,,,D*71
$GPRMC,151702.000,A,4028.4436,N,08353.4067,W,0.39,12.47,130620,,,D*46
$GPRMC,151703.000,A,4028.4438,N,08353.4066,W,0.27,68.48,130620,,,D*45
$GPRMC,151704.000,A,4028.4437,N,08353.4064,W,0.20,75.66,130620,,,D*48
$GPRMC,151705.000,A,4028.4437,N,08353.4062,W,0.22,83.72,130620,,,D*41
$GPRMC,151706.000,A,4028.4438,N,08353.4061,W,0.18,105.69,130620,,,D*72
$GPRMC,151707.000,A,4028.4440,N,08353.4062,W,0.06,48.64,130620,,,D*45
$GPRMC,151708.000,A,4028.4443,N,08353.4062,W,0.07,90.04,130620,,,D*4B
$GPRMC,151709.000,A,4028.4441,N,08353.4060,W,0.16,141.31,130620,,,D*71
$GPRMC,151710.000,A,4028.4438,N,08353.4058,W,0.08,122.69,130620,,,D*7B
$GPRMC,151711.000,A,4028.4433,N,08353.4055,W,0.20,145.84,130620,,,D*74
$GPRMC,151712.000,A,4028.4427,N,08353.4052,W,0.19,180.60,130620,,,D*7C
$GPRMC,151713.000,A,4028.4423,N,08353.4050,W,0.13,172.45,130620,,,D*7B
$GPRMC,151714.000,A,4028.4419,N,08353.4048,W,0.17,149.77,130620,,,D*71
$GPRMC,151715.000,A,4028.4416,N,08353.4046,W,0.20,152.65,130620,,,D*7C
$GPRMC,151716.000,A,4028.4414,N,08353.4044,W,0.21,129.06,130620,,,D*77
$GPRMC,151717.000,A,4028.4414,N,08353.4044,W,0.25,121.74,130620,,,D*7F
$GPRMC,151718.000,A,4028.4412,N,08353.4043,W,0.27,102.70,130620,,,D*76
$GPRMC,151719.000,A,4028.4411,N,08353.4041,W,0.42,3.47,130620,,,D*71
$GPRMC,151720.000,A,4028.4407,N,08353.4038,W,0.26,93.62,130620,,,D*4E
$GPRMC,151721.000,A,4028.4406,N,08353.4036,W,0.28,91.02,130620,,,D*4A
$GPRMC,151722.000,A,4028.4406,N,08353.4036,W,0.18,66.98,130620,,,D*41
$GPRMC,151723.000,A,4028.4408,N,08353.4036,W,0.23,55.48,130620,,,D*4B
$GPRMC,151724.000,A,4028.4406,N,08353.4032,W,0.38,22.64,130620,,,D*42
$GPRMC,151725.000,A,4028.4410,N,08353.4032,W,0.26,12.74,130620,,,D*49
$GPRMC,151726.000,A,4028.4413,N,08353.4033,W,0.29,15.76,130620,,,D*42
$GPRMC,151727.000,A,4028.4414,N,08353.4033,W,0.16,40.83,130620,,,D*42
$GPRMC,151728.000,A,4028.4414,N,08353.4032,W,0.25,140.22,130620,,,D*76
$GPRMC,151729.000,A,4028.4414,N,08353.4031,W,0.13,60.88,130620,,,D*42
$GPRMC,151730.000,A,4028.4413,N,08353.4030,W,0.19,109.41,130620,,,D*7D
$GPRMC,151731.000,A,4028.4413,N,08353.4029,W,0.17,111.83,130620,,,D*7D
$GPRMC,151732.000,A,4028.4413,N,08353.4029,W,0.23,126.03,130620,,,D*75
$GPRMC,151733.000,A,4028.4412,N,08353.4028,W,0.30,130.65,130620,,,D*71
$GPRMC,151734.000,A,4028.4412,N,08353.4028,W,0.15,119.25,130620,,,D*7E
$GPRMC,151735.000,A,4028.4412,N,08353.4029,W,0.07,84.93,130620,,,D*45
$GPRMC,151736.000,A,4028.4412,N,08353.4029,W,0.09,96.30,130620,,,D*42
$GPRMC,151737.000,A,4028.4412,N,08353.4029,W,0.05,121.39,130620,,,D*7B
$GPRMC,151738.000,A,4028.4413,N,08353.4030,W,0.04,293.30,130620,,,D*7F
$GPRMC,151739.000,A,4028.4413,N,08353.4030,W,0.11,29.79,130620,,,D*44
$GPRMC,151740.000,A,4028.4413,N,08353.4031,W,0.11,38.40,130620,,,D*41
$GPRMC,151741.000,A,4028.4413,N,08353.4031,W,0.09,80.62,130620,,,D*4A
$GPRMC,151742.000,A,4028.4413,N,08353.4031,W,0.12,95.95,130620,,,D*4F
$GPRMC,151743.000,A,4028.4413,N,08353.4031,W,0.06,78.66,130620,,,D*44
$GPRMC,151744.000,A,4028.4413,N,08353.4031,W,0.07,101.66,130620,,,D*7D
$GPRMC,151745.000,A,4028.4413,N,08353.4032,W,0.08,102.07,130620,,,D*74
$GPRMC,151746.000,A,4028.4414,N,08353.4032,W,0.05,326.54,130620,,,D*7F
$GPRMC,151747.000,A,4028.4414,N,08353.4033,W,0.14,317.31,130620,,,D*7E
$GPRMC,151748.000,A,4028.4415,N,08353.4034,W,0.16,305.69,130620,,,D*7B
$GPRMC,151749.000,A,4028.4415,N,08353.4035,W,0.17,271.27,130620,,,D*72
$GPRMC,151750.000,A,4028.4415,N,08353.4036,W,0.12,327.84,130620,,,D*77
$GPRMC,151751.000,A,4028.4416,N,08353.4037,W,0.16,302.43,130620,,,D*7C
$GPRMC,151752.000,A,4028.4416,N,08353.4038,W,0.15,310.85,130620,,,D*7A
$GPRMC,151753.000,A,4028.4416,N,08353.4039,W,0.08,347.82,130620,,,D*73
$GPRMC,151754.000,A,4028.4416,N,08353.4039,W,0.11,312.16,130620,,,D*71
$GPRMC,151755.000,A,4028.4416,N,08353.4040,W,0.06,326.96,130620,,,D*77
$GPRMC,151756.000,A,4028.4417,N,08353.4040,W,0.07,347.82,130620,,,D*76
$GPRMC,151757.000,A,4028.4417,N,08353.4041,W,0.09,332.30,130620,,,D*73
$GPRMC,151758.000,A,4028.4417,N,08353.4042,W,0.15,304.30,130620,,,D*77
$GPRMC,151759.000,A,4028.4417,N,08353.4043,W,0.21,292.71,130620,,,D*7B
$GPRMC,151800.000,A,4028.4417,N,08353.4043,W,0.18,301.01,130620,,,D*7E
$GPRMC,151801.000,A,4028.4417,N,08353.4043,W,0.08,290.36,130620,,,D*73
$GPRMC,151802.000,A,4028.4417,N,08353.4044,W,0.19,308.75,130620,,,D*70
$GPRMC,151803.000,A,4028.4417,N,08353.4045,W,0.11,258.75,130620,,,D*7C
$GPRMC,151804.000,A,4028.4416,N,08353.4045,W,0.03,43.26,130620,,,D*47
$GPRMC,151805.000,A,4028.4416,N,08353.4045,W,0.11,129.55,130620,,,D*7C
$GPRMC,151806.000,A,4028.4416,N,08353.4044,W,0.12,144.38,130620,,,D*7D
$GPRMC,151807.000,A,4028.4415,N,08353.4044,W,0.06,126.77,130620,,,D*75
$GPRMC,151808.000,A,4028.4415,N,08353.4044,W,0.19,147.55,130620,,,D*73
$GPRMC,151809.000,A,4028.4414,N,08353.4043,W,0.14,136.96,130620,,,D*70
$GPRMC,151810.000,A,4028.4414,N,08353.4043,W,0.03,22.48,130620,,,D*49
$GPRMC,151811.000,A,4028.4414,N,08353.4044,W,0.09,227.12,130620,,,D*7D
$GPRMC,151812.000,A,4028.4413,N,08353.4044,W,0.08,240.47,130620,,,D*79
$GPRMC,151813.000,A,4028.4413,N,08353.4044,W,0.12,313.23,130620,,,D*76
$GPRMC,151814.000,A,4028.4413,N,08353.4045,W,0.11,253.64,130620,,,D*75
$GPRMC,151815.000,A,4028.4414,N,08353.4045,W,0.10,306.55,130620,,,D*71
$GPRMC,151816.000,A,4028.4414,N,08353.4046,W,0.19,300.77,130620,,,D*7E
$GPRMC,151817.000,A,4028.4415,N,08353.4047,W,0.20,307.27,130620,,,D*77
$GPRMC,151818.000,A,4028.4415,N,08353.4048,W,0.14,289.21,130620,,,D*71
$GPRMC,151819.000,A,4028.4416,N,08353.4048,W,0.13,298.45,130620,,,D*76
$GPRMC,151820.000,A,4028.4417,N,08353.4049,W,0.25,317.30,130620,,,D*7D
$GPRMC,151821.000,A,4028.4419,N,08353.4050,W,0.15,308.24,130620,,,D*72
$GPRMC,151822.000,A,4028.4419,N,08353.4051,W,0.16,323.66,130620,,,D*7C
$GPRMC,151823.000,A,4028.4419,N,08353.4050,W,0.05,310.55,130620,,,D*7E
$GPRMC,151824.000,A,4028.4418,N,08353.4049,W,0.04,309.72,130620,,,D*7C
$GPRMC,151825.000,A,4028.4423,N,08353.4050,W,0.26,346.37,130620,,,D*77
$GPRMC,151826.000,A,4028.4424,N,08353.4046,W,0.18,56.11,130620,,,D*4F
$GPRMC,151827.000,A,4028.4423,N,08353.4041,W,0.31,80.49,130620,,,D*43
$GPRMC,151828.000,A,4028.4424,N,08353.4038,W,0.43,132.78,130620,,,D*7A
$GPRMC,151829.000,A,4028.4423,N,08353.4033,W,0.37,110.74,130620,,,D*78
$GPRMC,151830.000,A,4028.4421,N,08353.4028,W,0.51,111.38,130620,,,D*71
$GPRMC,151831.000,A,4028.4419,N,08353.4021,W,0.61,112.69,130620,,,D*76
$GPRMC,151832.000,A,4028.4416,N,08353.4016,W,0.64,118.03,130620,,,D*7D
$GPRMC,151833.000,A,4028.4414,N,08353.4010,W,0.62,113.17,130620,,,D*70
$GPRMC,151834.000,A,4028.4412,N,08353.4004,W,0.64,114.40,130620,,,D*77
$GPRMC,151835.000,A,4028.4409,N,08353.3999,W,0.60,116.05,130620,,,D*71
$GPRMC,151836.000,A,4028.4407,N,08353.3995,W,0.59,108.37,130620,,,D*74
$GPRMC,151837.000,A,4028.4404,N,08353.3992,W,0.60,131.93,130620,,,D*7F
$GPRMC,151838.000,A,4028.4401,N,08353.3991,W,0.29,119.66,130620,,,D*7B
$GPRMC,151839.000,A,4028.4399,N,08353.3990,W,0.31,114.42,130620,,,D*7F
$GPRMC,151836.000,A,4028.4398,N,08353.3989,W,0.16,80.88,130620,,,D*46
$GPRMC,151837.000,A,4028.4397,N,08353.3989,W,0.14,98.94,130620,,,D*4E
$GPRMC,151838.000,A,4028.4397,N,08353.3989,W,0.08,128.34,130620,,,D*7C
$GPRMC,151839.000,A,4028.4399,N,08353.3990,W,0.23,13.32,130620,,,D*4D
$GPRMC,151840.000,A,4028.4398,N,08353.3990,W,0.14,15.89,130620,,,D*40
$GPRMC,151841.000,A,4028.4398,N,08353.3992,W,0.12,14.20,130620,,,D*47
$GPRMC,151842.000,A,4028.4397,N,08353.3993,W,0.11,13.07,130620,,,D*4B
$GPRMC,151843.000,A,4028.4396,N,08353.3994,W,0.11,76.68,130620,,,D*46
$GPRMC,151844.000,A,4028.4395,N,08353.3995,W,0.15,6.14,130620,,,D*7B
$GPRMC,151845.000,A,4028.4396,N,08353.3996,W,0.12,19.49,130620,,,D*4B
$GPRMC,151846.000,A,4028.4397,N,08353.3997,W,0.09,35.66,130620,,,D*41
$GPRMC,151847.000,A,4028.4398,N,08353.3998,W,0.10,125.70,130620,,,D*7F
$GPRMC,151848.000,A,4028.4398,N,08353.3999,W,0.13,92.59,130620,,,D*44
$GPRMC,151849.000,A,4028.4400,N,08353.3999,W,0.09,47.20,130620,,,D*4E
$GPRMC,151850.000,A,4028.4401,N,08353.4000,W,0.14,143.38,130620,,,D*79
$GPRMC,151851.000,A,4028.4403,N,08353.4001,W,0.18,33.69,130620,,,D*45
$GPRMC,151852.000,A,4028.4404,N,08353.4002,W,0.13,151.69,130620,,,D*7C
$GPRMC,151853.000,A,4028.4406,N,08353.4002,W,0.09,68.43,130620,,,D*47
$GPRMC,151854.000,A,4028.4408,N,08353.4003,W,0.03,196.84,130620,,,D*7E
$GPRMC,151855.000,A,4028.4411,N,08353.4005,W,0.28,335.97,130620,,,D*71
$GPRMC,151856.000,A,4028.4411,N,08353.4006,W,0.16,335.10,130620,,,D*73
$GPRMC,151857.000,A,4028.4408,N,08353.4008,W,0.06,172.43,130620,,,D*72
$GPRMC,151858.000,A,4028.4411,N,08353.4009,W,0.07,54.89,130620,,,D*46
$GPRMC,151859.000,A,4028.4413,N,08353.4010,W,0.12,351.73,130620,,,D*7A
$GPRMC,151900.000,A,4028.4416,N,08353.4014,W,0.06,80.09,130620,,,D*41
$GPRMC,151901.000,A,4028.4419,N,08353.4018,W,0.06,18.77,130620,,,D*4B
$GPRMC,151902.000,A,4028.4421,N,08353.4022,W,0.02,197.36,130620,,,D*7D
$GPRMC,151903.000,A,4028.4422,N,08353.4025,W,0.02,336.79,130620,,,D*7A
$GPRMC,151904.000,A,4028.4423,N,08353.4028,W,0.00,284.79,130620,,,D*7B
$GPRMC,151905.000,A,4028.4424,N,08353.4030,W,0.04,187.85,130620,,,D*73
$GPRMC,151906.000,A,4028.4425,N,08353.4033,W,0.04,283.92,130620,,,D*73
$GPRMC,151907.000,A,4028.4426,N,08353.4035,W,0.11,321.69,130620,,,D*7E
$GPRMC,151908.000,A,4028.4427,N,08353.4038,W,0.05,329.54,130620,,,D*7E
$GPRMC,151909.000,A,4028.4428,N,08353.4039,W,0.05,208.68,130620,,,D*7C
$GPRMC,151910.000,A,4028.4429,N,08353.4041,W,0.04,233.37,130620,,,D*79
$GPRMC,151911.000,A,4028.4429,N,08353.4043,W,0.02,287.09,130620,,,D*7E
$GPRMC,151912.000,A,4028.4429,N,08353.4045,W,0.09,48.90,130620,,,D*41
$GPRMC,151913.000,A,4028.4430,N,08353.4047,W,0.03,320.08,130620,,,D*7C
$GPRMC,151914.000,A,4028.4429,N,08353.4048,W,0.04,21.01,130620,,,D*40
$GPRMC,151915.000,A,4028.4429,N,08353.4050,W,0.10,151.53,130620,,,D*7C
$GPRMC,151916.000,A,4028.4428,N,08353.4051,W,0.04,219.02,130620,,,D*71
$GPRMC,151917.000,A,4028.4424,N,08353.4052,W,0.34,169.79,130620,,,D*74
$GPRMC,151918.000,A,4028.4420,N,08353.4054,W,0.31,194.67,130620,,,D*71
$GPRMC,151919.000,A,4028.4417,N,08353.4056,W,0.11,256.86,130620,,,D*76
$GPRMC,151920.000,A,4028.4415,N,08353.4057,W,0.12,300.45,130620,,,D*71
$GPRMC,151921.000,A,4028.4414,N,08353.4059,W,0.05,256.51,130620,,,D*7E
$GPRMC,151922.000,A,4028.4412,N,08353.4060,W,0.12,249.80,130620,,,D*75
$GPRMC,151923.000,A,4028.4411,N,08353.4062,W,0.10,250.53,130620,,,D*71
$GPRMC,151924.000,A,4028.4410,N,08353.4063,W,0.09,168.52,130620,,,D*77
$GPRMC,151925.000,A,4028.4408,N,08353.4064,W,0.10,224.85,130620,,,D*71
$GPRMC,151926.000,A,4028.4407,N,08353.4065,W,0.05,206.10,130620,,,D*74
$GPRMC,151927.000,A,4028.4406,N,08353.4066,W,0.10,182.95,130620,,,D*71
$GPRMC,151928.000,A,4028.4404,N,08353.4067,W,0.07,181.40,130620,,,D*70
$GPRMC,151929.000,A,4028.4403,N,08353.4067,W,0.10,131.76,130620,,,D*7E
$GPRMC,151930.000,A,4028.4402,N,08353.4068,W,0.06,296.26,130620,,,D*74
$GPRMC,151931.000,A,4028.4401,N,08353.4069,W,0.09,128.49,130620,,,D*77
$GPRMC,151932.000,A,4028.4400,N,08353.4070,W,0.14,153.18,130620,,,D*79
$GPRMC,151933.000,A,4028.4399,N,08353.4070,W,0.13,156.63,130620,,,D*71
$GPRMC,151934.000,A,4028.4398,N,08353.4071,W,0.21,149.42,130620,,,D*7A
$GPRMC,151935.000,A,4028.4398,N,08353.4071,W,0.27,154.59,130620,,,D*7B
$GPRMC,151936.000,A,4028.4399,N,08353.4070,W,0.35,132.40,130620,,,D*73
$GPRMC,151937.000,A,4028.4400,N,08353.4069,W,0.24,130.04,130620,,,D*7F
$GPRMC,151938.000,A,4028.4400,N,08353.4069,W,0.29,137.62,130620,,,D*7A
$GPRMC,151939.000,A,4028.4401,N,08353.4068,W,0.28,133.88,130620,,,D*7A
$GPRMC,151940.000,A,4028.4401,N,08353.4068,W,0.25,145.35,130620,,,D*7E
$GPRMC,151941.000,A,4028.4400,N,08353.4068,W,0.27,156.66,130620,,,D*78
$GPRMC,151942.000,A,4028.4400,N,08353.4069,W,0.25,160.49,130620,,,D*70
$GPRMC,151943.000,A,4028.4399,N,08353.4069,W,0.30,162.90,130620,,,D*74
$GPRMC,151944.000,A,4028.4399,N,08353.4069,W,0.11,105.95,130620,,,D*74
$GPRMC,151945.000,A,4028.4397,N,08353.4070,W,0.16,142.14,130620,,,D*7E
$GPRMC,151946.000,A,4028.4395,N,08353.4071,W,0.19,132.13,130620,,,D*71
$GPRMC,151947.000,A,4028.4392,N,08353.4072,W,0.20,138.00,130620,,,D*76
$GPRMC,151948.000,A,4028.4393,N,08353.4071,W,0.30,122.90,130620,,,D*78
$GPRMC,151949.000,A,4028.4393,N,08353.4071,W,0.20,130.17,130620,,,D*74
$GPRMC,151950.000,A,4028.4394,N,08353.4070,W,0.22,132.69,130620,,,D*73
$GPRMC,151951.000,A,4028.4393,N,08353.4070,W,0.34,121.73,130620,,,D*7B
$GPRMC,151952.000,A,4028.4394,N,08353.4069,W,0.20,74.57,130620,,,D*45
$GPRMC,151953.000,A,4028.4393,N,08353.4069,W,0.36,116.67,130620,,,D*72
$GPRMC,151954.000,A,4028.4395,N,08353.4068,W,0.21,70.70,130620,,,D*43
$GPRMC,151955.000,A,4028.4396,N,08353.4068,W,0.25,73.94,130620,,,D*4C
$GPRMC,151956.000,A,4028.4398,N,08353.4067,W,0.25,58.28,130620,,,D*40
$GPRMC,151957.000,A,4028.4399,N,08353.4067,W,0.27,42.10,130620,,,D*42
$GPRMC,151958.000,A,4028.4400,N,08353.4067,W,0.16,95.06,130620,,,D*45
$GPRMC,151959.000,A,4028.4401,N,08353.4066,W,0.19,83.26,130620,,,D*4E
$GPRMC,152000.000,A,4028.4402,N,08353.4066,W,0.20,93.27,130620,,,D*41
$GPRMC,152001.000,A,4028.4403,N,08353.4066,W,0.09,116.21,130620,,,D*70
$GPRMC,152002.000,A,4028.4404,N,08353.4066,W,0.11,106.04,130620,,,D*7B
$GPRMC,152003.000,A,4028.4405,N,08353.4066,W,0.09,172.71,130620,,,D*73
$GPRMC,152004.000,A,4028.4406,N,08353.4066,W,0.09,163.43,130620,,,D*76
$GPRMC,152005.000,A,4028.4406,N,08353.4067,W,0.07,170.41,130620,,,D*78
$GPRMC,152006.000,A,4028.4407,N,08353.4068,W,0.14,194.72,130620,,,D*7D
$GPRMC,152007.000,A,4028.4407,N,08353.4068,W,0.08,12.88,130620,,,D*4B
$GPRMC,152008.000,A,4028.4407,N,08353.4065,W,0.20,12.37,130620,,,D*47
$GPRMC,152009.000,A,4028.4410,N,08353.4067,W,0.29,4.90,130620,,,D*71
$GPRMC,152010.000,A,4028.4412,N,08353.4068,W,0.27,8.58,130620,,,D*72
$GPRMC,152011.000,A,4028.4412,N,08353.4068,W,0.11,41.15,130620,,,D*42
$GPRMC,152012.000,A,4028.4412,N,08353.4069,W,0.21,33.46,130620,,,D*40
$GPRMC,152013.000,A,4028.4412,N,08353.4070,W,0.03,36.95,130620,,,D*42
$GPRMC,152014.000,A,4028.4414,N,08353.4070,W,0.18,12.37,130620,,,D*47
$GPRMC,152015.000,A,4028.4414,N,08353.4071,W,0.06,343.91,130620,,,D*73
$GPRMC,152016.000,A,4028.4413,N,08353.4070,W,0.03,359.00,130620,,,D*70
$GPRMC,152017.000,A,4028.4413,N,08353.4070,W,0.05,356.58,130620,,,D*75
$GPRMC,152018.000,A,4028.4415,N,08353.4071,W,0.15,333.91,130620,,,D*7A
$GPRMC,152019.000,A,4028.4416,N,08353.4071,W,0.21,347.30,130620,,,D*77
$GPRMC,152020.000,A,4028.4417,N,08353.4072,W,0.16,355.84,130620,,,D*77
$GPRMC,152021.000,A,4028.4417,N,08353.4072,W,0.14,4.95,130620,,,D*73
$GPRMC,152022.000,A,4028.4418,N,08353.4072,W,0.20,10.75,130620,,,D*43
$GPRMC,152023.000,A,4028.4418,N,08353.4072,W,0.18,102.21,130620,,,D*7A
$GPRMC,152024.000,A,4028.4417,N,08353.4071,W,0.22,153.69,130620,,,D*70
$GPRMC,152025.000,A,4028.4416,N,08353.4070,W,0.17,118.09,130620,,,D*7E
$GPRMC,152026.000,A,4028.4415,N,08353.4070,W,0.15,118.69,130620,,,D*7A
$GPRMC,152027.000,A,4028.4415,N,08353.4069,W,0.11,102.06,130620,,,D*75
$GPRMC,152028.000,A,4028.4415,N,08353.4070,W,0.25,122.84,130620,,,D*7D
$GPRMC,152029.000,A,4028.4416,N,08353.4070,W,0.09,114.73,130620,,,D*7C
$GPRMC,152030.000,A,4028.4416,N,08353.4070,W,0.11,61.79,130620,,,D*44
$GPRMC,152031.000,A,4028.4417,N,08353.4070,W,0.08,16.41,130620,,,D*47
$GPRMC,152032.000,A,4028.4417,N,08353.4070,W,0.08,103.47,130620,,,D*77
$GPRMC,152033.000,A,4028.4417,N,08353.4070,W,0.06,100.58,130620,,,D*75
$GPRMC,152034.000,A,4028.4418,N,08353.4070,W,0.14,32.76,130620,,,D*42
$GPRMC,152035.000,A,4028.4418,N,08353.4070,W,0.08,46.27,130620,,,D*49
$GPRMC,152036.000,A,4028.4419,N,08353.4070,W,0.11,81.46,130620,,,D*4F
$GPRMC,152037.000,A,4028.4419,N,08353.4070,W,0.20,98.18,130620,,,D*4F
$GPRMC,152038.000,A,4028.4419,N,08353.4069,W,0.11,98.16,130620,,,D*44
$GPRMC,152039.000,A,4028.4419,N,08353.4069,W,0.17,104.60,130620,,,D*76
$GPRMC,152040.000,A,4028.4420,N,08353.4068,W,0.15,105.33,130620,,,D*76
$GPRMC,152041.000,A,4028.4420,N,08353.4068,W,0.12,112.88,130620,,,D*76
$GPRMC,152042.000,A,4028.4420,N,08353.4068,W,0.11,60.75,130620,,,D*40
$GPRMC,152043.000,A,4028.4421,N,08353.4069,W,0.09,343.37,130620,,,D*7C
$GPRMC,152044.000,A,4028.4423,N,08353.4069,W,0.25,341.11,130620,,,D*71
$GPRMC,152045.000,A,4028.4422,N,08353.4067,W,0.09,347.22,130620,,,D*77
$GPRMC,152046.000,A,4028.4422,N,08353.4066,W,0.09,333.95,130620,,,D*7A
$GPRMC,152047.000,A,4028.4422,N,08353.4067,W,0.12,358.05,130620,,,D*74
$GPRMC,152048.000,A,4028.4423,N,08353.4067,W,0.04,7.09,130620,,,D*78
$GPRMC,152049.000,A,4028.4424,N,08353.4068,W,0.17,349.17,130620,,,D*75
$GPRMC,152050.000,A,4028.4425,N,08353.4068,W,0.19,356.31,130620,,,D*78
$GPRMC,152051.000,A,4028.4425,N,08353.4069,W,0.18,346.91,130620,,,D*72
$GPRMC,152052.000,A,4028.4426,N,08353.4070,W,0.18,336.94,130620,,,D*78
$GPRMC,152053.000,A,4028.4425,N,08353.4069,W,0.12,338.74,130620,,,D*78
$GPRMC,152054.000,A,4028.4426,N,08353.4069,W,0.13,332.18,130620,,,D*7D
$GPRMC,152055.000,A,4028.4425,N,08353.4070,W,0.03,316.01,130620,,,D*78
$GPRMC,152056.000,A,4028.4426,N,08353.4070,W,0.09,339.82,130620,,,D*74
$GPRMC,152057.000,A,4028.4426,N,08353.4070,W,0.03,354.83,130620,,,D*75
$GPRMC,152058.000,A,4028.4426,N,08353.4070,W,0.07,74.47,130620,,,D*47
$GPRMC,152059.000,A,4028.4425,N,08353.4068,W,0.06,21.94,130620,,,D*43
$GPRMC,152100.000,A,4028.4424,N,08353.4067,W,0.07,56.91,130620,,,D*44
$GPRMC,152101.000,A,4028.4423,N,08353.4064,W,0.15,63.08,130620,,,D*44
$GPRMC,152102.000,A,4028.4423,N,08353.4064,W,0.13,77.64,130620,,,D*4E
$GPRMC,152103.000,A,4028.4424,N,08353.4064,W,0.14,101.78,130620,,,D*72
$GPRMC,152104.000,A,4028.4424,N,08353.4064,W,0.11,76.42,130620,,,D*48
$GPRMC,152105.000,A,4028.4424,N,08353.4064,W,0.13,52.92,130620,,,D*40
