$ADVER,3080,2.2
$GPRMC,150737.320,A,4028.4425,N,08353.3724,W,0.50,107.44,130620,,,A*79
$GPRMC,150738.320,A,4028.4418,N,08353.3742,W,1.10,48.94,130620,,,A*4A
$GPRMC,150739.320,A,4028.4482,N,08353.3761,W,1.34,5.76,130620,,,A*7A
$GPRMC,150740.320,A,4028.4394,N,08353.3651,W,1.97,97.75,130620,,,A*47
$GPRMC,150741.320,A,4028.4438,N,08353.3711,W,2.35,105.78,130620,,,A*7E
$GPRMC,150742.320,A,4028.4495,N,08353.3803,W,2.83,112.35,130620,,,A*74
$GPRMC,150743.320,A,4028.4465,N,08353.3740,W,1.75,115.44,130620,,,A*79
$GPRMC,150744.320,A,4028.4458,N,08353.3733,W,0.43,107.65,130620,,,A*70
$GPRMC,150745.320,A,4028.4445,N,08353.3690,W,0.73,121.60,130620,,,A*77
$GPRMC,150746.320,A,4028.4414,N,08353.3710,W,0.58,333.01,130620,,,A*76
$GPRMC,150747.320,A,4028.4409,N,08353.3651,W,1.58,343.99,130620,,,A*78
$GPRMC,150748.320,A,4028.4475,N,08353.3734,W,0.63,180.39,130620,,,A*70
$GPRMC,150749.320,A,4028.4398,N,08353.3737,W,4.81,145.00,130620,,,A*7D
$GPRMC,150750.320,A,4028.4414,N,08353.3723,W,3.31,132.66,130620,,,A*7F
$GPRMC,150751.320,A,4028.4342,N,08353.3689,W,1.66,68.72,130620,,,A*40
$GPRMC,150752.320,A,4028.4447,N,08353.3764,W,0.46,125.72,130620,,,A*78
$GPRMC,150753.320,A,4028.4399,N,08353.3616,W,2.94,119.19,130620,,,A*76
$GPRMC,150754.320,A,4028.4423,N,08353.3733,W,0.33,135.72,130620,,,A*7D
$GPRMC,150755.320,A,4028.4450,N,08353.3787,W,0.22,280.55,130620,,,A*7F
$GPRMC,150756.320,A,4028.4562,N,08353.3782,W,1.09,174.39,130620,,,A*73
$GPRMC,150757.320,A,4028.4453,N,08353.3748,W,0.65,341.98,130620,,,A*73
$GPRMC,150758.320,A,4028.4434,N,08353.3713,W,0.39,203.55,130620,,,A*7C
$GPRMC,150759.320,A,4028.4502,N,08353.3753,W,1.86,159.09,130620,,,A*7D
$GPRMC,150800.320,A,4028.4349,N,08353.3689,W,0.61,335.94,130620,,,A*75
$GPRMC,150801.320,A,4028.4434,N,08353.3754,W,0.27,209.48,130620,,,A*75
$GPRMC,150806.320,A,4028.4516,N,08353.3892,W,0.46,303.18,130620,,,A*7F
$GPRMC,150807.320,A,4028.4505,N,08353.3823,W,1.18,301.86,130620,,,A*79
$GPRMC,150808.320,A,4028.4473,N,08353.3813,W,0.06,248.28,130620,,,A*73
$GPRMC,150809.320,A,4028.4421,N,08353.3782,W,0.63,159.67,130620,,,A*79
$GPRMC,150810.320,A,4028.4342,N,08353.3732,W,1.15,214.32,130620,,,A*72
$GPRMC,150811.320,A,4028.4275,N,08353.3743,W,1.35,198.43,130620,,,A*73
$GPRMC,150812.320,A,4028.4295,N,08353.3740,W,0.63,154.44,130620,,,A*78
$GPRMC,150813.320,A,4028.4376,N,08353.3720,W,1.07,10.58,130620,,,A*4C
$GPRMC,150814.320,A,4028.4344,N,08353.3737,W,0.35,353.92,130620,,,A*7E
$GPRMC,150815.320,A,4028.4328,N,08353.3744,W,0.53,17.06,130620,,,A*4F
$GPRMC,150816.320,A,4028.4313,N,08353.3747,W,0.54,15.62,130620,,,A*40
$GPRMC,150817.320,A,4028.4336,N,08353.3739,W,0.12,82.08,130620,,,A*4F
$GPRMC,150818.320,A,4028.4381,N,08353.3725,W,2.08,180.93,130620,,,A*79
$GPRMC,150819.320,A,4028.4397,N,08353.3717,W,1.64,190.50,130620,,,A*79
$GPRMC,150820.320,A,4028.4310,N,08353.3742,W,1.08,188.12,130620,,,A*79
$GPRMC,150821.320,A,4028.4357,N,08353.3730,W,1.14,155.08,130620,,,A*78
$GPRMC,150822.320,A,4028.4362,N,08353.3728,W,0.58,61.04,130620,,,A*47
$GPRMC,150823.320,A,4028.4372,N,08353.3733,W,1.75,18.06,130620,,,A*4F
$GPRMC,150824.320,A,4028.4369,N,08353.3621,W,3.08,11.72,130620,,,A*42
$GPRMC,150825.320,A,4028.4490,N,08353.3712,W,0.14,47.17,130620,,,A*4D
$GPRMC,150826.320,A,4028.4437,N,08353.3671,W,2.97,174.98,130620,,,A*78
$GPRMC,150827.320,A,4028.4468,N,08353.3671,W,2.44,195.43,130620,,,A*74
$GPRMC,150828.320,A,4028.4346,N,08353.3695,W,1.05,157.51,130620,,,A*71
$GPRMC,150829.320,A,4028.4401,N,08353.3578,W,0.32,49.30,130620,,,A*48
$GPRMC,150830.320,A,4028.4426,N,08353.3655,W,0.93,16.65,130620,,,A*48
$GPRMC,150831.320,A,4028.4455,N,08353.3702,W,1.36,24.90,130620,,,A*4B
$GPRMC,150832.320,A,4028.4420,N,08353.3603,W,0.30,357.35,130620,,,A*75
$GPRMC,150833.320,A,4028.4431,N,08353.3635,W,0.47,20.98,130620,,,A*45
$GPRMC,150834.320,A,4028.4363,N,08353.3659,W,0.62,18.22,130620,,,A*45
$GPRMC,150835.320,A,4028.4404,N,08353.3650,W,0.45,13.74,130620,,,A*46
$GPRMC,150836.320,A,4028.4405,N,08353.3656,W,0.31,173.90,130620,,,A*7C
$GPRMC,150837.320,A,4028.4360,N,08353.3677,W,1.59,13.25,130620,,,A*4C
$GPRMC,150838.320,A,4028.4382,N,08353.3680,W,0.67,19.01,130620,,,A*47
$GPRMC,150839.320,A,4028.4402,N,08353.3674,W,0.47,12.45,130620,,,A*4B
$GPRMC,150840.320,A,4028.4393,N,08353.3678,W,0.16,64.72,130620,,,A*47
$GPRMC,150841.320,A,4028.4400,N,08353.3679,W,0.07,0.22,130620,,,A*7D
$GPRMC,150842.320,A,4028.4381,N,08353.3691,W,0.28,40.81,130620,,,A*46
$GPRMC,150843.320,A,4028.4471,N,08353.3668,W,0.92,9.47,130620,,,A*7F
$GPRMC,150844.320,A,4028.4399,N,08353.3696,W,0.69,21.66,130620,,,A*45
$GPRMC,150845.320,A,4028.4435,N,08353.3751,W,0.72,18.19,130620,,,A*47
$GPRMC,150846.320,A,4028.4455,N,08353.3741,W,0.65,191.45,130620,,,A*7C
$GPRMC,150847.320,A,4028.4367,N,08353.3774,W,0.36,114.07,130620,,,A*70
$GPRMC,150848.320,A,4028.4385,N,08353.3729,W,0.27,137.88,130620,,,A*7D
$GPRMC,150849.320,A,4028.4383,N,08353.3641,W,0.28,124.32,130620,,,A*79
$GPRMC,150850.320,A,4028.4370,N,08353.3678,W,2.05,191.93,130620,,,A*7F
$GPRMC,150851.320,A,4028.4413,N,08353.3775,W,1.52,123.81,130620,,,A*7B
$GPRMC,150852.320,A,4028.4454,N,08353.3783,W,1.55,56.36,130620,,,A*4A
$GPRMC,150912.320,A,4028.4352,N,08353.3748,W,2.90,215.43,130620,,,D*71
$GPRMC,150913.320,A,4028.4390,N,08353.3772,W,2.99,210.59,130620,,,D*70
$GPRMC,150914.320,A,4028.4448,N,08353.3789,W,1.98,218.98,130620,,,D*76
$GPRMC,150915.320,A,4028.4505,N,08353.3772,W,0.71,173.67,130620,,,D*73
$GPRMC,150916.320,A,4028.4491,N,08353.3771,W,0.95,343.23,130620,,,D*74
$GPRMC,150917.320,A,4028.4512,N,08353.3811,W,0.35,13.13,130620,,,D*49
$GPRMC,150918.320,A,4028.4433,N,08353.3842,W,0.33,58.82,130620,,,D*43
$GPRMC,150919.320,A,4028.4454,N,08353.3773,W,0.56,94.23,130620,,,D*46
$GPRMC,150920.320,A,4028.4354,N,08353.3783,W,0.66,47.11,130620,,,D*48
$GPRMC,150921.320,A,4028.4371,N,08353.3708,W,1.83,13.56,130620,,,D*45
$GPRMC,150922.320,A,4028.4678,N,08353.4144,W,1.05,44.75,130620,,,D*4E
$GPRMC,150923.321,A,4028.4660,N,08353.4197,W,0.52,5.76,130620,,,D*7C
$GPRMC,150924.321,A,4028.4654,N,08353.4200,W,0.58,39.26,130620,,,D*41
$GPRMC,150925.000,A,4028.4652,N,08353.4212,W,0.45,78.91,130620,,,D*40
$GPRMC,150926.000,A,4028.4646,N,08353.4226,W,0.14,101.20,130620,,,D*70
$GPRMC,150927.000,A,4028.4651,N,08353.4226,W,0.63,48.19,130620,,,D*41
$GPRMC,150928.000,A,4028.4656,N,08353.4226,W,1.09,36.83,130620,,,D*4E
$GPRMC,150929.000,A,4028.4655,N,08353.4231,W,1.36,33.90,130620,,,D*41
$GPRMC,150930.000,A,4028.4655,N,08353.4233,W,1.57,33.84,130620,,,D*49
$GPRMC,150931.000,A,4028.4661,N,08353.4231,W,2.13,32.27,130620,,,D*46
$GPRMC,150932.000,A,4028.4668,N,08353.4227,W,2.52,31.11,130620,,,D*48
$GPRMC,150933.000,A,4028.4671,N,08353.4227,W,2.60,31.10,130620,,,D*41
$GPRMC,150934.000,A,4028.4675,N,08353.4225,W,2.60,32.43,130620,,,D*45
$GPRMC,150935.000,A,4028.4681,N,08353.4221,W,1.91,31.12,130620,,,D*41
$GPRMC,150936.000,A,4028.4676,N,08353.4226,W,0.80,35.06,130620,,,D*4D
$GPRMC,150937.000,A,4028.4675,N,08353.4227,W,0.24,78.39,130620,,,D*45
$GPRMC,150938.000,A,4028.4674,N,08353.4227,W,0.30,157.75,130620,,,D*7A
$GPRMC,150939.000,A,4028.4667,N,08353.4234,W,0.45,194.34,130620,,,D*73
$GPRMC,150940.000,A,4028.4666,N,08353.4236,W,0.46,186.29,130620,,,D*72
$GPRMC,150941.000,A,4028.4660,N,08353.4242,W,0.49,241.36,130620,,,D*7F
$GPRMC,150942.000,A,4028.4659,N,08353.4248,W,0.56,296.95,130620,,,D*71
$GPRMC,150943.000,A,4028.4662,N,08353.4252,W,0.92,309.40,130620,,,D*74
$GPRMC,150944.000,A,4028.4654,N,08353.4256,W,0.52,294.66,130620,,,D*7F
$GPRMC,150945.000,A,4028.4647,N,08353.4258,W,0.37,34.32,130620,,,D*48
$GPRMC,150946.000,A,4028.4648,N,08353.4257,W,0.79,49.79,130620,,,D*44
$GPRMC,150947.000,A,4028.4646,N,08353.4254,W,0.11,311.76,130620,,,D*77
$GPRMC,150948.000,A,4028.4644,N,08353.4252,W,0.34,209.52,130620,,,D*75
$GPRMC,150949.000,A,4028.4643,N,08353.4251,W,0.23,168.29,130620,,,D*7E
$GPRMC,150950.000,A,4028.4645,N,08353.4260,W,0.25,233.42,130620,,,D*74
$GPRMC,150951.000,A,4028.4649,N,08353.4267,W,0.53,210.17,130620,,,D*7E
$GPRMC,150952.000,A,4028.4648,N,08353.4270,W,1.48,195.07,130620,,,D*7E
$GPRMC,150953.000,A,4028.4648,N,08353.4274,W,2.19,196.92,130620,,,D*73
$GPRMC,150954.000,A,4028.4645,N,08353.4278,W,2.36,197.39,130620,,,D*78
$GPRMC,150955.000,A,4028.4635,N,08353.4277,W,2.76,194.75,130620,,,D*7E
$GPRMC,150956.000,A,4028.4624,N,08353.4273,W,2.42,198.23,130620,,,D*71
$GPRMC,150957.000,A,4028.4620,N,08353.4276,W,2.11,214.60,130620,,,D*77
$GPRMC,150958.000,A,4028.4618,N,08353.4282,W,1.67,189.47,130620,,,D*78
$GPRMC,150959.000,A,4028.4618,N,08353.4288,W,0.98,180.73,130620,,,D*7C
$GPRMC,151000.000,A,4028.4615,N,08353.4294,W,0.73,186.95,130620,,,D*73
$GPRMC,151001.000,A,4028.4617,N,08353.4292,W,0.54,36.38,130620,,,D*4E
$GPRMC,151002.000,A,4028.4619,N,08353.4289,W,0.71,51.47,130620,,,D*47
$GPRMC,151003.000,A,4028.4625,N,08353.4291,W,0.41,38.73,130620,,,D*4B
$GPRMC,151004.000,A,4028.4623,N,08353.4287,W,0.18,242.33,130620,,,D*7A
$GPRMC,151005.000,A,4028.4621,N,08353.4287,W,0.73,214.43,130620,,,D*70
$GPRMC,151006.000,A,4028.4619,N,08353.4290,W,1.25,211.81,130620,,,D*77
$GPRMC,151007.000,A,4028.4618,N,08353.4294,W,1.51,208.68,130620,,,D*7F
$GPRMC,151008.000,A,4028.4623,N,08353.4292,W,1.99,225.63,130620,,,D*7E
$GPRMC,151009.000,A,4028.4616,N,08353.4295,W,2.46,212.28,130620,,,D*74
$GPRMC,151010.000,A,4028.4612,N,08353.4294,W,3.02,214.21,130620,,,D*77
$GPRMC,151011.000,A,4028.4600,N,08353.4287,W,3.59,187.11,130620,,,D*73
$GPRMC,151012.000,A,4028.4597,N,08353.4298,W,3.59,212.76,130620,,,A*78
$GPRMC,151013.000,A,4028.4599,N,08353.4324,W,5.35,236.81,130620,,,A*73
$GPRMC,151014.000,A,4028.4592,N,08353.4333,W,4.21,227.83,130620,,,A*7F
$GPRMC,151015.000,A,4028.4590,N,08353.4330,W,2.16,206.30,130620,,,A*76
$GPRMC,151016.000,A,4028.4589,N,08353.4338,W,1.50,210.81,130620,,,A*79
$GPRMC,151017.000,A,4028.4593,N,08353.4324,W,0.54,105.84,130620,,,A*79
$GPRMC,151018.000,A,4028.4598,N,08353.4313,W,0.42,64.28,130620,,,A*4E
$GPRMC,151019.000,A,4028.4604,N,08353.4312,W,0.58,78.37,130620,,,A*40
$GPRMC,151020.000,A,4028.4604,N,08353.4310,W,0.58,78.37,130620,,,E*4C
$GPRMC,151021.000,A,4028.4604,N,08353.4308,W,0.58,78.37,130620,,,E*44
$GPRMC,151022.000,A,4028.4605,N,08353.4306,W,0.58,78.37,130620,,,E*48
$GPRMC,151023.000,A,4028.4613,N,08353.4286,W,1.06,82.67,130620,,,A*49
$GPRMC,151024.000,A,4028.4627,N,08353.4261,W,1.60,75.63,130620,,,A*4C
$GPRMC,151025.000,A,4028.4636,N,08353.4240,W,1.37,56.78,130620,,,A*47
$GPRMC,151026.000,A,4028.4652,N,08353.4228,W,1.50,43.09,130620,,,A*4B
$GPRMC,151027.000,A,4028.4655,N,08353.4224,W,1.50,43.09,130620,,,E*45
$GPRMC,151028.000,A,4028.4658,N,08353.4220,W,1.50,43.09,130620,,,E*43
$GPRMC,151029.000,A,4028.4661,N,08353.4217,W,1.50,43.09,130620,,,E*4C
$GPRMC,151030.000,A,4028.4664,N,08353.4213,W,1.50,43.09,130620,,,E*45
$GPRMC,151031.000,A,4028.4667,N,08353.4209,W,1.50,43.09,130620,,,E*4C
$GPRMC,151032.000,A,4028.4670,N,08353.4205,W,1.50,43.09,130620,,,E*45
$GPRMC,151033.000,A,4028.4673,N,08353.4202,W,1.50,43.09,130620,,,E*40
$GPRMC,151034.000,A,4028.4676,N,08353.4198,W,1.50,43.09,130620,,,E*42
$GPRMC,151035.000,A,4028.4691,N,08353.4136,W,4.53,54.84,130620,,,A*4F
$GPRMC,151036.000,A,4028.4724,N,08353.4129,W,5.49,44.71,130620,,,A*4C
$GPRMC,151037.000,A,4028.4715,N,08353.4097,W,6.36,45.12,130620,,,A*44
$GPRMC,151038.000,A,4028.4753,N,08353.4067,W,8.70,44.19,130620,,,A*40
$GPRMC,151039.000,A,4028.4812,N,08353.4049,W,8.76,34.30,130620,,,A*4D
$GPRMC,151040.000,A,4028.4832,N,08353.4030,W,7.97,35.63,130620,,,A*48
$GPRMC,151041.000,A,4028.4832,N,08353.4031,W,4.85,37.52,130620,,,A*48
$GPRMC,151042.000,A,4028.4804,N,08353.4055,W,2.13,21.97,130620,,,A*4B
$GPRMC,151043.000,A,4028.4811,N,08353.4065,W,1.46,338.80,130620,,,A*73
$GPRMC,151044.000,A,4028.4804,N,08353.4085,W,2.23,260.97,130620,,,A*74
$GPRMC,151045.000,A,4028.4798,N,08353.4103,W,2.43,243.03,130620,,,A*7A
$GPRMC,151046.000,A,4028.4818,N,08353.4083,W,0.37,289.28,130620,,,A*79
$GPRMC,151047.000,A,4028.4833,N,08353.4066,W,1.56,50.12,130620,,,A*43
$GPRMC,151048.000,A,4028.4830,N,08353.4070,W,1.14,44.73,130620,,,A*4C
$GPRMC,151049.000,A,4028.4841,N,08353.4057,W,2.01,51.11,130620,,,A*49
$GPRMC,151050.000,A,4028.4842,N,08353.4058,W,1.30,45.15,130620,,,A*4D
$GPRMC,151051.000,A,4028.4841,N,08353.4063,W,0.41,19.63,130620,,,A*48
$GPRMC,151052.000,A,4028.4830,N,08353.4081,W,0.80,234.27,130620,,,A*71
$GPRMC,151053.000,A,4028.4820,N,08353.4096,W,0.90,219.06,130620,,,A*7A
$GPRMC,151054.000,A,4028.4811,N,08353.4110,W,0.95,204.01,130620,,,A*7E
$GPRMC,151055.000,A,4028.4803,N,08353.4116,W,1.11,202.40,130620,,,A*74
$GPRMC,151056.000,A,4028.4789,N,08353.4135,W,2.45,231.63,130620,,,A*78
$GPRMC,151057.000,A,4028.4788,N,08353.4130,W,1.45,197.14,130620,,,A*71
$GPRMC,151058.000,A,4028.4798,N,08353.4112,W,0.90,71.60,130620,,,A*4C
$GPRMC,151059.000,A,4028.4801,N,08353.4105,W,1.00,72.94,130620,,,A*44
$GPRMC,151100.000,A,4028.4843,N,08353.4069,W,0.28,69.38,130620,,,A*43
$GPRMC,151101.000,A,4028.4828,N,08353.4084,W,0.67,247.99,130620,,,A*72
$GPRMC,151102.000,A,4028.4832,N,08353.4083,W,0.88,254.34,130620,,,A*79
$GPRMC,151103.000,A,4028.4829,N,08353.4086,W,0.70,250.06,130620,,,A*75
$GPRMC,151104.000,A,4028.4821,N,08353.4093,W,1.03,242.09,130620,,,A*77
$GPRMC,151105.000,A,4028.4816,N,08353.4108,W,1.33,236.31,130620,,,A*7A
$GPRMC,151106.000,A,4028.4814,N,08353.4112,W,1.51,232.87,130620,,,A*7D
$GPRMC,151107.000,A,4028.4808,N,08353.4109,W,1.63,209.67,130620,,,A*7C
$GPRMC,151108.000,A,4028.4803,N,08353.4107,W,1.67,206.16,130620,,,A*7B
$GPRMC,151109.000,A,4028.4801,N,08353.4110,W,1.90,209.89,130620,,,A*7F
$GPRMC,151110.000,A,4028.4796,N,08353.4112,W,2.06,206.16,130620,,,A*71
$GPRMC,151111.000,A,4028.4794,N,08353.4116,W,2.12,221.36,130620,,,A*74
$GPRMC,151112.000,A,4028.4792,N,08353.4121,W,1.46,222.50,130620,,,A*74
$GPRMC,151113.000,A,4028.4792,N,08353.4125,W,0.59,211.88,130620,,,A*7B
$GPRMC,151114.000,A,4028.4792,N,08353.4127,W,0.79,210.84,130620,,,A*71
$GPRMC,151115.000,A,4028.4794,N,08353.4129,W,0.17,175.33,130620,,,A*7C
$GPRMC,151116.000,A,4028.4791,N,08353.4133,W,0.07,99.02,130620,,,A*41
$GPRMC,151117.000,A,4028.4788,N,08353.4136,W,0.51,184.34,130620,,,A*76
$GPRMC,151118.000,A,4028.4784,N,08353.4138,W,0.58,116.15,130620,,,A*7A
$GPRMC,151119.000,A,4028.4779,N,08353.4139,W,0.64,158.38,130620,,,A*72
$GPRMC,151120.000,A,4028.4776,N,08353.4137,W,0.50,88.16,130620,,,A*4E
$GPRMC,151121.000,A,4028.4772,N,08353.4137,W,0.25,202.24,130620,,,A*78
$GPRMC,151122.000,A,4028.4768,N,08353.4138,W,0.22,76.47,130620,,,A*4C
$GPRMC,151123.000,A,4028.4767,N,08353.4142,W,0.29,58.95,130620,,,A*47
$GPRMC,151124.000,A,4028.4765,N,08353.4146,W,0.58,44.30,130620,,,A*42
$GPRMC,151125.000,A,4028.4765,N,08353.4153,W,0.58,3.49,130620,,,A*7A
$GPRMC,151126.000,A,4028.4764,N,08353.4157,W,0.64,352.61,130620,,,A*7E
$GPRMC,151127.000,A,4028.4764,N,08353.4167,W,0.18,267.21,130620,,,A*74
$GPRMC,151128.000,A,4028.4761,N,08353.4175,W,0.26,229.67,130620,,,A*78
$GPRMC,151129.000,A,4028.4757,N,08353.4179,W,0.57,67.82,130620,,,A*45
$GPRMC,151130.000,A,4028.4754,N,08353.4187,W,0.40,82.62,130620,,,A*4C
$GPRMC,151131.000,A,4028.4750,N,08353.4196,W,0.27,167.67,130620,,,A*77
$GPRMC,151132.000,A,4028.4743,N,08353.4201,W,0.51,220.71,130620,,,A*7D
$GPRMC,151133.000,A,4028.4738,N,08353.4204,W,0.57,208.22,130620,,,A*7F
$GPRMC,151134.000,A,4028.4737,N,08353.4214,W,0.78,273.48,130620,,,A*7B
$GPRMC,151135.000,A,4028.4736,N,08353.4222,W,0.38,332.17,130620,,,A*74
$GPRMC,151136.000,A,4028.4728,N,08353.4223,W,0.42,218.29,130620,,,A*70
$GPRMC,151137.000,A,4028.4718,N,08353.4230,W,1.06,215.66,130620,,,A*77
$GPRMC,151138.000,A,4028.4699,N,08353.4235,W,0.98,197.42,130620,,,A*7C
$GPRMC,151139.000,A,4028.4691,N,08353.4229,W,0.59,160.22,130620,,,A*7B
$GPRMC,151140.000,A,4028.4679,N,08353.4238,W,0.61,147.81,130620,,,A*74
$GPRMC,151141.000,A,4028.4668,N,08353.4242,W,0.37,161.47,130620,,,A*75
$GPRMC,151142.000,A,4028.4664,N,08353.4244,W,0.14,105.39,130620,,,A*76
$GPRMC,151143.000,A,4028.4668,N,08353.4251,W,0.36,140.96,130620,,,A*7B
$GPRMC,151144.000,A,4028.4664,N,08353.4256,W,0.88,146.03,130620,,,A*78
$GPRMC,151145.000,A,4028.4672,N,08353.4269,W,0.77,236.34,130620,,,D*77
$GPRMC,151146.000,A,4028.4671,N,08353.4279,W,1.16,240.99,130620,,,D*76
$GPRMC,151147.000,A,4028.4675,N,08353.4285,W,0.72,275.16,130620,,,D*72
$GPRMC,151148.000,A,4028.4683,N,08353.4275,W,1.28,47.90,130620,,,D*48
$GPRMC,151149.000,A,4028.4697,N,08353.4273,W,1.19,44.71,130620,,,D*44
$GPRMC,151150.000,A,4028.4710,N,08353.4268,W,1.08,49.29,130620,,,D*48
$GPRMC,151151.000,A,4028.4712,N,08353.4265,W,1.08,49.29,130620,,,E*47
$GPRMC,151152.000,A,4028.4740,N,08353.4261,W,4.42,25.38,130620,,,D*47
$GPRMC,151153.000,A,4028.4750,N,08353.4257,W,3.30,22.84,130620,,,D*40
$GPRMC,151154.000,A,4028.4764,N,08353.4277,W,3.33,337.69,130620,,,D*75
$GPRMC,151155.000,A,4028.4756,N,08353.4307,W,2.70,311.53,130620,,,D*78
$GPRMC,151156.000,A,4028.4761,N,08353.4314,W,2.70,311.53,130620,,,E*7C
$GPRMC,151157.000,A,4028.4759,N,08353.4350,W,5.23,276.17,130620,,,D*76
$GPRMC,151158.000,A,4028.4754,N,08353.4351,W,3.05,282.43,130620,,,D*7D
$GPRMC,151159.000,A,4028.4772,N,08353.4358,W,3.86,318.13,130620,,,D*7D
$GPRMC,151200.000,A,4028.4786,N,08353.4377,W,5.49,323.19,130620,,,D*73
$GPRMC,151201.000,A,4028.4785,N,08353.4366,W,5.03,326.43,130620,,,D*75
$GPRMC,151202.000,A,4028.4790,N,08353.4359,W,5.15,327.92,130620,,,D*74
$GPRMC,151203.000,A,4028.4790,N,08353.4354,W,4.10,332.53,130620,,,D*75
$GPRMC,151204.000,A,4028.4800,N,08353.4356,W,3.60,329.79,130620,,,D*74
$GPRMC,151205.000,A,4028.4804,N,08353.4368,W,2.93,318.73,130620,,,D*79
$GPRMC,151206.000,A,4028.4801,N,08353.4367,W,1.64,343.29,130620,,,D*7A
$GPRMC,151207.000,A,4028.4796,N,08353.4366,W,0.11,8.91,130620,,,D*77
$GPRMC,151208.000,A,4028.4805,N,08353.4369,W,0.35,167.51,130620,,,D*70
$GPRMC,151209.000,A,4028.4807,N,08353.4368,W,1.41,180.27,130620,,,D*78
$GPRMC,151210.000,A,4028.4793,N,08353.4358,W,2.33,154.22,130620,,,D*7B
$GPRMC,151211.000,A,4028.4766,N,08353.4330,W,2.76,140.01,130620,,,D*7B
$GPRMC,151212.000,A,4028.4730,N,08353.4314,W,3.44,148.34,130620,,,D*73
$GPRMC,151213.000,A,4028.4711,N,08353.4301,W,2.95,151.35,130620,,,D*71
$GPRMC,151214.000,A,4028.4688,N,08353.4280,W,3.28,139.24,130620,,,D*76
$GPRMC,151215.000,A,4028.4662,N,08353.4258,W,3.75,141.28,130620,,,D*7D
$GPRMC,151216.000,A,4028.4653,N,08353.4255,W,2.63,147.48,130620,,,D*77
$GPRMC,151217.000,A,4028.4640,N,08353.4253,W,2.59,158.95,130620,,,D*75
$GPRMC,151218.000,A,4028.4627,N,08353.4253,W,3.08,170.14,130620,,,D*7D
$GPRMC,151219.000,A,4028.4625,N,08353.4259,W,1.73,184.28,130620,,,D*7E
$GPRMC,151220.000,A,4028.4636,N,08353.4272,W,1.26,292.66,130620,,,D*71
$GPRMC,151221.000,A,4028.4639,N,08353.4275,W,0.46,345.48,130620,,,D*78
$GPRMC,151222.000,A,4028.4645,N,08353.4271,W,0.87,78.00,130620,,,D*48
$GPRMC,151223.000,A,4028.4651,N,08353.4267,W,0.30,33.97,130620,,,D*46
$GPRMC,151224.000,A,4028.4639,N,08353.4260,W,0.55,276.11,130620,,,D*76
$GPRMC,151225.000,A,4028.4642,N,08353.4277,W,2.01,304.20,130620,,,D*78
$GPRMC,151226.000,A,4028.4644,N,08353.4278,W,0.73,352.89,130620,,,D*75
$GPRMC,151227.000,A,4028.4638,N,08353.4278,W,0.54,271.33,130620,,,D*7B
$GPRMC,151228.000,A,4028.4642,N,08353.4284,W,0.63,320.98,130620,,,D*7A
$GPRMC,151229.000,A,4028.4639,N,08353.4286,W,0.16,49.05,130620,,,D*4F
$GPRMC,151230.000,A,4028.4639,N,08353.4287,W,0.34,44.59,130620,,,D*42
$GPRMC,151231.000,A,4028.4633,N,08353.4283,W,0.34,186.74,130620,,,D*7D
$GPRMC,151232.000,A,4028.4633,N,08353.4278,W,0.93,107.47,130620,,,D*7E
$GPRMC,151233.000,A,4028.4628,N,08353.4278,W,0.34,109.04,130620,,,D*71
$GPRMC,151234.000,A,4028.4630,N,08353.4285,W,0.50,44.51,130620,,,D*47
$GPRMC,151235.000,A,4028.4634,N,08353.4287,W,0.29,36.06,130620,,,D*49
$GPRMC,151236.000,A,4028.4636,N,08353.4291,W,0.24,9.57,130620,,,D*7A
$GPRMC,151237.000,A,4028.4639,N,08353.4293,W,0.21,353.36,130620,,,D*78
$GPRMC,151238.000,A,4028.4628,N,08353.4285,W,0.92,140.00,130620,,,D*7D
$GPRMC,151239.000,A,4028.4623,N,08353.4283,W,0.58,121.24,130620,,,D*76
$GPRMC,151240.000,A,4028.4626,N,08353.4284,W,0.82,3.84,130620,,,D*76
$GPRMC,151241.000,A,4028.4632,N,08353.4288,W,0.91,336.02,130620,,,D*77
$GPRMC,151242.000,A,4028.4626,N,08353.4282,W,0.75,290.86,130620,,,D*70
$GPRMC,151243.000,A,4028.4617,N,08353.4272,W,0.42,205.15,130620,,,D*7E
$GPRMC,151244.000,A,4028.4607,N,08353.4267,W,0.39,155.00,130620,,,D*72
$GPRMC,151245.000,A,4028.4592,N,08353.4274,W,0.58,153.50,130620,,,D*7A
$GPRMC,151246.000,A,4028.4601,N,08353.4267,W,0.86,114.27,130620,,,D*72
$GPRMC,151247.000,A,4028.4606,N,08353.4262,W,0.27,324.29,130620,,,D*75
$GPRMC,151248.000,A,4028.4605,N,08353.4261,W,0.55,176.18,130620,,,D*78
$GPRMC,151249.000,A,4028.4605,N,08353.4261,W,1.27,173.14,130620,,,D*74
$GPRMC,151250.000,A,4028.4608,N,08353.4263,W,1.80,177.08,130620,,,D*77
$GPRMC,151251.000,A,4028.4613,N,08353.4271,W,0.66,253.83,130620,,,D*70
$GPRMC,151252.000,A,4028.4622,N,08353.4279,W,0.70,337.44,130620,,,D*76
$GPRMC,151253.000,A,4028.4629,N,08353.4274,W,1.52,25.33,130620,,,D*40
$GPRMC,151254.000,A,4028.4639,N,08353.4279,W,1.83,17.46,130620,,,D*44
$GPRMC,151255.000,A,4028.4652,N,08353.4287,W,1.82,343.80,130620,,,D*70
$GPRMC,151256.000,A,4028.4659,N,08353.4296,W,1.69,322.43,130620,,,D*75
$GPRMC,151257.000,A,4028.4678,N,08353.4293,W,1.57,307.97,130620,,,D*71
$GPRMC,151258.000,A,4028.4687,N,08353.4305,W,1.99,295.22,130620,,,D*76
$GPRMC,151259.000,A,4028.4696,N,08353.4314,W,2.45,312.32,130620,,,D*7A
$GPRMC,151300.000,A,4028.4704,N,08353.4317,W,3.31,325.30,130620,,,D*7A
$GPRMC,151301.000,A,4028.4718,N,08353.4329,W,3.20,329.45,130620,,,D*75
$GPRMC,151302.000,A,4028.4741,N,08353.4346,W,3.39,334.14,130620,,,D*73
$GPRMC,151303.000,A,4028.4760,N,08353.4361,W,3.29,350.94,130620,,,D*7F
$GPRMC,151304.000,A,4028.4763,N,08353.4350,W,2.32,26.60,130620,,,D*4B
$GPRMC,151305.000,A,4028.4769,N,08353.4346,W,2.32,26.60,130620,,,E*46
$GPRMC,151306.000,A,4028.4772,N,08353.4308,W,5.14,68.00,130620,,,D*4B
$GPRMC,151307.000,A,4028.4794,N,08353.4295,W,5.49,39.46,130620,,,D*49
$GPRMC,151308.000,A,4028.4799,N,08353.4287,W,4.14,36.27,130620,,,D*49
$GPRMC,151309.000,A,4028.4808,N,08353.4296,W,2.99,36.41,130620,,,D*4C
$GPRMC,151310.000,A,4028.4806,N,08353.4303,W,1.48,44.19,130620,,,D*40
$GPRMC,151311.000,A,4028.4802,N,08353.4325,W,0.88,290.16,130620,,,D*78
$GPRMC,151312.000,A,4028.4800,N,08353.4343,W,0.71,276.76,130620,,,D*71
$GPRMC,151313.000,A,4028.4791,N,08353.4361,W,1.65,289.94,130620,,,D*7F
$GPRMC,151314.000,A,4028.4792,N,08353.4358,W,1.48,329.47,130620,,,D*7B
$GPRMC,151315.000,A,4028.4795,N,08353.4361,W,1.48,329.47,130620,,,E*76
$GPRMC,151316.000,A,4028.4794,N,08353.4348,W,0.81,32.92,130620,,,D*4B
$GPRMC,151317.000,A,4028.4804,N,08353.4337,W,1.10,27.43,130620,,,D*45
$GPRMC,151318.000,A,4028.4797,N,08353.4324,W,0.44,84.99,130620,,,D*43
$GPRMC,151319.000,A,4028.4773,N,08353.4317,W,1.21,186.70,130620,,,D*7E
$GPRMC,151320.000,A,4028.4767,N,08353.4315,W,1.04,170.20,130620,,,D*78
$GPRMC,151321.000,A,4028.4760,N,08353.4312,W,1.48,132.15,130620,,,D*71
$GPRMC,151322.000,A,4028.4757,N,08353.4308,W,1.48,132.15,130620,,,E*7C
$GPRMC,151323.000,A,4028.4755,N,08353.4304,W,1.48,132.15,130620,,,E*73
$GPRMC,151324.000,A,4028.4752,N,08353.4300,W,1.48,132.15,130620,,,E*77
$GPRMC,151325.000,A,4028.4749,N,08353.4296,W,1.48,132.15,130620,,,E*72
$GPRMC,151326.000,A,4028.4746,N,08353.4292,W,1.48,132.15,130620,,,E*7A
$GPRMC,151327.000,A,4028.4824,N,08353.4293,W,1.35,303.97,130620,,,D*70
$GPRMC,151328.000,A,4028.4745,N,08353.4240,W,0.98,178.20,130620,,,D*7D
$GPRMC,151329.000,A,4028.4716,N,08353.4234,W,0.94,190.75,130620,,,D*73
$GPRMC,151330.000,A,4028.4707,N,08353.4224,W,0.42,100.42,130620,,,D*7C
$GPRMC,151331.000,A,4028.4701,N,08353.4215,W,0.33,81.77,130620,,,D*41
$GPRMC,151332.000,A,4028.4690,N,08353.4221,W,0.25,183.22,130620,,,D*78
$GPRMC,151333.000,A,4028.4683,N,08353.4233,W,0.16,251.35,130620,,,D*72
$GPRMC,151334.000,A,4028.4677,N,08353.4243,W,1.51,219.05,130620,,,D*74
$GPRMC,151335.000,A,4028.4674,N,08353.4250,W,0.86,177.75,130620,,,D*73
$GPRMC,151336.000,A,4028.4669,N,08353.4248,W,0.45,131.18,130620,,,D*73
$GPRMC,151337.000,A,4028.4670,N,08353.4249,W,0.74,40.54,130620,,,D*46
$GPRMC,151338.000,A,4028.4674,N,08353.4249,W,1.21,28.66,130620,,,D*43
$GPRMC,151339.000,A,4028.4674,N,08353.4244,W,0.85,44.55,130620,,,D*4A
$GPRMC,151340.000,A,4028.4675,N,08353.4246,W,0.76,58.91,130620,,,D*4E
$GPRMC,151341.000,A,4028.4670,N,08353.4252,W,0.29,96.17,130620,,,D*49
$GPRMC,151342.000,A,4028.4668,N,08353.4254,W,0.36,147.46,130620,,,D*72
$GPRMC,151343.000,A,4028.4664,N,08353.4256,W,0.55,185.89,130620,,,D*75
$GPRMC,151344.000,A,4028.4665,N,08353.4255,W,1.09,205.26,130620,,,D*76
$GPRMC,151345.000,A,4028.4658,N,08353.4260,W,1.93,209.31,130620,,,D*76
$GPRMC,151346.000,A,4028.4658,N,08353.4261,W,1.49,211.37,130620,,,D*7C
$GPRMC,151347.000,A,4028.4657,N,08353.4264,W,1.16,214.47,130620,,,D*7F
$GPRMC,151348.000,A,4028.4656,N,08353.4266,W,0.83,213.59,130620,,,D*76
$GPRMC,151349.000,A,4028.4656,N,08353.4269,W,0.92,199.23,130620,,,D*74
$GPRMC,151350.000,A,4028.4662,N,08353.4270,W,0.23,208.80,130620,,,D*7B
$GPRMC,151351.000,A,4028.4668,N,08353.4270,W,0.21,357.86,130620,,,D*7F
$GPRMC,151352.000,A,4028.4667,N,08353.4268,W,0.42,101.17,130620,,,D*76
$GPRMC,151353.000,A,4028.4676,N,08353.4266,W,0.45,48.76,130620,,,D*45
$GPRMC,151354.000,A,4028.4680,N,08353.4263,W,0.59,38.96,130620,,,D*4A
$GPRMC,151355.000,A,4028.4677,N,08353.4260,W,0.30,51.52,130620,,,D*48
$GPRMC,151356.000,A,4028.4680,N,08353.4257,W,0.84,58.87,130620,,,D*49
$GPRMC,151357.000,A,4028.4686,N,08353.4253,W,0.92,45.27,130620,,,D*4B
$GPRMC,151358.000,A,4028.4690,N,08353.4250,W,0.63,36.89,130620,,,D*4E
$GPRMC,151359.000,A,4028.4696,N,08353.4247,W,0.47,40.25,130620,,,D*4E
$GPRMC,151400.000,A,4028.4699,N,08353.4244,W,0.51,43.62,130620,,,D*4E
$GPRMC,151401.000,A,4028.4700,N,08353.4242,W,0.67,53.30,130620,,,D*4B
$GPRMC,151402.000,A,4028.4700,N,08353.4240,W,0.16,35.69,130620,,,D*40
$GPRMC,151403.000,A,4028.4706,N,08353.4237,W,0.51,41.67,130620,,,D*49
$GPRMC,151404.000,A,4028.4706,N,08353.4234,W,0.81,74.80,130620,,,D*4F
$GPRMC,151405.000,A,4028.4710,N,08353.4232,W,0.15,85.55,130620,,,D*44
$GPRMC,151406.000,A,4028.4711,N,08353.4230,W,0.08,291.93,130620,,,D*75
$GPRMC,151407.000,A,4028.4710,N,08353.4231,W,0.07,316.86,130620,,,D*71
$GPRMC,151408.000,A,4028.4707,N,08353.4231,W,0.44,129.90,130620,,,D*76
$GPRMC,151409.000,A,4028.4707,N,08353.4229,W,0.17,21.02,130620,,,D*4A
$GPRMC,151410.000,A,4028.4707,N,08353.4229,W,0.37,357.92,130620,,,D*7B
$GPRMC,151411.000,A,4028.4706,N,08353.4228,W,0.60,8.34,130620,,,D*7D
$GPRMC,151412.000,A,4028.4707,N,08353.4224,W,0.54,49.33,130620,,,D*46
$GPRMC,151413.000,A,4028.4705,N,08353.4222,W,0.46,113.46,130620,,,D*7C
$GPRMC,151414.000,A,4028.4704,N,08353.4212,W,0.93,128.47,130620,,,D*78
$GPRMC,151415.000,A,4028.4704,N,08353.4210,W,0.42,91.32,130620,,,D*46
$GPRMC,151416.000,A,4028.4705,N,08353.4210,W,0.16,324.55,130620,,,D*79
$GPRMC,151417.000,A,4028.4707,N,08353.4213,W,0.55,327.77,130620,,,D*7D
$GPRMC,151418.000,A,4028.4708,N,08353.4214,W,0.47,343.12,130620,,,D*78
$GPRMC,151419.000,A,4028.4708,N,08353.4215,W,0.03,290.06,130620,,,D*72
$GPRMC,151420.000,A,4028.4710,N,08353.4207,W,0.29,73.09,130620,,,D*4A
$GPRMC,151421.000,A,4028.4709,N,08353.4214,W,0.21,296.12,130620,,,D*7A
$GPRMC,151422.000,A,4028.4709,N,08353.4222,W,0.53,278.07,130620,,,D*7D
$GPRMC,151423.000,A,4028.4710,N,08353.4223,W,0.33,224.88,130620,,,D*7D
$GPRMC,151424.000,A,4028.4709,N,08353.4229,W,0.49,213.10,130620,,,D*70
$GPRMC,151425.000,A,4028.4710,N,08353.4229,W,0.51,218.06,130620,,,D*7C
$GPRMC,151426.000,A,4028.4707,N,08353.4225,W,0.92,184.12,130620,,,D*79
$GPRMC,151427.000,A,4028.4706,N,08353.4226,W,0.68,193.04,130620,,,D*7E
$GPRMC,151428.000,A,4028.4709,N,08353.4223,W,0.50,107.24,130620,,,D*7F
$GPRMC,151429.000,A,4028.4706,N,08353.4226,W,0.46,135.38,130620,,,D*7F
$GPRMC,151430.000,A,4028.4699,N,08353.4227,W,0.72,127.58,130620,,,D*73
$GPRMC,151431.000,A,4028.4695,N,08353.4227,W,0.71,117.41,130620,,,D*76
$GPRMC,151432.000,A,4028.4694,N,08353.4224,W,0.46,53.96,130620,,,D*48
$GPRMC,151433.000,A,4028.4690,N,08353.4222,W,0.95,128.10,130620,,,D*76
$GPRMC,151434.000,A,4028.4693,N,08353.4225,W,0.30,293.94,130620,,,D*75
$GPRMC,151435.000,A,4028.4687,N,08353.4233,W,0.82,220.63,130620,,,D*7F
$GPRMC,151436.000,A,4028.4680,N,08353.4238,W,0.84,215.42,130620,,,D*73
$GPRMC,151437.000,A,4028.4669,N,08353.4241,W,1.07,202.79,130620,,,D*7F
$GPRMC,151438.000,A,4028.4662,N,08353.4241,W,1.49,191.21,130620,,,D*75
$GPRMC,151439.000,A,4028.4653,N,08353.4241,W,1.07,181.42,130620,,,D*78
$GPRMC,151440.000,A,4028.4649,N,08353.4242,W,0.60,203.55,130620,,,D*71
$GPRMC,151441.000,A,4028.4644,N,08353.4246,W,0.90,199.54,130620,,,D*77
$GPRMC,151442.000,A,4028.4644,N,08353.4246,W,0.83,165.79,130620,,,D*7A
$GPRMC,151443.000,A,4028.4640,N,08353.4241,W,1.04,108.47,130620,,,D*70
$GPRMC,151444.000,A,4028.4635,N,08353.4235,W,0.82,87.33,130620,,,D*4C
$GPRMC,151445.000,A,4028.4638,N,08353.4232,W,0.68,73.65,130620,,,D*4B
$GPRMC,151446.000,A,4028.4637,N,08353.4226,W,0.64,105.10,130620,,,D*7C
$GPRMC,151447.000,A,4028.4633,N,08353.4230,W,0.28,54.08,130620,,,D*4A
$GPRMC,151448.000,A,4028.4628,N,08353.4229,W,0.39,131.37,130620,,,D*79
$GPRMC,151449.000,A,4028.4620,N,08353.4228,W,0.72,88.77,130620,,,D*49
$GPRMC,151450.000,A,4028.4617,N,08353.4224,W,0.52,67.07,130620,,,D*4D
$GPRMC,151451.000,A,4028.4615,N,08353.4227,W,0.52,342.12,130620,,,D*7D
$GPRMC,151452.000,A,4028.4620,N,08353.4234,W,1.42,291.78,130620,,,D*79
$GPRMC,151453.000,A,4028.4623,N,08353.4238,W,1.24,300.55,130620,,,D*71
$GPRMC,151454.000,A,4028.4635,N,08353.4238,W,1.15,29.23,130620,,,D*4A
$GPRMC,151455.000,A,4028.4645,N,08353.4244,W,0.63,358.81,130620,,,D*7A
$GPRMC,151456.000,A,4028.4646,N,08353.4245,W,0.76,69.36,130620,,,D*42
$GPRMC,151457.000,A,4028.4648,N,08353.4244,W,0.44,338.56,130620,,,D*7C
$GPRMC,151458.000,A,4028.4650,N,08353.4249,W,0.54,293.84,130620,,,D*79
$GPRMC,151459.000,A,4028.4649,N,08353.4250,W,0.73,254.93,130620,,,D*70
$GPRMC,151500.000,A,4028.4655,N,08353.4250,W,0.58,249.85,130620,,,D*72
$GPRMC,151501.000,A,4028.4657,N,08353.4248,W,0.68,181.02,130620,,,D*73
$GPRMC,151502.000,A,4028.4656,N,08353.4243,W,1.17,155.62,130620,,,D*7C
$GPRMC,151503.000,A,4028.4663,N,08353.4242,W,0.98,66.48,130620,,,D*45
$GPRMC,151504.000,A,4028.4672,N,08353.4238,W,2.29,44.57,130620,,,D*49
$GPRMC,151505.000,A,4028.4673,N,08353.4230,W,2.76,60.75,130620,,,D*4D
$GPRMC,151506.000,A,4028.4667,N,08353.4220,W,1.51,88.70,130620,,,D*4F
$GPRMC,151507.000,A,4028.4664,N,08353.4211,W,0.60,106.48,130620,,,D*70
$GPRMC,151508.000,A,4028.4662,N,08353.4212,W,0.20,163.77,130620,,,D*71
$GPRMC,151509.000,A,4028.4661,N,08353.4214,W,0.16,73.61,130620,,,D*47
$GPRMC,151510.000,A,4028.4661,N,08353.4214,W,0.21,345.10,130620,,,D*7B
$GPRMC,151511.000,A,4028.4657,N,08353.4217,W,0.29,171.20,130620,,,D*72
$GPRMC,151512.000,A,4028.4654,N,08353.4224,W,0.13,329.83,130620,,,D*7D
$GPRMC,151513.000,A,4028.4657,N,08353.4221,W,0.89,13.60,130620,,,D*4E
$GPRMC,151514.000,A,4028.4667,N,08353.4220,W,1.67,359.74,130620,,,D*72
$GPRMC,151515.000,A,4028.4668,N,08353.4216,W,1.31,1.57,130620,,,D*75
$GPRMC,151516.000,A,4028.4676,N,08353.4209,W,0.67,32.82,130620,,,D*4D
$GPRMC,151517.000,A,4028.4679,N,08353.4207,W,0.75,80.55,130620,,,D*4D
$GPRMC,151518.000,A,4028.4674,N,08353.4208,W,0.82,130.87,130620,,,D*7D
$GPRMC,151519.000,A,4028.4671,N,08353.4207,W,0.99,114.05,130620,,,D*70
$GPRMC,151520.000,A,4028.4665,N,08353.4201,W,0.79,124.54,130620,,,D*70
$GPRMC,151521.000,A,4028.4660,N,08353.4200,W,0.73,184.12,130620,,,D*77
$GPRMC,151522.000,A,4028.4651,N,08353.4199,W,0.94,179.01,130620,,,D*7C
$GPRMC,151523.000,A,4028.4650,N,08353.4206,W,0.68,214.70,130620,,,D*74
$GPRMC,151524.000,A,4028.4651,N,08353.4216,W,0.79,213.77,130620,,,D*73
$GPRMC,151525.000,A,4028.4647,N,08353.4225,W,0.85,185.16,130620,,,D*7D
$GPRMC,151526.000,A,4028.4644,N,08353.4230,W,0.95,168.54,130620,,,D*7D
$GPRMC,151527.000,A,4028.4641,N,08353.4229,W,1.25,152.04,130620,,,D*77
$GPRMC,151528.000,A,4028.4636,N,08353.4234,W,1.12,196.10,130620,,,D*7D
$GPRMC,151529.000,A,4028.4632,N,08353.4240,W,1.16,219.96,130620,,,D*75
$GPRMC,151530.000,A,4028.4633,N,08353.4242,W,0.38,185.15,130620,,,D*7E
$GPRMC,151531.000,A,4028.4633,N,08353.4239,W,0.77,68.39,130620,,,D*44
$GPRMC,151532.000,A,4028.4629,N,08353.4236,W,2.14,142.29,130620,,,D*7C
$GPRMC,151533.000,A,4028.4624,N,08353.4233,W,0.73,134.57,130620,,,D*7E
$GPRMC,151534.000,A,4028.4620,N,08353.4238,W,1.00,224.68,130620,,,D*7D
$GPRMC,151535.000,A,4028.4621,N,08353.4238,W,0.28,149.41,130620,,,D*75
$GPRMC,151536.000,A,4028.4620,N,08353.4233,W,0.22,102.47,130620,,,D*7F
$GPRMC,151537.000,A,4028.4625,N,08353.4226,W,0.18,48.60,130620,,,D*4C
$GPRMC,151538.000,A,4028.4635,N,08353.4220,W,0.28,58.67,130620,,,D*41
$GPRMC,151539.000,A,4028.4634,N,08353.4219,W,0.42,159.76,130620,,,D*77
$GPRMC,151540.000,A,4028.4632,N,08353.4217,W,0.66,156.13,130620,,,D*7B
$GPRMC,151541.000,A,4028.4633,N,08353.4216,W,0.03,343.19,130620,,,D*75
$GPRMC,151542.000,A,4028.4634,N,08353.4216,W,0.27,1.56,130620,,,D*79
$GPRMC,151543.000,A,4028.4637,N,08353.4217,W,0.21,207.25,130620,,,D*7C
$GPRMC,151544.000,A,4028.4639,N,08353.4222,W,0.46,215.38,130620,,,D*7D
$GPRMC,151545.000,A,4028.4639,N,08353.4227,W,0.71,218.34,130620,,,D*7C
$GPRMC,151546.000,A,4028.4641,N,08353.4227,W,0.16,124.52,130620,,,D*7D
$GPRMC,151547.000,A,4028.4643,N,08353.4224,W,0.25,144.66,130620,,,D*7C
$GPRMC,151548.000,A,4028.4645,N,08353.4221,W,0.27,136.52,130620,,,D*70
$GPRMC,151549.000,A,4028.4648,N,08353.4218,W,0.24,32.41,130620,,,D*42
$GPRMC,151550.000,A,4028.4649,N,08353.4215,W,0.49,56.86,130620,,,D*44
$GPRMC,151551.000,A,4028.4650,N,08353.4218,W,0.41,219.91,130620,,,D*77
$GPRMC,151552.000,A,4028.4650,N,08353.4221,W,0.51,212.38,130620,,,D*77
$GPRMC,151553.000,A,4028.4650,N,08353.4222,W,0.44,194.48,130620,,,D*7B
$GPRMC,151554.000,A,4028.4650,N,08353.4222,W,0.22,94.83,130620,,,D*4A
$GPRMC,151555.000,A,4028.4650,N,08353.4222,W,0.34,188.70,130620,,,D*7C
$GPRMC,151556.000,A,4028.4650,N,08353.4222,W,0.46,188.57,130620,,,D*7F
$GPRMC,151557.000,A,4028.4649,N,08353.4222,W,0.15,151.81,130620,,,D*7F
$GPRMC,151558.000,A,4028.4649,N,08353.4221,W,0.25,190.94,130620,,,D*79
$GPRMC,151559.000,A,4028.4650,N,08353.4221,W,0.27,61.32,130620,,,D*41
$GPRMC,151600.000,A,4028.4651,N,08353.4220,W,0.24,54.16,130620,,,D*4D
$GPRMC,151601.000,A,4028.4652,N,08353.4218,W,0.33,50.88,130620,,,D*41
$GPRMC,151602.000,A,4028.4652,N,08353.4218,W,0.19,65.62,130620,,,D*48
$GPRMC,151603.000,A,4028.4653,N,08353.4217,W,0.23,68.88,130620,,,D*47
$GPRMC,151604.000,A,4028.4653,N,08353.4217,W,0.26,218.25,130620,,,D*77
$GPRMC,151605.000,A,4028.4654,N,08353.4218,W,0.19,43.98,130620,,,D*48
$GPRMC,151606.000,A,4028.4649,N,08353.4218,W,0.29,208.24,130620,,,D*7E
$GPRMC,151607.000,A,4028.4644,N,08353.4217,W,0.17,12.81,130620,,,D*46
$GPRMC,151608.000,A,4028.4644,N,08353.4217,W,0.29,139.10,130620,,,D*74
$GPRMC,151609.000,A,4028.4639,N,08353.4222,W,0.38,170.38,130620,,,D*7E
$GPRMC,151610.000,A,4028.4642,N,08353.4221,W,0.05,159.10,130620,,,D*76
$GPRMC,151611.000,A,4028.4644,N,08353.4220,W,0.16,198.28,130620,,,D*74
$GPRMC,151612.000,A,4028.4644,N,08353.4220,W,0.12,155.70,130620,,,D*7F
$GPRMC,151613.000,A,4028.4648,N,08353.4220,W,0.51,16.08,130620,,,D*4C
$GPRMC,151614.000,A,4028.4649,N,08353.4221,W,0.37,7.58,130620,,,D*7E
$GPRMC,151615.000,A,4028.4651,N,08353.4222,W,0.28,358.78,130620,,,D*70
$GPRMC,151616.000,A,4028.4653,N,08353.4222,W,0.36,13.70,130620,,,D*4A
$GPRMC,151617.000,A,4028.4656,N,08353.4222,W,0.05,197.78,130620,,,D*7B
$GPRMC,151618.000,A,4028.4658,N,08353.4222,W,0.15,95.67,130620,,,D*46
$GPRMC,151619.000,A,4028.4660,N,08353.4224,W,0.26,90.72,130620,,,D*4B
$GPRMC,151620.000,A,4028.4659,N,08353.4227,W,0.27,98.06,130620,,,D*42
$GPRMC,151621.000,A,4028.4659,N,08353.4225,W,0.30,28.06,130620,,,D*4C
$GPRMC,151622.000,A,4028.4663,N,08353.4226,W,0.44,355.89,130620,,,D*78
$GPRMC,151623.000,A,4028.4662,N,08353.4223,W,0.72,106.72,130620,,,D*78
$GPRMC,151624.000,A,4028.4661,N,08353.4219,W,0.81,119.19,130620,,,D*7A
$GPRMC,151625.000,A,4028.4661,N,08353.4215,W,0.37,128.15,130620,,,D*74
$GPRMC,151626.000,A,4028.4660,N,08353.4213,W,0.53,141.97,130620,,,D*77
$GPRMC,151627.000,A,4028.4658,N,08353.4211,W,0.69,152.55,130620,,,D*7A
$GPRMC,151628.000,A,4028.4657,N,08353.4210,W,0.74,146.94,130620,,,D*7F
$GPRMC,151629.000,A,4028.4656,N,08353.4210,W,0.19,151.30,130620,,,D*7C
$GPRMC,151630.000,A,4028.4657,N,08353.4212,W,0.24,318.23,130620,,,D*74
$GPRMC,151631.000,A,4028.4658,N,08353.4214,W,0.52,325.11,130620,,,D*72
$GPRMC,151632.000,A,4028.4659,N,08353.4215,W,0.16,59.22,130620,,,D*49
$GPRMC,151633.000,A,4028.4657,N,08353.4211,W,0.46,122.32,130620,,,D*7B
$GPRMC,151634.000,A,4028.4658,N,08353.4206,W,0.17,5.85,130620,,,D*79
$GPRMC,151635.000,A,4028.4661,N,08353.4203,W,0.34,351.79,130620,,,D*77
$GPRMC,151636.000,A,4028.4662,N,08353.4201,W,0.16,171.75,130620,,,D*79
$GPRMC,151637.000,A,4028.4662,N,08353.4202,W,0.40,168.31,130620,,,D*70
$GPRMC,151638.000,A,4028.4662,N,08353.4205,W,0.44,159.88,130620,,,D*7C
$GPRMC,151639.000,A,4028.4662,N,08353.4208,W,0.56,135.82,130620,,,D*73
$GPRMC,151640.000,A,4028.4658,N,08353.4210,W,1.00,138.32,130620,,,D*79
$GPRMC,151641.000,A,4028.4661,N,08353.4213,W,0.57,157.94,130620,,,D*77
$GPRMC,151642.000,A,4028.4659,N,08353.4220,W,0.78,235.56,130620,,,D*7B
$GPRMC,151643.000,A,4028.4661,N,08353.4222,W,0.53,288.72,130620,,,D*7A
$GPRMC,151644.000,A,4028.4664,N,08353.4228,W,0.48,301.20,130620,,,D*7F
$GPRMC,151645.000,A,4028.4670,N,08353.4232,W,0.80,337.86,130620,,,D*7D
$GPRMC,151646.000,A,4028.4677,N,08353.4233,W,0.57,10.93,130620,,,D*40
$GPRMC,151647.000,A,4028.4678,N,08353.4233,W,0.41,20.95,130620,,,D*4C
$GPRMC,151648.000,A,4028.4675,N,08353.4234,W,0.43,208.99,130620,,,D*7F
$GPRMC,151649.000,A,4028.4678,N,08353.4229,W,0.43,71.21,130620,,,D*40
$GPRMC,151650.000,A,4028.4680,N,08353.4228,W,0.66,12.89,130620,,,D*4E
$GPRMC,151651.000,A,4028.4675,N,08353.4224,W,0.48,332.00,130620,,,D*75
$GPRMC,151652.000,A,4028.4678,N,08353.4221,W,0.41,340.18,130620,,,D*7B
$GPRMC,151653.000,A,4028.4682,N,08353.4216,W,0.38,0.24,130620,,,D*7D
$GPRMC,151654.000,A,4028.4675,N,08353.4213,W,0.22,187.53,130620,,,D*72
$GPRMC,151655.000,A,4028.4677,N,08353.4210,W,0.38,204.70,130620,,,D*70
$GPRMC,151656.000,A,4028.4679,N,08353.4208,W,0.26,285.74,130620,,,D*76
$GPRMC,151657.000,A,4028.4679,N,08353.4213,W,0.54,281.28,130620,,,D*75
$GPRMC,151658.000,A,4028.4683,N,08353.4219,W,0.72,318.17,130620,,,D*7C
$GPRMC,151659.000,A,4028.4681,N,08353.4219,W,0.30,305.81,130620,,,D*7A
$GPRMC,151700.000,A,4028.4681,N,08353.4220,W,0.09,218.20,130620,,,D*71
$GPRMC,151701.000,A,4028.4681,N,08353.4221,W,0.08,104.04,130620,,,D*78
$GPRMC,151702.000,A,4028.4675,N,08353.4218,W,0.88,152.81,130620,,,D*7C
$GPRMC,151703.000,A,4028.4671,N,08353.4218,W,1.08,172.63,130620,,,D*7E
$GPRMC,151704.000,A,4028.4666,N,08353.4224,W,0.83,206.06,130620,,,D*71
$GPRMC,151705.000,A,4028.4665,N,08353.4226,W,0.53,225.49,130620,,,D*76
$GPRMC,151706.000,A,4028.4662,N,08353.4229,W,0.77,239.32,130620,,,D*7A
$GPRMC,151707.000,A,4028.4659,N,08353.4232,W,0.54,274.30,130620,,,D*73
$GPRMC,151708.000,A,4028.4658,N,08353.4236,W,0.73,327.01,130620,,,D*79
$GPRMC,151709.000,A,4028.4659,N,08353.4244,W,1.14,327.96,130620,,,D*72
$GPRMC,151710.000,A,4028.4661,N,08353.4248,W,0.96,307.99,130620,,,D*7B
$GPRMC,151711.000,A,4028.4662,N,08353.4248,W,0.23,312.20,130620,,,D*71
$GPRMC,151712.000,A,4028.4661,N,08353.4243,W,0.52,31.02,130620,,,D*4E
$GPRMC,151713.000,A,4028.4670,N,08353.4243,W,1.10,8.09,130620,,,D*79
$GPRMC,151714.000,A,4028.4680,N,08353.4246,W,1.22,347.98,130620,,,D*75
$GPRMC,151715.000,A,4028.4682,N,08353.4248,W,0.56,332.39,130620,,,D*73
$GPRMC,151716.000,A,4028.4676,N,08353.4244,W,0.05,306.76,130620,,,D*7D
$GPRMC,151717.000,A,4028.4678,N,08353.4238,W,0.82,24.61,130620,,,D*43
$GPRMC,151718.000,A,4028.4680,N,08353.4236,W,0.73,18.35,130620,,,D*45
$GPRMC,151719.000,A,4028.4679,N,08353.4241,W,0.23,254.71,130620,,,D*7D
$GPRMC,151720.000,A,4028.4677,N,08353.4245,W,0.56,332.40,130620,,,D*7C
$GPRMC,151721.000,A,4028.4677,N,08353.4245,W,0.83,343.83,130620,,,D*7C
$GPRMC,151722.000,A,4028.4677,N,08353.4243,W,0.87,354.82,130620,,,D*7A
$GPRMC,151723.000,A,4028.4679,N,08353.4241,W,0.72,4.17,130620,,,D*77
$GPRMC,151724.000,A,4028.4677,N,08353.4238,W,0.28,107.90,130620,,,D*72
$GPRMC,151725.000,A,4028.4677,N,08353.4237,W,0.59,145.05,130620,,,D*70
$GPRMC,151726.000,A,4028.4670,N,08353.4234,W,1.18,161.50,130620,,,D*75
$GPRMC,151727.000,A,4028.4667,N,08353.4233,W,0.90,163.57,130620,,,D*71
$GPRMC,151728.000,A,4028.4667,N,08353.4232,W,0.19,149.07,130620,,,D*73
$GPRMC,151729.000,A,4028.4668,N,08353.4231,W,0.38,6.10,130620,,,D*71
$GPRMC,151730.000,A,4028.4670,N,08353.4231,W,0.65,357.61,130620,,,D*79
$GPRMC,151731.000,A,4028.4671,N,08353.4231,W,0.18,35.26,130620,,,D*47
$GPRMC,151732.000,A,4028.4670,N,08353.4230,W,0.42,143.85,130620,,,D*72
$GPRMC,151733.000,A,4028.4669,N,08353.4229,W,0.56,158.57,130620,,,D*73
$GPRMC,151734.000,A,4028.4668,N,08353.4229,W,0.29,152.88,130620,,,D*75
$GPRMC,151735.000,A,4028.4668,N,08353.4228,W,0.29,160.11,130620,,,D*74
$GPRMC,151736.000,A,4028.4667,N,08353.4228,W,0.15,148.37,130620,,,D*79
$GPRMC,151737.000,A,4028.4667,N,08353.4227,W,0.08,9.91,130620,,,D*73
$GPRMC,151738.000,A,4028.4668,N,08353.4227,W,0.24,2.13,130620,,,D*7C
$GPRMC,151739.000,A,4028.4663,N,08353.4226,W,0.46,158.97,130620,,,D*71
$GPRMC,151740.000,A,4028.4652,N,08353.4223,W,0.73,161.18,130620,,,D*73
$GPRMC,151741.000,A,4028.4653,N,08353.4223,W,0.56,167.02,130620,,,D*79
$GPRMC,151742.000,A,4028.4651,N,08353.4222,W,0.73,163.81,130620,,,D*71
$GPRMC,151743.000,A,4028.4648,N,08353.4221,W,0.57,165.05,130620,,,D*77
$GPRMC,151744.000,A,4028.4642,N,08353.4220,W,0.81,166.40,130620,,,D*72
$GPRMC,151745.000,A,4028.4635,N,08353.4218,W,1.28,166.22,130620,,,D*7E
$GPRMC,151746.000,A,4028.4633,N,08353.4217,W,0.36,180.56,130620,,,D*71
$GPRMC,151747.000,A,4028.4630,N,08353.4217,W,0.11,196.14,130620,,,D*77
$GPRMC,151748.000,A,4028.4635,N,08353.4219,W,0.38,162.68,130620,,,D*78
$GPRMC,151749.000,A,4028.4632,N,08353.4214,W,0.21,200.13,130620,,,D*70
$GPRMC,151750.000,A,4028.4628,N,08353.4211,W,0.38,216.85,130620,,,D*76
$GPRMC,151751.000,A,4028.4626,N,08353.4210,W,0.89,188.42,130620,,,D*7D
$GPRMC,151752.000,A,4028.4635,N,08353.4205,W,0.17,140.14,130620,,,D*78
$GPRMC,151753.000,A,4028.4644,N,08353.4200,W,0.51,50.13,130620,,,D*4F
$GPRMC,151754.000,A,4028.4650,N,08353.4197,W,0.37,67.23,130620,,,D*47
$GPRMC,151755.000,A,4028.4656,N,08353.4194,W,0.33,98.04,130620,,,D*42
$GPRMC,151756.000,A,4028.4661,N,08353.4191,W,0.49,77.45,130620,,,D*49
$GPRMC,151757.000,A,4028.4665,N,08353.4190,W,0.33,50.67,130620,,,D*45
$GPRMC,151758.000,A,4028.4668,N,08353.4191,W,0.21,155.50,130620,,,D*75
$GPRMC,151759.000,A,4028.4670,N,08353.4192,W,0.16,232.65,130620,,,D*7E
$GPRMC,151800.000,A,4028.4672,N,08353.4193,W,0.01,273.92,130620,,,D*75
$GPRMC,151801.000,A,4028.4674,N,08353.4195,W,0.16,230.16,130620,,,D*79
$GPRMC,151802.000,A,4028.4677,N,08353.4196,W,0.39,29.12,130620,,,D*49
$GPRMC,151803.000,A,4028.4680,N,08353.4197,W,0.78,28.81,130620,,,D*4F
$GPRMC,151804.000,A,4028.4683,N,08353.4197,W,0.88,27.97,130620,,,D*4C
$GPRMC,151805.000,A,4028.4686,N,08353.4198,W,0.87,26.08,130620,,,D*4F
$GPRMC,151806.000,A,4028.4689,N,08353.4199,W,0.68,30.99,130620,,,D*4C
$GPRMC,151807.000,A,4028.4690,N,08353.4200,W,0.30,17.03,130620,,,D*4D
$GPRMC,151808.000,A,4028.4691,N,08353.4202,W,0.03,328.34,130620,,,D*7A
$GPRMC,151809.000,A,4028.4691,N,08353.4204,W,0.18,222.61,130620,,,D*7C
$GPRMC,151810.000,A,4028.4691,N,08353.4206,W,0.07,15.86,130620,,,D*47
$GPRMC,151811.000,A,4028.4691,N,08353.4208,W,0.08,300.42,130620,,,D*78
$GPRMC,151812.000,A,4028.4691,N,08353.4210,W,0.18,234.04,130620,,,D*77
$GPRMC,151813.000,A,4028.4691,N,08353.4213,W,0.51,218.05,130620,,,D*77
$GPRMC,151814.000,A,4028.4690,N,08353.4215,W,0.47,221.13,130620,,,D*7D
$GPRMC,151815.000,A,4028.4689,N,08353.4217,W,0.27,222.28,130620,,,D*7B
$GPRMC,151816.000,A,4028.4689,N,08353.4219,W,0.47,221.03,130620,,,D*7A
$GPRMC,151817.000,A,4028.4687,N,08353.4221,W,0.64,215.74,130620,,,D*78
$GPRMC,151818.000,A,4028.4686,N,08353.4224,W,0.76,216.04,130620,,,D*74
$GPRMC,151819.000,A,4028.4684,N,08353.4226,W,0.82,215.33,130620,,,D*79
$GPRMC,151820.000,A,4028.4682,N,08353.4228,W,0.79,213.62,130620,,,D*7D
$GPRMC,151821.000,A,4028.4681,N,08353.4230,W,0.74,214.65,130620,,,D*7B
$GPRMC,151822.000,A,4028.4679,N,08353.4233,W,0.84,218.57,130620,,,D*7E
$GPRMC,151823.000,A,4028.4678,N,08353.4235,W,0.68,219.52,130620,,,D*7E
$GPRMC,151824.000,A,4028.4678,N,08353.4237,W,0.25,218.12,130620,,,D*77
$GPRMC,151825.000,A,4028.4678,N,08353.4237,W,0.06,333.89,130620,,,D*7D
$GPRMC,151826.000,A,4028.4679,N,08353.4237,W,0.05,19.62,130620,,,D*42
$GPRMC,151827.000,A,4028.4679,N,08353.4237,W,0.11,353.02,130620,,,D*7D
$GPRMC,151828.000,A,4028.4680,N,08353.4237,W,0.10,40.05,130620,,,D*43
$GPRMC,151829.000,A,4028.4681,N,08353.4235,W,0.40,30.57,130620,,,D*44
$GPRMC,151830.000,A,4028.4681,N,08353.4235,W,0.06,26.97,130620,,,D*45
$GPRMC,151831.000,A,4028.4682,N,08353.4233,W,0.08,70.57,130620,,,D*40
$GPRMC,151832.000,A,4028.4683,N,08353.4232,W,0.29,43.20,130620,,,D*40
$GPRMC,151833.000,A,4028.4683,N,08353.4231,W,0.27,42.74,130620,,,D*4C
$GPRMC,151834.000,A,4028.4683,N,08353.4231,W,0.07,56.13,130620,,,D*4D
$GPRMC,151835.000,A,4028.4682,N,08353.4233,W,0.18,215.66,130620,,,D*76
$GPRMC,151836.000,A,4028.4681,N,08353.4234,W,0.33,44.49,130620,,,D*43
$GPRMC,151837.000,A,4028.4682,N,08353.4233,W,0.56,36.07,130620,,,D*4A
$GPRMC,151838.000,A,4028.4682,N,08353.4234,W,0.59,34.18,130620,,,D*41
$GPRMC,151839.000,A,4028.4680,N,08353.4236,W,0.01,276.58,130620,,,D*7D
$GPRMC,151836.000,A,4028.4678,N,08353.4239,W,0.41,213.09,130620,,,D*79
$GPRMC,151837.000,A,4028.4676,N,08353.4241,W,0.09,214.05,130620,,,D*7E
$GPRMC,151838.000,A,4028.4676,N,08353.4242,W,0.33,38.23,130620,,,D*43
$GPRMC,151839.000,A,4028.4677,N,08353.4241,W,0.46,38.60,130620,,,D*45
$GPRMC,151840.000,A,4028.4677,N,08353.4241,W,0.12,220.10,130620,,,D*76
$GPRMC,151841.000,A,4028.4676,N,08353.4242,W,0.45,213.80,130620,,,D*7E
$GPRMC,151842.000,A,4028.4675,N,08353.4243,W,0.58,218.14,130620,,,D*75
$GPRMC,151843.000,A,4028.4673,N,08353.4246,W,0.61,227.83,130620,,,D*7F
$GPRMC,151844.000,A,4028.4673,N,08353.4248,W,0.19,345.31,130620,,,D*75
$GPRMC,151845.000,A,4028.4673,N,08353.4249,W,0.26,352.03,130620,,,D*7E
$GPRMC,151846.000,A,4028.4674,N,08353.4249,W,0.51,18.28,130620,,,D*4E
$GPRMC,151847.000,A,4028.4675,N,08353.4248,W,0.48,44.10,130620,,,D*45
$GPRMC,151848.000,A,4028.4676,N,08353.4246,W,0.55,56.06,130620,,,D*4F
$GPRMC,151849.000,A,4028.4677,N,08353.4244,W,0.71,40.26,130620,,,D*4E
$GPRMC,151850.000,A,4028.4679,N,08353.4244,W,0.65,19.72,130620,,,D*40
$GPRMC,151851.000,A,4028.4681,N,08353.4246,W,0.01,329.51,130620,,,D*77
$GPRMC,151852.000,A,4028.4677,N,08353.4256,W,0.83,226.71,130620,,,D*7A
$GPRMC,151853.000,A,4028.4675,N,08353.4263,W,0.73,249.13,130620,,,D*7D
$GPRMC,151854.000,A,4028.4674,N,08353.4270,W,0.68,268.68,130620,,,D*7C
$GPRMC,151855.000,A,4028.4674,N,08353.4272,W,0.54,255.39,130620,,,D*7A
$GPRMC,151856.000,A,4028.4675,N,08353.4274,W,0.32,308.15,130620,,,D*79
$GPRMC,151857.000,A,4028.4673,N,08353.4277,W,0.17,38.93,130620,,,D*44
$GPRMC,151858.000,A,4028.4670,N,08353.4279,W,0.21,112.98,130620,,,D*71
$GPRMC,151859.000,A,4028.4669,N,08353.4282,W,0.43,352.22,130620,,,D*7F
$GPRMC,151900.000,A,4028.4665,N,08353.4289,W,0.32,322.58,130620,,,D*79
$GPRMC,151901.000,A,4028.4664,N,08353.4289,W,0.17,84.14,130620,,,D*49
$GPRMC,151902.000,A,4028.4662,N,08353.4291,W,0.03,151.09,130620,,,D*75
$GPRMC,151903.000,A,4028.4665,N,08353.4295,W,0.36,266.30,130620,,,D*7C
$GPRMC,151904.000,A,4028.4670,N,08353.4292,W,0.30,245.29,130620,,,D*77
$GPRMC,151905.000,A,4028.4670,N,08353.4293,W,0.38,48.81,130620,,,D*42
$GPRMC,151906.000,A,4028.4670,N,08353.4291,W,0.31,13.04,130620,,,D*49
$GPRMC,151907.000,A,4028.4670,N,08353.4291,W,0.58,30.26,130620,,,D*46
$GPRMC,151908.000,A,4028.4667,N,08353.4286,W,1.02,39.95,130620,,,D*46
$GPRMC,151909.000,A,4028.4668,N,08353.4283,W,0.11,25.58,130620,,,D*42
$GPRMC,151910.000,A,4028.4667,N,08353.4285,W,0.22,224.23,130620,,,D*7C
$GPRMC,151911.000,A,4028.4663,N,08353.4287,W,0.16,160.93,130620,,,D*74
$GPRMC,151912.000,A,4028.4658,N,08353.4286,W,0.14,123.10,130620,,,D*70
$GPRMC,151913.000,A,4028.4660,N,08353.4280,W,0.17,222.37,130620,,,D*78
$GPRMC,151914.000,A,4028.4661,N,08353.4281,W,0.14,200.65,130620,,,D*7B
$GPRMC,151915.000,A,4028.4660,N,08353.4280,W,0.16,167.35,130620,,,D*7F
$GPRMC,151916.000,A,4028.4657,N,08353.4282,W,0.32,95.17,130620,,,D*40
$GPRMC,151917.000,A,4028.4662,N,08353.4278,W,0.34,97.56,130620,,,D*43
$GPRMC,151918.000,A,4028.4661,N,08353.4280,W,0.14,172.38,130620,,,D*78
$GPRMC,151919.000,A,4028.4660,N,08353.4277,W,0.16,55.08,130620,,,D*45
$GPRMC,151920.000,A,4028.4659,N,08353.4278,W,0.44,36.88,130620,,,D*40
$GPRMC,151921.000,A,4028.4660,N,08353.4275,W,0.44,43.85,130620,,,D*49
$GPRMC,151922.000,A,4028.4661,N,08353.4275,W,0.20,27.69,130620,,,D*49
$GPRMC,151923.000,A,4028.4658,N,08353.4275,W,0.24,38.88,130620,,,D*47
$GPRMC,151924.000,A,4028.4655,N,08353.4277,W,0.28,167.47,130620,,,D*7B
$GPRMC,151925.000,A,4028.4654,N,08353.4279,W,0.31,58.19,130620,,,D*4B
$GPRMC,151926.000,A,4028.4655,N,08353.4281,W,0.02,333.78,130620,,,D*77
$GPRMC,151927.000,A,4028.4656,N,08353.4283,W,0.09,102.36,130620,,,D*76
$GPRMC,151928.000,A,4028.4656,N,08353.4285,W,0.21,41.02,130620,,,D*44
$GPRMC,151929.000,A,4028.4657,N,08353.4287,W,0.22,231.06,130620,,,D*74
$GPRMC,151930.000,A,4028.4656,N,08353.4288,W,0.67,228.04,130620,,,D*79
$GPRMC,151931.000,A,4028.4657,N,08353.4287,W,0.14,130.20,130620,,,D*7E
$GPRMC,151932.000,A,4028.4663,N,08353.4275,W,1.27,55.03,130620,,,D*45
$GPRMC,151933.000,A,4028.4666,N,08353.4270,W,1.23,56.01,130620,,,D*41
$GPRMC,151934.000,A,4028.4669,N,08353.4271,W,0.37,42.29,130620,,,D*43
$GPRMC,151935.000,A,4028.4671,N,08353.4268,W,0.01,224.34,130620,,,D*78
$GPRMC,151936.000,A,4028.4673,N,08353.4267,W,0.32,247.78,130620,,,D*7B
$GPRMC,151937.000,A,4028.4671,N,08353.4266,W,0.63,238.13,130620,,,D*78
$GPRMC,151938.000,A,4028.4674,N,08353.4262,W,0.26,63.43,130620,,,D*4E
$GPRMC,151939.000,A,4028.4676,N,08353.4258,W,0.47,61.38,130620,,,D*4D
$GPRMC,151940.000,A,4028.4679,N,08353.4256,W,0.21,68.19,130620,,,D*48
$GPRMC,151941.000,A,4028.4682,N,08353.4256,W,0.13,6.04,130620,,,D*78
$GPRMC,151942.000,A,4028.4688,N,08353.4253,W,0.19,268.46,130620,,,D*72
$GPRMC,151943.000,A,4028.4694,N,08353.4249,W,0.31,253.56,130620,,,D*76
$GPRMC,151944.000,A,4028.4689,N,08353.4257,W,0.19,216.21,130620,,,D*79
$GPRMC,151945.000,A,4028.4683,N,08353.4273,W,0.12,260.23,130620,,,D*7C
$GPRMC,151946.000,A,4028.4682,N,08353.4283,W,0.11,335.20,130620,,,D*70
$GPRMC,151947.000,A,4028.4682,N,08353.4284,W,0.20,13.74,130620,,,D*42
$GPRMC,151948.000,A,4028.4678,N,08353.4284,W,0.42,86.70,130620,,,D*44
$GPRMC,151949.000,A,4028.4681,N,08353.4286,W,0.58,41.12,130620,,,D*45
$GPRMC,151950.000,A,4028.4687,N,08353.4276,W,0.46,54.87,130620,,,D*43
$GPRMC,151951.000,A,4028.4685,N,08353.4283,W,0.09,248.82,130620,,,D*7B
$GPRMC,151952.000,A,4028.4682,N,08353.4282,W,0.45,225.23,130620,,,D*76
$GPRMC,151953.000,A,4028.4682,N,08353.4284,W,0.30,63.01,130620,,,D*43
$GPRMC,151954.000,A,4028.4680,N,08353.4288,W,0.30,70.73,130620,,,D*4D
$GPRMC,151955.000,A,4028.4678,N,08353.4292,W,0.09,236.63,130620,,,D*7B
$GPRMC,151956.000,A,4028.4675,N,08353.4297,W,0.55,230.34,130620,,,D*7D
$GPRMC,151957.000,A,4028.4671,N,08353.4304,W,0.56,232.27,130620,,,D*70
$GPRMC,151958.000,A,4028.4669,N,08353.4308,W,0.60,235.61,130620,,,D*7A
$GPRMC,151959.000,A,4028.4669,N,08353.4307,W,0.32,93.56,130620,,,D*49
$GPRMC,152000.000,A,4028.4665,N,08353.4306,W,0.73,79.67,130620,,,D*41
$GPRMC,152001.000,A,4028.4664,N,08353.4306,W,0.30,98.94,130620,,,D*45
$GPRMC,152002.000,A,4028.4660,N,08353.4310,W,0.81,229.42,130620,,,D*7C
$GPRMC,152003.000,A,4028.4658,N,08353.4317,W,1.15,227.52,130620,,,D*72
$GPRMC,152004.000,A,4028.4655,N,08353.4322,W,0.54,227.34,130620,,,D*7A
$GPRMC,152005.000,A,4028.4659,N,08353.4314,W,0.87,53.22,130620,,,D*4A
$GPRMC,152006.000,A,4028.4663,N,08353.4307,W,0.59,63.61,130620,,,D*45
$GPRMC,152007.000,A,4028.4660,N,08353.4311,W,0.25,197.69,130620,,,D*79
$GPRMC,152008.000,A,4028.4662,N,08353.4305,W,0.81,63.73,130620,,,D*4E
$GPRMC,152009.000,A,4028.4662,N,08353.4306,W,0.38,77.56,130620,,,D*4C
$GPRMC,152010.000,A,4028.4661,N,08353.4306,W,0.14,62.89,130620,,,D*4F
$GPRMC,152011.000,A,4028.4661,N,08353.4309,W,0.27,34.03,130620,,,D*40
$GPRMC,152012.000,A,4028.4666,N,08353.4304,W,0.92,46.45,130620,,,D*40
$GPRMC,152013.000,A,4028.4667,N,08353.4297,W,1.20,48.68,130620,,,D*42
$GPRMC,152014.000,A,4028.4670,N,08353.4290,W,0.29,64.51,130620,,,D*48
$GPRMC,152015.000,A,4028.4670,N,08353.4289,W,0.41,229.14,130620,,,D*75
$GPRMC,152016.000,A,4028.4666,N,08353.4293,W,0.92,226.50,130620,,,D*7B
$GPRMC,152017.000,A,4028.4665,N,08353.4295,W,0.76,216.16,130620,,,D*74
$GPRMC,152018.000,A,4028.4664,N,08353.4299,W,0.23,196.50,130620,,,D*7F
$GPRMC,152019.000,A,4028.4667,N,08353.4296,W,0.80,59.68,130620,,,D*42
$GPRMC,152020.000,A,4028.4673,N,08353.4286,W,0.83,52.06,130620,,,D*4C
$GPRMC,152021.000,A,4028.4677,N,08353.4279,W,0.54,48.79,130620,,,D*40
$GPRMC,152022.000,A,4028.4679,N,08353.4273,W,0.19,51.85,130620,,,D*45
$GPRMC,152023.000,A,4028.4682,N,08353.4271,W,0.06,193.61,130620,,,D*79
$GPRMC,152024.000,A,4028.4684,N,08353.4270,W,0.31,195.32,130620,,,D*7D
$GPRMC,152025.000,A,4028.4680,N,08353.4274,W,0.89,197.86,130620,,,D*72
$GPRMC,152026.000,A,4028.4678,N,08353.4272,W,0.56,196.87,130620,,,D*72
$GPRMC,152027.000,A,4028.4673,N,08353.4275,W,0.21,156.11,130620,,,D*7C
$GPRMC,152028.000,A,4028.4672,N,08353.4273,W,0.30,155.45,130620,,,D*76
$GPRMC,152029.000,A,4028.4670,N,08353.4270,W,0.31,127.92,130620,,,D*78
$GPRMC,152030.000,A,4028.4666,N,08353.4278,W,0.74,218.32,130620,,,D*7B
$GPRMC,152031.000,A,4028.4667,N,08353.4282,W,0.27,248.47,130620,,,D*7F
$GPRMC,152032.000,A,4028.4665,N,08353.4288,W,0.83,235.14,130620,,,D*76
$GPRMC,152033.000,A,4028.4662,N,08353.4295,W,0.64,234.41,130620,,,D*74
$GPRMC,152034.000,A,4028.4661,N,08353.4295,W,0.48,242.88,130620,,,D*7A
$GPRMC,152035.000,A,4028.4661,N,08353.4298,W,0.48,247.57,130620,,,D*71
$GPRMC,152036.000,A,4028.4662,N,08353.4298,W,0.08,305.76,130620,,,D*71
$GPRMC,152037.000,A,4028.4672,N,08353.4287,W,1.44,52.37,130620,,,D*42
$GPRMC,152038.000,A,4028.4675,N,08353.4282,W,1.84,54.86,130620,,,D*4F
$GPRMC,152039.000,A,4028.4677,N,08353.4278,W,2.14,51.37,130620,,,D*4C
$GPRMC,152040.000,A,4028.4678,N,08353.4277,W,1.17,52.45,130620,,,D*44
$GPRMC,152041.000,A,4028.4678,N,08353.4281,W,0.35,230.08,130620,,,D*72
$GPRMC,152042.000,A,4028.4671,N,08353.4289,W,1.23,226.30,130620,,,D*7A
$GPRMC,152043.000,A,4028.4668,N,08353.4290,W,0.70,227.89,130620,,,D*7F
$GPRMC,152044.000,A,4028.4664,N,08353.4291,W,0.86,225.95,130620,,,D*73
$GPRMC,152045.000,A,4028.4662,N,08353.4289,W,0.49,209.23,130620,,,D*7D
$GPRMC,152046.000,A,4028.4666,N,08353.4287,W,0.21,277.36,130620,,,D*77
$GPRMC,152047.000,A,4028.4662,N,08353.4292,W,0.56,204.16,130620,,,D*70
$GPRMC,152048.000,A,4028.4660,N,08353.4291,W,0.77,207.14,130620,,,D*7C
$GPRMC,152049.000,A,4028.4662,N,08353.4291,W,0.66,273.51,130620,,,D*7D
$GPRMC,152050.000,A,4028.4664,N,08353.4290,W,0.73,236.25,130620,,,D*74
$GPRMC,152051.000,A,4028.4665,N,08353.4295,W,1.01,258.22,130620,,,D*7A
$GPRMC,152052.000,A,4028.4657,N,08353.4295,W,1.96,220.35,130620,,,D*7F
$GPRMC,152053.000,A,4028.4659,N,08353.4292,W,0.40,163.93,130620,,,D*75
$GPRMC,152054.000,A,4028.4663,N,08353.4287,W,0.70,53.63,130620,,,D*41
$GPRMC,152055.000,A,4028.4665,N,08353.4277,W,1.17,60.22,130620,,,D*4C
$GPRMC,152056.000,A,4028.4668,N,08353.4270,W,0.78,46.19,130620,,,D*41
$GPRMC,152057.000,A,4028.4667,N,08353.4272,W,1.00,54.31,130620,,,D*4A
$GPRMC,152058.000,A,4028.4670,N,08353.4265,W,0.35,82.88,130620,,,D*4B
$GPRMC,152059.000,A,4028.4671,N,08353.4256,W,0.17,80.02,130620,,,D*4B
$GPRMC,152100.000,A,4028.4666,N,08353.4257,W,0.18,140.85,130620,,,A*79
$GPRMC,152101.000,A,4028.4658,N,08353.4260,W,0.41,209.38,130620,,,A*75
$GPRMC,152102.000,A,4028.4657,N,08353.4258,W,0.31,215.57,130620,,,A*71
$GPRMC,152103.000,A,4028.4658,N,08353.4255,W,0.40,340.78,130620,,,A*78
$GPRMC,152104.000,A,4028.4662,N,08353.4255,W,0.19,349.84,130620,,,A*70
$GPRMC,152105.000,A,4028.4661,N,08353.4260,W,0.74,220.99,130620,,,A*7D
$GPRMC,152106.000,A,4028.4659,N,08353.4262,W,0.09,109.68,130620,,,A*7B
$GPRMC,152107.000,A,4028.4659,N,08353.4261,W,0.43,57.54,130620,,,A*42
$GPRMC,152108.000,A,4028.4661,N,08353.4261,W,0.25,24.66,130620,,,A*43
$GPRMC,152109.000,A,4028.4661,N,08353.4262,W,0.13,244.49,130620,,,A*7D
$GPRMC,152110.000,A,4028.4661,N,08353.4262,W,0.21,103.09,130620,,,A*70
$GPRMC,152111.000,A,4028.4659,N,08353.4260,W,0.35,69.67,130620,,,A*48
$GPRMC,152112.000,A,4028.4656,N,08353.4260,W,0.20,175.69,130620,,,A*72
$GPRMC,152113.000,A,4028.4654,N,08353.4260,W,0.30,199.65,130620,,,A*7E
$GPRMC,152114.000,A,4028.4652,N,08353.4263,W,0.45,206.81,130620,,,A*71
$GPRMC,152115.000,A,4028.4651,N,08353.4262,W,0.40,197.09,130620,,,A*7C
$GPRMC,152116.000,A,4028.4652,N,08353.4259,W,0.28,204.28,130620,,,A*70
$GPRMC,152117.000,A,4028.4657,N,08353.4252,W,0.17,121.32,130620,,,A*7C
$GPRMC,152118.000,A,4028.4659,N,08353.4247,W,0.05,358.47,130620,,,A*74
$GPRMC,152119.000,A,4028.4662,N,08353.4239,W,0.22,49.94,130620,,,A*4C
$GPRMC,152120.000,A,4028.4661,N,08353.4239,W,0.20,115.07,130620,,,A*75
$GPRMC,152121.000,A,4028.4661,N,08353.4234,W,0.42,88.55,130620,,,A*4F
$GPRMC,152122.000,A,4028.4655,N,08353.4243,W,0.22,162.25,130620,,,A*7F
$GPRMC,152123.000,A,4028.4651,N,08353.4247,W,0.16,225.37,130620,,,A*7A
$GPRMC,152124.000,A,4028.4648,N,08353.4253,W,0.62,217.51,130620,,,A*72
$GPRMC,152125.000,A,4028.4643,N,08353.4261,W,0.14,155.09,130620,,,A*70
$GPRMC,152126.000,A,4028.4645,N,08353.4256,W,0.68,66.73,130620,,,A*46
$GPRMC,152127.000,A,4028.4643,N,08353.4259,W,0.74,52.82,130620,,,A*4A
$GPRMC,152128.000,A,4028.4643,N,08353.4261,W,0.18,199.87,130620,,,A*77
$GPRMC,152129.000,A,4028.4643,N,08353.4263,W,0.63,235.86,130620,,,A*7C
$GPRMC,152130.000,A,4028.4642,N,08353.4267,W,1.06,231.78,130620,,,A*76
$GPRMC,152131.000,A,4028.4647,N,08353.4269,W,0.71,237.36,130620,,,A*71
$GPRMC,152132.000,A,4028.4650,N,08353.4272,W,0.76,232.22,130620,,,A*79
$GPRMC,152133.000,A,4028.4650,N,08353.4277,W,0.20,258.21,130620,,,A*71
$GPRMC,152134.000,A,4028.4649,N,08353.4283,W,0.34,252.91,130620,,,A*71
$GPRMC,152135.000,A,4028.4651,N,08353.4283,W,0.31,252.46,130620,,,A*76
$GPRMC,152136.000,A,4028.4651,N,08353.4284,W,0.28,251.46,130620,,,A*79
$GPRMC,152137.000,A,4028.4650,N,08353.4286,W,0.31,268.73,130620,,,A*7F
$GPRMC,152138.000,A,4028.4648,N,08353.4292,W,0.97,233.33,130620,,,A*7A
$GPRMC,152139.000,A,4028.4648,N,08353.4290,W,0.42,254.17,130620,,,A*76
$GPRMC,152140.000,A,4028.4650,N,08353.4285,W,0.09,352.78,130620,,,A*74
$GPRMC,152141.000,A,4028.4654,N,08353.4280,W,0.47,34.18,130620,,,A*4B
$GPRMC,152142.000,A,4028.4654,N,08353.4276,W,0.55,59.68,130620,,,A*4E
$GPRMC,152143.000,A,4028.4654,N,08353.4271,W,0.23,167.88,130620,,,A*7B
$GPRMC,152144.000,A,4028.4657,N,08353.4274,W,0.30,276.31,130620,,,A*79
$GPRMC,152145.000,A,4028.4659,N,08353.4271,W,0.26,67.73,130620,,,A*40
$GPRMC,152146.000,A,4028.4658,N,08353.4267,W,0.39,135.22,130620,,,A*79
$GPRMC,152147.000,A,4028.4658,N,08353.4266,W,0.13,180.40,130620,,,A*7B
$GPRMC,152148.000,A,4028.4656,N,08353.4262,W,0.37,122.44,130620,,,A*74
$GPRMC,152149.000,A,4028.4651,N,08353.4263,W,0.41,159.03,130620,,,A*7D
$GPRMC,152150.000,A,4028.4646,N,08353.4260,W,0.35,158.76,130620,,,A*70
$GPRMC,152151.000,A,4028.4641,N,08353.4262,W,0.41,176.69,130620,,,A*75
$GPRMC,152152.000,A,4028.4640,N,08353.4260,W,0.29,110.04,130620,,,A*70
$GPRMC,152153.000,A,4028.4641,N,08353.4255,W,0.17,86.11,130620,,,A*41
$GPRMC,152154.000,A,4028.4643,N,08353.4250,W,0.51,74.68,130620,,,A*40
$GPRMC,152155.000,A,4028.4644,N,08353.4245,W,0.70,74.96,130620,,,A*40
$GPRMC,152156.000,A,4028.4646,N,08353.4239,W,0.63,79.79,130620,,,A*44
$GPRMC,152157.000,A,4028.4648,N,08353.4233,W,0.34,85.20,130620,,,A*4C
$GPRMC,152158.000,A,4028.4650,N,08353.4229,W,0.19,106.76,130620,,,A*77
$GPRMC,152159.000,A,4028.4653,N,08353.4223,W,0.43,60.76,130620,,,A*41
$GPRMC,152200.000,A,4028.4654,N,08353.4226,W,0.40,60.23,130620,,,A*4F
$GPRMC,152201.000,A,4028.4654,N,08353.4226,W,0.25,119.28,130620,,,A*79
$GPRMC,152202.000,A,4028.4657,N,08353.4221,W,0.28,105.78,130620,,,A*7B
$GPRMC,152203.000,A,4028.4659,N,08353.4217,W,0.27,124.06,130620,,,A*74
$GPRMC,152204.000,A,4028.4661,N,08353.4212,W,1.30,62.11,130620,,,A*4F
