$ADVER,3080,2.2
$GPRMC,145358.696,A,4028.4251,N,08353.5261,W,0.14,71.46,130620,,,A*4D
$GPRMC,145359.696,A,4028.4251,N,08353.5261,W,0.08,69.88,130620,,,A*4A
$GPRMC,145400.000,A,4028.4251,N,08353.5261,W,0.15,193.05,130620,,,A*75
$GPRMC,145401.000,A,4028.4251,N,08353.5261,W,0.11,76.00,130620,,,A*4F
$GPRMC,145402.000,A,4028.4251,N,08353.5261,W,0.08,94.50,130620,,,A*4D
$GPRMC,145403.000,A,4028.4251,N,08353.5260,W,0.10,88.88,130620,,,A*4C
$GPRMC,145404.000,A,4028.4251,N,08353.5260,W,0.09,80.51,130620,,,A*4F
$GPRMC,145405.000,A,4028.4251,N,08353.5260,W,0.11,81.43,130620,,,A*45
$GPRMC,145406.000,A,4028.4251,N,08353.5260,W,0.11,71.95,130620,,,A*42
$GPRMC,145407.000,A,4028.4251,N,08353.5259,W,0.11,84.61,130620,,,A*48
$GPRMC,145408.000,A,4028.4251,N,08353.5259,W,0.10,82.43,130620,,,A*40
$GPRMC,145409.000,A,4028.4251,N,08353.5259,W,0.11,81.89,130620,,,A*45
$GPRMC,145410.000,A,4028.4251,N,08353.5259,W,0.11,83.34,130620,,,A*49
$GPRMC,145411.000,A,4028.4251,N,08353.5259,W,0.10,86.33,130620,,,A*4B
$GPRMC,145412.000,A,4028.4251,N,08353.5259,W,0.11,82.21,130620,,,A*4E
$GPRMC,145413.000,A,4028.4251,N,08353.5258,W,0.10,87.98,130620,,,A*48
$GPRMC,145414.000,A,4028.4251,N,08353.5258,W,0.10,87.64,130620,,,A*4C
$GPRMC,145415.000,A,4028.4251,N,08353.5258,W,0.11,89.28,130620,,,A*4A
$GPRMC,145416.000,A,4028.4251,N,08353.5258,W,0.10,82.11,130620,,,A*49
$GPRMC,145417.000,A,4028.4251,N,08353.5258,W,0.10,95.47,130620,,,A*4D
$GPRMC,145418.000,A,4028.4251,N,08353.5257,W,0.10,89.26,130620,,,A*47
$GPRMC,145419.000,A,4028.4251,N,08353.5257,W,0.10,87.31,130620,,,A*4E
$GPRMC,145420.000,A,4028.4251,N,08353.5257,W,0.09,93.01,130620,,,A*4A
$GPRMC,145421.000,A,4028.4251,N,08353.5257,W,0.11,87.74,130620,,,A*45
$GPRMC,145422.000,A,4028.4251,N,08353.5257,W,0.10,87.49,130620,,,A*49
$GPRMC,145423.000,A,4028.4251,N,08353.5257,W,0.11,91.22,130620,,,A*43
$GPRMC,145424.000,A,4028.4251,N,08353.5257,W,0.10,91.67,130620,,,A*44
$GPRMC,145425.000,A,4028.4251,N,08353.5256,W,0.11,90.05,130620,,,A*40
$GPRMC,145426.000,A,4028.4251,N,08353.5256,W,0.10,89.98,130620,,,A*4E
$GPRMC,145427.000,A,4028.4251,N,08353.5256,W,0.09,93.92,130620,,,A*46
$GPRMC,145428.000,A,4028.4251,N,08353.5256,W,0.11,94.89,130620,,,A*4D
$GPRMC,145429.000,A,4028.4251,N,08353.5256,W,0.10,81.98,130620,,,A*49
$GPRMC,145430.000,A,4028.4251,N,08353.5256,W,0.10,91.75,130620,,,A*43
$GPRMC,145431.000,A,4028.4251,N,08353.5256,W,0.11,95.31,130620,,,A*47
$GPRMC,145432.000,A,4028.4251,N,08353.5256,W,0.11,90.64,130620,,,A*41
$GPRMC,145433.000,A,4028.4251,N,08353.5255,W,0.10,90.10,130620,,,A*41
$GPRMC,145434.000,A,4028.4251,N,08353.5255,W,0.10,91.09,130620,,,A*4F
$GPRMC,145435.000,A,4028.4251,N,08353.5255,W,0.10,90.69,130620,,,A*49
$GPRMC,145436.000,A,4028.4251,N,08353.5255,W,0.10,90.25,130620,,,A*42
$GPRMC,145437.000,A,4028.4251,N,08353.5255,W,0.11,95.54,130620,,,A*41
$GPRMC,145438.000,A,4028.4251,N,08353.5255,W,0.11,88.24,130620,,,A*45
$GPRMC,145439.000,A,4028.4251,N,08353.5255,W,0.10,91.35,130620,,,A*4D
$GPRMC,145440.000,A,4028.4251,N,08353.5254,W,0.11,88.10,130620,,,A*4C
$GPRMC,145441.000,A,4028.4251,N,08353.5254,W,0.11,92.89,130620,,,A*46
$GPRMC,145442.000,A,4028.4251,N,08353.5254,W,0.10,101.43,130620,,,A*79
$GPRMC,145443.000,A,4028.4251,N,08353.5254,W,0.17,89.11,130620,,,D*4C
$GPRMC,145444.000,A,4028.4251,N,08353.5254,W,0.18,93.21,130620,,,D*4C
$GPRMC,145445.000,A,4028.4251,N,08353.5254,W,0.11,77.38,130620,,,D*46
$GPRMC,145446.000,A,4028.4251,N,08353.5255,W,0.05,94.18,130620,,,D*4E
$GPRMC,145447.000,A,4028.4252,N,08353.5255,W,0.03,97.71,130620,,,D*46
$GPRMC,145448.000,A,4028.4252,N,08353.5256,W,0.03,130.34,130620,,,D*77
$GPRMC,145449.000,A,4028.4252,N,08353.5256,W,0.04,94.91,130620,,,D*41
$GPRMC,145450.000,A,4028.4252,N,08353.5257,W,0.03,127.55,130620,,,D*7E
$GPRMC,145451.000,A,4028.4252,N,08353.5257,W,0.10,119.81,130620,,,D*79
$GPRMC,145452.000,A,4028.4252,N,08353.5257,W,0.17,92.76,130620,,,D*47
$GPRMC,145453.000,A,4028.4252,N,08353.5257,W,0.17,95.42,130620,,,D*46
$GPRMC,145454.000,A,4028.4252,N,08353.5257,W,0.15,89.74,130620,,,D*4B
$GPRMC,145455.000,A,4028.4252,N,08353.5257,W,0.18,96.98,130620,,,D*4B
$GPRMC,145456.000,A,4028.4252,N,08353.5256,W,0.17,90.30,130620,,,D*42
$GPRMC,145457.000,A,4028.4252,N,08353.5256,W,0.12,78.42,130620,,,D*45
$GPRMC,145458.000,A,4028.4253,N,08353.5257,W,0.02,68.58,130620,,,D*41
$GPRMC,145459.000,A,4028.4253,N,08353.5257,W,0.04,106.68,130620,,,D*7C
$GPRMC,145500.000,A,4028.4253,N,08353.5258,W,0.04,114.96,130620,,,D*7C
$GPRMC,145501.000,A,4028.4253,N,08353.5258,W,0.03,98.59,130620,,,D*4C
$GPRMC,145502.000,A,4028.4253,N,08353.5259,W,0.04,124.33,130620,,,D*73
$GPRMC,145503.000,A,4028.4253,N,08353.5259,W,0.09,118.46,130620,,,D*72
$GPRMC,145504.000,A,4028.4253,N,08353.5259,W,0.17,88.09,130620,,,D*49
$GPRMC,145505.000,A,4028.4253,N,08353.5258,W,0.18,89.11,130620,,,D*4E
$GPRMC,145506.000,A,4028.4253,N,08353.5258,W,0.18,91.91,130620,,,D*4C
$GPRMC,145507.000,A,4028.4253,N,08353.5258,W,0.17,92.98,130620,,,D*48
$GPRMC,145508.000,A,4028.4253,N,08353.5257,W,0.17,92.00,130620,,,D*49
$GPRMC,145509.000,A,4028.4253,N,08353.5257,W,0.17,97.26,130620,,,D*49
$GPRMC,145510.000,A,4028.4253,N,08353.5257,W,0.10,119.66,130620,,,D*75
$GPRMC,145511.000,A,4028.4253,N,08353.5258,W,0.10,119.92,130620,,,D*70
$GPRMC,145512.000,A,4028.4253,N,08353.5258,W,0.11,114.58,130620,,,D*79
$GPRMC,145513.000,A,4028.4253,N,08353.5258,W,0.11,120.05,130620,,,D*77
$GPRMC,145514.000,A,4028.4253,N,08353.5258,W,0.10,109.43,130620,,,D*78
$GPRMC,145515.000,A,4028.4253,N,08353.5259,W,0.08,110.71,130620,,,D*78
$GPRMC,145516.000,A,4028.4253,N,08353.5259,W,0.13,76.46,130620,,,D*44
$GPRMC,145517.000,A,4028.4253,N,08353.5259,W,0.15,84.21,130620,,,D*4F
$GPRMC,145518.000,A,4028.4253,N,08353.5259,W,0.17,86.27,130620,,,D*46
$GPRMC,145519.000,A,4028.4253,N,08353.5259,W,0.13,80.04,130620,,,D*44
$GPRMC,145520.000,A,4028.4254,N,08353.5259,W,0.15,82.80,130620,,,D*41
$GPRMC,145521.000,A,4028.4254,N,08353.5259,W,0.14,82.64,130620,,,D*4B
$GPRMC,145522.000,A,4028.4254,N,08353.5259,W,0.16,78.09,130620,,,D*44
$GPRMC,145523.000,A,4028.4254,N,08353.5259,W,0.15,83.07,130620,,,D*4C
$GPRMC,145524.000,A,4028.4255,N,08353.5259,W,0.15,78.46,130620,,,D*4B
$GPRMC,145525.000,A,4028.4255,N,08353.5259,W,0.15,78.21,130620,,,D*4B
$GPRMC,145526.000,A,4028.4255,N,08353.5259,W,0.15,79.01,130620,,,D*4B
$GPRMC,145527.000,A,4028.4255,N,08353.5259,W,0.13,71.67,130620,,,D*44
$GPRMC,145528.000,A,4028.4255,N,08353.5259,W,0.10,82.99,130620,,,D*45
$GPRMC,145529.000,A,4028.4256,N,08353.5259,W,0.09,82.98,130620,,,D*4E
$GPRMC,145530.000,A,4028.4256,N,08353.5259,W,0.11,98.25,130620,,,D*42
$GPRMC,145531.000,A,4028.4256,N,08353.5260,W,0.09,81.71,130620,,,D*49
$GPRMC,145532.000,A,4028.4256,N,08353.5260,W,0.11,78.58,130620,,,D*4E
$GPRMC,145533.000,A,4028.4256,N,08353.5260,W,0.07,78.15,130620,,,D*41
$GPRMC,145534.000,A,4028.4256,N,08353.5261,W,0.02,69.42,130620,,,D*40
$GPRMC,145535.000,A,4028.4256,N,08353.5261,W,0.09,341.17,130620,,,D*73
$GPRMC,145536.000,A,4028.4258,N,08353.5263,W,1.04,317.88,130620,,,D*75
$GPRMC,145537.000,A,4028.4260,N,08353.5266,W,1.43,321.29,130620,,,D*77
$GPRMC,145538.000,A,4028.4263,N,08353.5270,W,1.64,322.98,130620,,,D*70
$GPRMC,145539.000,A,4028.4266,N,08353.5273,W,1.58,324.53,130620,,,D*79
$GPRMC,145540.000,A,4028.4271,N,08353.5277,W,1.85,333.01,130620,,,D*74
$GPRMC,145541.000,A,4028.4276,N,08353.5281,W,2.07,339.02,130620,,,D*7B
$GPRMC,145542.000,A,4028.4282,N,08353.5284,W,2.30,345.77,130620,,,D*7B
$GPRMC,145543.000,A,4028.4289,N,08353.5286,W,2.35,351.47,130620,,,D*70
$GPRMC,145544.000,A,4028.4295,N,08353.5288,W,2.39,355.17,130620,,,D*79
$GPRMC,145545.000,A,4028.4302,N,08353.5289,W,2.37,1.49,130620,,,D*71
$GPRMC,145546.000,A,4028.4309,N,08353.5289,W,2.35,4.79,130620,,,D*7D
$GPRMC,145547.000,A,4028.4315,N,08353.5288,W,2.40,7.41,130620,,,D*7A
$GPRMC,145548.000,A,4028.4322,N,08353.5287,W,2.42,7.45,130620,,,D*78
$GPRMC,145549.000,A,4028.4329,N,08353.5287,W,2.27,8.01,130620,,,D*7E
$GPRMC,145550.000,A,4028.4335,N,08353.5286,W,2.25,6.90,130620,,,D*7E
$GPRMC,145551.000,A,4028.4341,N,08353.5285,W,2.20,10.04,130620,,,D*40
$GPRMC,145552.000,A,4028.4347,N,08353.5284,W,2.30,11.43,130620,,,D*47
$GPRMC,145553.000,A,4028.4353,N,08353.5283,W,2.23,12.23,130620,,,D*43
$GPRMC,145554.000,A,4028.4360,N,08353.5282,W,2.35,11.87,130620,,,D*4F
$GPRMC,145555.000,A,4028.4366,N,08353.5280,W,2.46,12.92,130620,,,D*49
$GPRMC,145556.000,A,4028.4373,N,08353.5278,W,2.41,13.07,130620,,,D*43
$GPRMC,145557.000,A,4028.4380,N,08353.5277,W,2.43,13.36,130620,,,D*41
$GPRMC,145558.000,A,4028.4386,N,08353.5275,W,2.49,13.42,130620,,,D*43
$GPRMC,145559.000,A,4028.4393,N,08353.5274,W,2.45,12.56,130620,,,D*4F
$GPRMC,145600.000,A,4028.4400,N,08353.5272,W,2.44,14.01,130620,,,D*4E
$GPRMC,145601.000,A,4028.4406,N,08353.5270,W,2.43,12.18,130620,,,D*42
$GPRMC,145602.000,A,4028.4413,N,08353.5269,W,2.48,13.04,130620,,,D*4A
$GPRMC,145603.000,A,4028.4420,N,08353.5267,W,2.50,15.98,130620,,,D*4F
$GPRMC,145604.000,A,4028.4427,N,08353.5265,W,2.74,17.59,130620,,,D*44
$GPRMC,145605.000,A,4028.4434,N,08353.5262,W,2.89,16.05,130620,,,D*4A
$GPRMC,145606.000,A,4028.4443,N,08353.5260,W,3.14,10.34,130620,,,D*4A
$GPRMC,145607.000,A,4028.4451,N,08353.5259,W,2.85,2.03,130620,,,D*7C
$GPRMC,145608.000,A,4028.4458,N,08353.5260,W,2.46,356.16,130620,,,D*79
$GPRMC,145609.000,A,4028.4464,N,08353.5261,W,1.91,343.03,130620,,,D*7F
$GPRMC,145610.000,A,4028.4468,N,08353.5264,W,1.40,323.61,130620,,,D*70
$GPRMC,145611.000,A,4028.4471,N,08353.5268,W,1.08,307.31,130620,,,D*7A
$GPRMC,145612.000,A,4028.4472,N,08353.5272,W,0.84,290.84,130620,,,D*75
$GPRMC,145613.000,A,4028.4472,N,08353.5274,W,0.53,253.32,130620,,,D*7A
$GPRMC,145614.000,A,4028.4471,N,08353.5277,W,0.62,240.87,130620,,,D*73
$GPRMC,145615.000,A,4028.4470,N,08353.5279,W,0.50,224.40,130620,,,D*75
$GPRMC,145616.000,A,4028.4469,N,08353.5281,W,0.67,224.19,130620,,,D*71
$GPRMC,145617.000,A,4028.4467,N,08353.5283,W,0.74,228.29,130620,,,D*71
$GPRMC,145618.000,A,4028.4466,N,08353.5286,W,0.85,229.40,130620,,,D*7A
$GPRMC,145619.000,A,4028.4464,N,08353.5288,W,0.67,229.80,130620,,,D*77
$GPRMC,145620.000,A,4028.4464,N,08353.5289,W,0.41,76.87,130620,,,D*47
$GPRMC,145621.000,A,4028.4464,N,08353.5287,W,0.88,69.60,130620,,,D*4A
$GPRMC,145622.000,A,4028.4465,N,08353.5284,W,1.22,67.69,130620,,,D*4D
$GPRMC,145623.000,A,4028.4467,N,08353.5280,W,1.37,60.61,130620,,,D*41
$GPRMC,145624.000,A,4028.4469,N,08353.5276,W,1.34,45.37,130620,,,D*46
$GPRMC,145625.000,A,4028.4472,N,08353.5273,W,1.46,39.73,130620,,,D*46
$GPRMC,145626.000,A,4028.4475,N,08353.5270,W,1.44,35.85,130620,,,D*46
$GPRMC,145627.000,A,4028.4479,N,08353.5267,W,1.44,39.40,130620,,,D*48
$GPRMC,145628.000,A,4028.4482,N,08353.5264,W,1.55,40.41,130620,,,D*4F
$GPRMC,145629.000,A,4028.4485,N,08353.5261,W,1.52,39.56,130620,,,D*43
$GPRMC,145630.000,A,4028.4488,N,08353.5257,W,1.52,41.49,130620,,,D*42
$GPRMC,145631.000,A,4028.4492,N,08353.5254,W,1.53,40.28,130620,,,D*4C
$GPRMC,145632.000,A,4028.4495,N,08353.5251,W,1.08,40.76,130620,,,D*48
$GPRMC,145633.000,A,4028.4496,N,08353.5249,W,0.61,50.38,130620,,,D*46
$GPRMC,145634.000,A,4028.4498,N,08353.5248,W,0.75,44.25,130620,,,D*42
$GPRMC,145635.000,A,4028.4499,N,08353.5246,W,0.72,45.66,130620,,,D*4D
$GPRMC,145636.000,A,4028.4501,N,08353.5245,W,0.80,44.04,130620,,,D*45
$GPRMC,145637.000,A,4028.4502,N,08353.5243,W,0.82,45.91,130620,,,D*4E
$GPRMC,145638.000,A,4028.4504,N,08353.5242,W,0.70,45.85,130620,,,D*4E
$GPRMC,145639.000,A,4028.4505,N,08353.5240,W,0.64,50.99,130620,,,D*40
$GPRMC,145640.000,A,4028.4506,N,08353.5238,W,0.84,51.18,130620,,,D*44
$GPRMC,145641.000,A,4028.4508,N,08353.5236,W,0.87,52.54,130620,,,D*4D
$GPRMC,145642.000,A,4028.4509,N,08353.5234,W,0.78,54.25,130620,,,D*4D
$GPRMC,145643.000,A,4028.4510,N,08353.5232,W,0.62,56.35,130620,,,D*4A
$GPRMC,145644.000,A,4028.4511,N,08353.5231,W,0.47,54.29,130620,,,D*47
$GPRMC,145645.000,A,4028.4512,N,08353.5230,W,0.53,61.93,130620,,,D*46
$GPRMC,145646.000,A,4028.4513,N,08353.5229,W,0.32,53.64,130620,,,D*42
$GPRMC,145647.000,A,4028.4513,N,08353.5229,W,0.08,50.27,130620,,,D*4E
$GPRMC,145648.000,A,4028.4514,N,08353.5229,W,0.43,43.22,130620,,,D*4E
$GPRMC,145649.000,A,4028.4515,N,08353.5228,W,0.30,51.79,130620,,,D*46
$GPRMC,145650.000,A,4028.4515,N,08353.5228,W,0.07,54.85,130620,,,D*4C
$GPRMC,145651.000,A,4028.4516,N,08353.5228,W,0.06,42.04,130620,,,D*41
$GPRMC,145652.000,A,4028.4516,N,08353.5228,W,0.16,61.67,130620,,,D*47
$GPRMC,145653.000,A,4028.4516,N,08353.5228,W,0.18,53.00,130620,,,D*48
$GPRMC,145654.000,A,4028.4517,N,08353.5228,W,0.16,40.53,130620,,,D*44
$GPRMC,145655.000,A,4028.4517,N,08353.5228,W,0.16,41.28,130620,,,D*48
$GPRMC,145656.000,A,4028.4517,N,08353.5228,W,0.16,49.59,130620,,,D*45
$GPRMC,145657.000,A,4028.4518,N,08353.5228,W,0.20,61.98,130620,,,D*49
$GPRMC,145658.000,A,4028.4518,N,08353.5228,W,0.11,78.47,130620,,,D*4E
$GPRMC,145659.000,A,4028.4518,N,08353.5228,W,0.14,90.72,130620,,,D*4A
$GPRMC,145700.000,A,4028.4518,N,08353.5228,W,0.11,79.91,130620,,,D*48
$GPRMC,145701.000,A,4028.4518,N,08353.5228,W,0.10,83.51,130620,,,D*41
$GPRMC,145702.000,A,4028.4517,N,08353.5228,W,0.13,97.45,130620,,,D*4E
$GPRMC,145703.000,A,4028.4517,N,08353.5228,W,0.05,69.88,130620,,,D*48
$GPRMC,145704.000,A,4028.4518,N,08353.5228,W,0.15,51.50,130620,,,D*4F
$GPRMC,145705.000,A,4028.4518,N,08353.5228,W,0.15,44.00,130620,,,D*4F
$GPRMC,145706.000,A,4028.4518,N,08353.5228,W,0.17,43.33,130620,,,D*49
$GPRMC,145707.000,A,4028.4518,N,08353.5229,W,0.16,47.35,130620,,,D*4A
$GPRMC,145708.000,A,4028.4519,N,08353.5229,W,0.17,43.33,130620,,,D*47
$GPRMC,145709.000,A,4028.4519,N,08353.5228,W,0.21,65.94,130620,,,D*4B
$GPRMC,145710.000,A,4028.4519,N,08353.5228,W,0.15,63.56,130620,,,D*4C
$GPRMC,145711.000,A,4028.4519,N,08353.5228,W,0.15,66.54,130620,,,D*4A
$GPRMC,145712.000,A,4028.4519,N,08353.5228,W,0.13,72.83,130620,,,D*40
$GPRMC,145713.000,A,4028.4519,N,08353.5228,W,0.14,71.28,130620,,,D*44
$GPRMC,145714.000,A,4028.4519,N,08353.5229,W,0.13,67.16,130620,,,D*4F
$GPRMC,145715.000,A,4028.4519,N,08353.5229,W,0.14,75.24,130620,,,D*4B
$GPRMC,145716.000,A,4028.4519,N,08353.5229,W,0.17,87.05,130620,,,D*45
$GPRMC,145717.000,A,4028.4518,N,08353.5228,W,0.16,94.01,130620,,,D*43
$GPRMC,145718.000,A,4028.4518,N,08353.5228,W,0.15,98.53,130620,,,D*44
$GPRMC,145719.000,A,4028.4518,N,08353.5228,W,0.16,98.37,130620,,,D*44
$GPRMC,145720.000,A,4028.4517,N,08353.5228,W,0.16,103.94,130620,,,D*7B
$GPRMC,145721.000,A,4028.4517,N,08353.5228,W,0.09,107.86,130620,,,D*73
$GPRMC,145722.000,A,4028.4517,N,08353.5228,W,0.06,71.37,130620,,,D*45
$GPRMC,145723.000,A,4028.4518,N,08353.5229,W,0.07,54.82,130620,,,D*42
$GPRMC,145724.000,A,4028.4518,N,08353.5229,W,0.10,47.73,130620,,,D*4F
$GPRMC,145725.000,A,4028.4519,N,08353.5229,W,0.13,45.15,130620,,,D*4E
$GPRMC,145726.000,A,4028.4519,N,08353.5229,W,0.13,45.45,130620,,,D*48
$GPRMC,145727.000,A,4028.4520,N,08353.5228,W,0.19,55.71,130620,,,D*4E
$GPRMC,145728.000,A,4028.4520,N,08353.5228,W,0.18,80.38,130620,,,D*45
$GPRMC,145729.000,A,4028.4519,N,08353.5228,W,0.16,87.82,130620,,,D*46
$GPRMC,145730.000,A,4028.4519,N,08353.5228,W,0.17,87.61,130620,,,D*42
$GPRMC,145731.000,A,4028.4519,N,08353.5228,W,0.14,100.67,130620,,,D*78
$GPRMC,145732.000,A,4028.4519,N,08353.5228,W,0.15,101.39,130620,,,D*70
$GPRMC,145733.000,A,4028.4518,N,08353.5228,W,0.07,111.66,130620,,,D*78
$GPRMC,145734.000,A,4028.4519,N,08353.5228,W,0.11,43.69,130620,,,D*40
$GPRMC,145735.000,A,4028.4519,N,08353.5228,W,0.14,31.68,130620,,,D*40
$GPRMC,145736.000,A,4028.4520,N,08353.5228,W,0.15,36.65,130620,,,D*42
$GPRMC,145737.000,A,4028.4520,N,08353.5228,W,0.16,28.11,130620,,,D*4C
$GPRMC,145738.000,A,4028.4521,N,08353.5228,W,0.22,34.17,130620,,,D*4E
$GPRMC,145739.000,A,4028.4521,N,08353.5228,W,0.23,45.64,130620,,,D*4C
$GPRMC,145740.000,A,4028.4521,N,08353.5228,W,0.15,117.85,130620,,,D*7E
$GPRMC,145741.000,A,4028.4521,N,08353.5228,W,0.12,118.42,130620,,,D*7C
$GPRMC,145742.000,A,4028.4521,N,08353.5228,W,0.15,115.30,130620,,,D*70
$GPRMC,145743.000,A,4028.4520,N,08353.5229,W,0.13,122.42,130620,,,D*76
$GPRMC,145744.000,A,4028.4520,N,08353.5229,W,0.17,131.87,130620,,,D*7E
$GPRMC,145745.000,A,4028.4519,N,08353.5229,W,0.05,149.23,130620,,,D*77
$GPRMC,145746.000,A,4028.4520,N,08353.5229,W,0.20,35.12,130620,,,D*41
$GPRMC,145747.000,A,4028.4520,N,08353.5229,W,0.24,30.94,130620,,,D*4F
$GPRMC,145748.000,A,4028.4521,N,08353.5229,W,0.21,33.55,130620,,,D*4A
$GPRMC,145749.000,A,4028.4521,N,08353.5229,W,0.20,33.80,130620,,,D*42
$GPRMC,145750.000,A,4028.4522,N,08353.5229,W,0.22,31.80,130620,,,D*49
$GPRMC,145751.000,A,4028.4522,N,08353.5229,W,0.23,49.84,130620,,,D*42
$GPRMC,145752.000,A,4028.4522,N,08353.5229,W,0.14,110.51,130620,,,D*70
$GPRMC,145753.000,A,4028.4522,N,08353.5229,W,0.15,116.82,130620,,,D*78
$GPRMC,145754.000,A,4028.4521,N,08353.5229,W,0.15,124.52,130620,,,D*70
$GPRMC,145755.000,A,4028.4521,N,08353.5229,W,0.15,111.80,130620,,,D*78
$GPRMC,145756.000,A,4028.4521,N,08353.5229,W,0.16,119.88,130620,,,D*78
$GPRMC,145757.000,A,4028.4520,N,08353.5229,W,0.08,125.96,130620,,,D*77
$GPRMC,145758.000,A,4028.4520,N,08353.5229,W,0.19,44.65,130620,,,D*42
$GPRMC,145759.000,A,4028.4521,N,08353.5229,W,0.20,40.38,130620,,,D*44
$GPRMC,145800.000,A,4028.4521,N,08353.5229,W,0.21,36.09,130620,,,D*45
$GPRMC,145801.000,A,4028.4522,N,08353.5229,W,0.21,39.75,130620,,,D*43
$GPRMC,145802.000,A,4028.4522,N,08353.5229,W,0.21,37.65,130620,,,D*4F
$GPRMC,145803.000,A,4028.4522,N,08353.5229,W,0.24,52.03,130620,,,D*48
$GPRMC,145804.000,A,4028.4522,N,08353.5229,W,0.15,105.73,130620,,,D*79
$GPRMC,145805.000,A,4028.4520,N,08353.5229,W,0.15,101.50,130620,,,D*7F
$GPRMC,145806.000,A,4028.4518,N,08353.5230,W,0.15,119.32,130620,,,D*72
$GPRMC,145807.000,A,4028.4516,N,08353.5231,W,0.15,118.07,130620,,,D*7B
$GPRMC,145808.000,A,4028.4516,N,08353.5231,W,0.15,102.10,130620,,,D*79
$GPRMC,145809.000,A,4028.4518,N,08353.5230,W,0.09,95.63,130620,,,D*41
$GPRMC,145810.000,A,4028.4520,N,08353.5229,W,0.20,35.59,130620,,,D*42
$GPRMC,145811.000,A,4028.4521,N,08353.5228,W,0.15,47.47,130620,,,D*4F
$GPRMC,145812.000,A,4028.4521,N,08353.5229,W,0.16,43.71,130620,,,D*4F
$GPRMC,145813.000,A,4028.4521,N,08353.5229,W,0.18,38.53,130620,,,D*4C
$GPRMC,145814.000,A,4028.4522,N,08353.5229,W,0.18,38.81,130620,,,D*47
$GPRMC,145815.000,A,4028.4522,N,08353.5228,W,0.22,49.69,130620,,,D*4E
$GPRMC,145816.000,A,4028.4522,N,08353.5228,W,0.17,79.05,130620,,,D*42
$GPRMC,145817.000,A,4028.4521,N,08353.5228,W,0.16,95.70,130620,,,D*41
$GPRMC,145818.000,A,4028.4519,N,08353.5229,W,0.18,116.61,130620,,,D*70
$GPRMC,145819.000,A,4028.4517,N,08353.5229,W,0.25,138.08,130620,,,D*72
$GPRMC,145820.000,A,4028.4516,N,08353.5228,W,0.24,130.67,130620,,,D*78
$GPRMC,145821.000,A,4028.4515,N,08353.5228,W,0.16,145.00,130620,,,D*78
$GPRMC,145822.000,A,4028.4515,N,08353.5227,W,0.27,120.90,130620,,,D*7C
$GPRMC,145823.000,A,4028.4516,N,08353.5226,W,0.36,89.29,130620,,,D*4F
$GPRMC,145824.000,A,4028.4516,N,08353.5225,W,0.47,106.85,130620,,,D*7D
$GPRMC,145825.000,A,4028.4516,N,08353.5224,W,0.59,88.41,130620,,,D*4D
$GPRMC,145826.000,A,4028.4517,N,08353.5221,W,0.87,71.53,130620,,,D*4C
$GPRMC,145827.000,A,4028.4517,N,08353.5218,W,1.04,68.72,130620,,,D*46
$GPRMC,145828.000,A,4028.4518,N,08353.5214,W,0.97,70.41,130620,,,D*48
$GPRMC,145829.000,A,4028.4518,N,08353.5212,W,0.65,42.51,130620,,,D*42
$GPRMC,145830.000,A,4028.4519,N,08353.5211,W,0.57,12.89,130620,,,D*49
$GPRMC,145831.000,A,4028.4520,N,08353.5211,W,0.66,29.55,130620,,,D*49
$GPRMC,145832.000,A,4028.4521,N,08353.5210,W,0.44,41.60,130620,,,D*42
$GPRMC,145833.000,A,4028.4522,N,08353.5209,W,0.22,6.34,130620,,,D*7A
$GPRMC,145834.000,A,4028.4522,N,08353.5210,W,0.31,327.86,130620,,,D*7E
$GPRMC,145835.000,A,4028.4523,N,08353.5210,W,0.06,1.96,130620,,,D*7C
$GPRMC,145836.000,A,4028.4522,N,08353.5210,W,0.19,101.75,130620,,,D*7C
$GPRMC,145837.000,A,4028.4523,N,08353.5210,W,0.13,156.82,130620,,,D*7C
$GPRMC,145838.000,A,4028.4522,N,08353.5210,W,0.08,304.63,130620,,,D*72
$GPRMC,145839.000,A,4028.4522,N,08353.5211,W,0.07,14.33,130620,,,D*4A
$GPRMC,145840.000,A,4028.4521,N,08353.5211,W,0.25,133.97,130620,,,D*7D
$GPRMC,145841.000,A,4028.4520,N,08353.5211,W,0.24,142.04,130620,,,D*70
$GPRMC,145842.000,A,4028.4519,N,08353.5211,W,0.09,150.45,130620,,,D*70
$GPRMC,145843.000,A,4028.4519,N,08353.5212,W,0.07,216.40,130620,,,D*78
$GPRMC,145844.000,A,4028.4519,N,08353.5212,W,0.13,150.02,130620,,,D*7D
$GPRMC,145845.000,A,4028.4518,N,08353.5212,W,0.28,135.93,130620,,,D*7E
$GPRMC,145846.000,A,4028.4518,N,08353.5212,W,0.16,126.87,130620,,,D*77
$GPRMC,145847.000,A,4028.4518,N,08353.5212,W,0.07,115.25,130620,,,D*7E
$GPRMC,145848.000,A,4028.4518,N,08353.5211,W,0.11,88.34,130620,,,D*40
$GPRMC,145849.000,A,4028.4518,N,08353.5211,W,0.16,107.38,130620,,,D*7C
$GPRMC,145850.000,A,4028.4518,N,08353.5211,W,0.16,94.78,130620,,,D*4B
$GPRMC,145851.000,A,4028.4519,N,08353.5211,W,0.04,85.23,130620,,,D*46
$GPRMC,145852.000,A,4028.4518,N,08353.5211,W,0.04,154.07,130620,,,D*7F
$GPRMC,145853.000,A,4028.4518,N,08353.5212,W,0.13,125.80,130620,,,D*72
$GPRMC,145854.000,A,4028.4518,N,08353.5212,W,0.16,145.81,130620,,,D*77
$GPRMC,145855.000,A,4028.4517,N,08353.5212,W,0.18,160.55,130620,,,D*79
$GPRMC,145856.000,A,4028.4517,N,08353.5212,W,0.09,175.09,130620,,,D*77
$GPRMC,145857.000,A,4028.4516,N,08353.5212,W,0.13,133.63,130620,,,D*72
$GPRMC,145858.000,A,4028.4516,N,08353.5212,W,0.15,145.31,130620,,,D*7D
$GPRMC,145859.000,A,4028.4516,N,08353.5212,W,0.20,152.23,130620,,,D*7F
$GPRMC,145900.000,A,4028.4515,N,08353.5213,W,0.18,158.65,130620,,,D*73
$GPRMC,145901.000,A,4028.4514,N,08353.5213,W,0.05,149.04,130620,,,D*78
$GPRMC,145902.000,A,4028.4514,N,08353.5214,W,0.09,174.38,130620,,,D*71
$GPRMC,145903.000,A,4028.4514,N,08353.5214,W,0.18,185.85,130620,,,D*78
$GPRMC,145904.000,A,4028.4513,N,08353.5214,W,0.14,123.51,130620,,,D*71
$GPRMC,145905.000,A,4028.4513,N,08353.5214,W,0.10,120.73,130620,,,D*77
$GPRMC,145906.000,A,4028.4513,N,08353.5215,W,0.10,99.53,130620,,,D*44
$GPRMC,145907.000,A,4028.4512,N,08353.5215,W,0.17,97.16,130620,,,D*4C
$GPRMC,145908.000,A,4028.4512,N,08353.5215,W,0.11,123.32,130620,,,D*7D
$GPRMC,145909.000,A,4028.4512,N,08353.5215,W,0.15,130.22,130620,,,D*7B
$GPRMC,145910.000,A,4028.4511,N,08353.5215,W,0.12,106.96,130620,,,D*7D
$GPRMC,145911.000,A,4028.4512,N,08353.5214,W,0.17,99.94,130620,,,D*4E
$GPRMC,145912.000,A,4028.4512,N,08353.5214,W,0.25,63.72,130620,,,D*41
$GPRMC,145913.000,A,4028.4514,N,08353.5213,W,0.14,56.52,130620,,,D*47
$GPRMC,145914.000,A,4028.4513,N,08353.5214,W,0.09,123.06,130620,,,D*7E
$GPRMC,145915.000,A,4028.4512,N,08353.5214,W,0.07,140.07,130620,,,D*74
$GPRMC,145916.000,A,4028.4511,N,08353.5215,W,0.18,89.37,130620,,,D*4C
$GPRMC,145917.000,A,4028.4511,N,08353.5215,W,0.07,43.75,130620,,,D*43
$GPRMC,145918.000,A,4028.4511,N,08353.5215,W,0.07,95.28,130620,,,D*4F
$GPRMC,145919.000,A,4028.4511,N,08353.5215,W,0.16,77.84,130620,,,D*44
$GPRMC,145920.000,A,4028.4511,N,08353.5215,W,0.09,69.15,130620,,,D*47
$GPRMC,145921.000,A,4028.4511,N,08353.5215,W,0.13,120.41,130620,,,D*70
$GPRMC,145922.000,A,4028.4511,N,08353.5214,W,0.18,100.80,130620,,,D*76
$GPRMC,145923.000,A,4028.4511,N,08353.5214,W,0.19,81.53,130620,,,D*40
$GPRMC,145924.000,A,4028.4512,N,08353.5213,W,0.17,47.57,130620,,,D*43
$GPRMC,145925.000,A,4028.4513,N,08353.5212,W,0.10,74.86,130620,,,D*49
$GPRMC,145926.000,A,4028.4514,N,08353.5212,W,0.19,75.09,130620,,,D*42
$GPRMC,145927.000,A,4028.4514,N,08353.5211,W,0.14,67.08,130620,,,D*4F
$GPRMC,145928.000,A,4028.4515,N,08353.5211,W,0.10,55.90,130620,,,D*45
$GPRMC,145929.000,A,4028.4515,N,08353.5211,W,0.13,94.48,130620,,,D*4F
$GPRMC,145930.000,A,4028.4516,N,08353.5210,W,0.17,86.65,130620,,,D*4D
$GPRMC,145931.000,A,4028.4517,N,08353.5210,W,0.25,38.65,130620,,,D*49
$GPRMC,145932.000,A,4028.4517,N,08353.5210,W,0.11,33.22,130620,,,D*45
$GPRMC,145933.000,A,4028.4517,N,08353.5210,W,0.21,111.68,130620,,,D*78
$GPRMC,145934.000,A,4028.4516,N,08353.5210,W,0.18,107.78,130620,,,D*72
$GPRMC,145935.000,A,4028.4516,N,08353.5210,W,0.07,104.95,130620,,,D*7D
$GPRMC,145936.000,A,4028.4516,N,08353.5210,W,0.12,50.75,130620,,,D*44
$GPRMC,145937.000,A,4028.4515,N,08353.5210,W,0.20,117.03,130620,,,D*74
$GPRMC,145938.000,A,4028.4515,N,08353.5209,W,0.24,89.28,130620,,,D*48
$GPRMC,145939.000,A,4028.4515,N,08353.5209,W,0.05,73.69,130620,,,D*4A
$GPRMC,145940.000,A,4028.4515,N,08353.5209,W,0.09,141.87,130620,,,D*78
$GPRMC,145941.000,A,4028.4515,N,08353.5209,W,0.18,139.37,130620,,,D*7D
$GPRMC,145942.000,A,4028.4514,N,08353.5209,W,0.12,68.55,130620,,,D*44
$GPRMC,145943.000,A,4028.4514,N,08353.5209,W,0.09,139.64,130620,,,D*78
$GPRMC,145944.000,A,4028.4514,N,08353.5209,W,0.03,68.86,130620,,,D*4C
$GPRMC,145945.000,A,4028.4513,N,08353.5209,W,0.22,115.18,130620,,,D*75
$GPRMC,145946.000,A,4028.4513,N,08353.5209,W,0.20,95.18,130620,,,D*4D
$GPRMC,145947.000,A,4028.4514,N,08353.5208,W,0.11,62.89,130620,,,D*48
$GPRMC,145948.000,A,4028.4514,N,08353.5208,W,0.21,47.21,130620,,,D*41
$GPRMC,145949.000,A,4028.4515,N,08353.5208,W,0.22,38.69,130620,,,D*46
$GPRMC,145950.000,A,4028.4515,N,08353.5207,W,0.20,62.86,130620,,,D*4D
$GPRMC,145951.000,A,4028.4515,N,08353.5207,W,0.14,58.31,130620,,,D*4E
$GPRMC,145952.000,A,4028.4515,N,08353.5207,W,0.10,111.24,130620,,,D*71
$GPRMC,145953.000,A,4028.4515,N,08353.5207,W,0.10,125.52,130620,,,D*76
$GPRMC,145954.000,A,4028.4515,N,08353.5207,W,0.14,155.48,130620,,,D*79
$GPRMC,145955.000,A,4028.4515,N,08353.5207,W,0.09,161.13,130620,,,D*7D
$GPRMC,145956.000,A,4028.4515,N,08353.5207,W,0.08,172.05,130620,,,D*7A
$GPRMC,145957.000,A,4028.4514,N,08353.5208,W,0.10,145.89,130620,,,D*7C
$GPRMC,145958.000,A,4028.4514,N,08353.5208,W,0.04,96.43,130620,,,D*4F
$GPRMC,145959.000,A,4028.4514,N,08353.5208,W,0.05,113.94,130620,,,D*79
$GPRMC,150000.000,A,4028.4514,N,08353.5208,W,0.10,208.53,130620,,,D*7E
$GPRMC,150001.000,A,4028.4514,N,08353.5209,W,0.11,148.33,130620,,,D*7E
$GPRMC,150002.000,A,4028.4515,N,08353.5209,W,0.06,127.56,130620,,,D*70
$GPRMC,150003.000,A,4028.4515,N,08353.5209,W,0.11,181.27,130620,,,D*7D
$GPRMC,150004.000,A,4028.4514,N,08353.5209,W,0.21,171.18,130620,,,D*7B
$GPRMC,150005.000,A,4028.4511,N,08353.5210,W,0.10,139.73,130620,,,D*74
$GPRMC,150006.000,A,4028.4509,N,08353.5211,W,0.11,99.52,130620,,,D*46
$GPRMC,150007.000,A,4028.4509,N,08353.5211,W,0.10,123.20,130620,,,D*73
$GPRMC,150008.000,A,4028.4508,N,08353.5211,W,0.13,149.86,130620,,,D*7E
$GPRMC,150009.000,A,4028.4507,N,08353.5212,W,0.18,154.34,130620,,,D*7D
$GPRMC,150010.000,A,4028.4506,N,08353.5212,W,0.23,160.07,130620,,,D*7B
$GPRMC,150011.000,A,4028.4506,N,08353.5212,W,0.30,125.63,130620,,,D*7B
$GPRMC,150012.000,A,4028.4506,N,08353.5211,W,0.27,151.92,130620,,,D*70
$GPRMC,150013.000,A,4028.4505,N,08353.5212,W,0.23,184.58,130620,,,D*7B
$GPRMC,150014.000,A,4028.4504,N,08353.5212,W,0.15,170.85,130620,,,D*73
$GPRMC,150015.000,A,4028.4504,N,08353.5212,W,0.11,95.61,130620,,,D*46
$GPRMC,150016.000,A,4028.4504,N,08353.5212,W,0.19,52.76,130620,,,D*40
$GPRMC,150017.000,A,4028.4505,N,08353.5212,W,0.11,85.27,130620,,,D*46
$GPRMC,150018.000,A,4028.4505,N,08353.5212,W,0.13,152.70,130620,,,D*72
$GPRMC,150019.000,A,4028.4506,N,08353.5212,W,0.10,121.09,130620,,,D*79
$GPRMC,150020.000,A,4028.4506,N,08353.5211,W,0.19,121.92,130620,,,D*7B
$GPRMC,150021.000,A,4028.4506,N,08353.5211,W,0.43,136.36,130620,,,D*7D
$GPRMC,150022.000,A,4028.4506,N,08353.5210,W,0.45,139.23,130620,,,D*72
$GPRMC,150023.000,A,4028.4505,N,08353.5209,W,0.45,131.76,130620,,,D*70
$GPRMC,150024.000,A,4028.4505,N,08353.5208,W,0.46,132.31,130620,,,D*75
$GPRMC,150025.000,A,4028.4505,N,08353.5207,W,0.57,136.15,130620,,,D*79
$GPRMC,150026.000,A,4028.4504,N,08353.5205,W,0.51,134.56,130620,,,D*7A
$GPRMC,150027.000,A,4028.4503,N,08353.5204,W,0.45,143.28,130620,,,D*71
$GPRMC,150028.000,A,4028.4503,N,08353.5204,W,0.33,128.86,130620,,,D*76
$GPRMC,150029.000,A,4028.4502,N,08353.5204,W,0.29,158.81,130620,,,D*7D
$GPRMC,150030.000,A,4028.4502,N,08353.5204,W,0.18,143.87,130620,,,D*7B
$GPRMC,150031.000,A,4028.4502,N,08353.5204,W,0.15,124.71,130620,,,D*7F
$GPRMC,150032.000,A,4028.4502,N,08353.5204,W,0.09,132.77,130620,,,D*70
$GPRMC,150033.000,A,4028.4502,N,08353.5204,W,0.11,134.62,130620,,,D*7A
$GPRMC,150034.000,A,4028.4502,N,08353.5204,W,0.07,115.42,130620,,,D*7B
$GPRMC,150035.000,A,4028.4502,N,08353.5204,W,0.10,93.71,130620,,,D*43
$GPRMC,150036.000,A,4028.4503,N,08353.5204,W,0.11,77.73,130620,,,D*48
$GPRMC,150037.000,A,4028.4503,N,08353.5204,W,0.08,97.40,130620,,,D*4F
$GPRMC,150038.000,A,4028.4503,N,08353.5204,W,0.08,115.64,130620,,,D*7D
$GPRMC,150039.000,A,4028.4504,N,08353.5204,W,0.11,43.13,130620,,,D*41
$GPRMC,150040.000,A,4028.4504,N,08353.5204,W,0.06,102.10,130620,,,D*7E
$GPRMC,150041.000,A,4028.4504,N,08353.5204,W,0.07,113.12,130620,,,D*7C
$GPRMC,150042.000,A,4028.4504,N,08353.5205,W,0.06,143.41,130620,,,D*7C
$GPRMC,150043.000,A,4028.4504,N,08353.5205,W,0.12,151.43,130620,,,D*79
$GPRMC,150044.000,A,4028.4504,N,08353.5205,W,0.12,157.93,130620,,,D*75
$GPRMC,150045.000,A,4028.4504,N,08353.5205,W,0.18,146.31,130620,,,D*76
$GPRMC,150046.000,A,4028.4504,N,08353.5205,W,0.11,103.44,130620,,,D*7F
$GPRMC,150047.000,A,4028.4504,N,08353.5205,W,0.11,85.49,130620,,,D*4C
$GPRMC,150048.000,A,4028.4504,N,08353.5205,W,0.14,121.61,130620,,,D*73
$GPRMC,150049.000,A,4028.4505,N,08353.5205,W,0.12,90.61,130620,,,D*4E
$GPRMC,150050.000,A,4028.4505,N,08353.5205,W,0.15,85.79,130620,,,D*4C
$GPRMC,150051.000,A,4028.4505,N,08353.5205,W,0.20,46.68,130620,,,D*44
$GPRMC,150052.000,A,4028.4506,N,08353.5205,W,0.07,46.13,130620,,,D*4D
$GPRMC,150053.000,A,4028.4506,N,08353.5206,W,0.10,136.24,130620,,,D*7B
$GPRMC,150054.000,A,4028.4506,N,08353.5206,W,0.16,153.67,130620,,,D*7E
$GPRMC,150055.000,A,4028.4506,N,08353.5206,W,0.20,155.30,130620,,,D*7E
$GPRMC,150056.000,A,4028.4505,N,08353.5206,W,0.14,137.70,130620,,,D*79
$GPRMC,150057.000,A,4028.4505,N,08353.5207,W,0.16,143.52,130620,,,D*78
$GPRMC,150058.000,A,4028.4505,N,08353.5207,W,0.09,67.94,130620,,,D*44
$GPRMC,150059.000,A,4028.4506,N,08353.5207,W,0.06,35.50,130620,,,D*46
$GPRMC,150100.000,A,4028.4506,N,08353.5207,W,0.08,59.66,130620,,,D*4A
$GPRMC,150101.000,A,4028.4507,N,08353.5208,W,0.05,99.48,130620,,,D*48
$GPRMC,150102.000,A,4028.4507,N,08353.5208,W,0.09,52.10,130620,,,D*4D
$GPRMC,150103.000,A,4028.4507,N,08353.5208,W,0.09,68.23,130620,,,D*45
$GPRMC,150104.000,A,4028.4507,N,08353.5208,W,0.20,155.06,130620,,,D*71
$GPRMC,150105.000,A,4028.4507,N,08353.5209,W,0.12,141.93,130620,,,D*79
$GPRMC,150106.000,A,4028.4507,N,08353.5209,W,0.14,134.71,130620,,,D*72
$GPRMC,150107.000,A,4028.4507,N,08353.5209,W,0.16,150.57,130620,,,D*77
$GPRMC,150108.000,A,4028.4507,N,08353.5209,W,0.17,147.25,130620,,,D*7A
$GPRMC,150109.000,A,4028.4506,N,08353.5210,W,0.10,155.12,130620,,,D*72
$GPRMC,150110.000,A,4028.4507,N,08353.5210,W,0.05,60.31,130620,,,D*49
$GPRMC,150111.000,A,4028.4507,N,08353.5210,W,0.09,38.21,130620,,,D*48
$GPRMC,150112.000,A,4028.4508,N,08353.5211,W,0.09,61.93,130620,,,D*40
$GPRMC,150113.000,A,4028.4508,N,08353.5211,W,0.08,54.85,130620,,,D*41
$GPRMC,150114.000,A,4028.4509,N,08353.5211,W,0.08,52.55,130620,,,D*4C
$GPRMC,150115.000,A,4028.4509,N,08353.5211,W,0.11,78.33,130620,,,D*4D
$GPRMC,150116.000,A,4028.4509,N,08353.5211,W,0.13,126.53,130620,,,D*70
$GPRMC,150117.000,A,4028.4509,N,08353.5211,W,0.15,146.39,130620,,,D*7D
$GPRMC,150118.000,A,4028.4509,N,08353.5212,W,0.14,148.95,130620,,,D*78
$GPRMC,150119.000,A,4028.4509,N,08353.5212,W,0.14,147.41,130620,,,D*7F
$GPRMC,150120.000,A,4028.4508,N,08353.5212,W,0.15,147.63,130620,,,D*75
$GPRMC,150121.000,A,4028.4508,N,08353.5212,W,0.14,150.63,130620,,,D*73
$GPRMC,150122.000,A,4028.4508,N,08353.5212,W,0.12,88.42,130620,,,D*41
$GPRMC,150123.000,A,4028.4509,N,08353.5212,W,0.13,76.13,130620,,,D*45
$GPRMC,150124.000,A,4028.4509,N,08353.5212,W,0.12,75.70,130620,,,D*45
$GPRMC,150125.000,A,4028.4510,N,08353.5212,W,0.12,68.83,130620,,,D*4C
$GPRMC,150126.000,A,4028.4510,N,08353.5212,W,0.12,77.72,130620,,,D*4F
$GPRMC,150127.000,A,4028.4510,N,08353.5212,W,0.11,57.75,130620,,,D*48
$GPRMC,150128.000,A,4028.4511,N,08353.5212,W,0.07,137.34,130620,,,D*73
$GPRMC,150129.000,A,4028.4511,N,08353.5213,W,0.08,120.49,130620,,,D*70
$GPRMC,150130.000,A,4028.4511,N,08353.5213,W,0.12,58.42,130620,,,D*46
$GPRMC,150131.000,A,4028.4511,N,08353.5213,W,0.03,297.53,130620,,,D*76
$GPRMC,150132.000,A,4028.4511,N,08353.5214,W,0.02,96.28,130620,,,D*4C
$GPRMC,150133.000,A,4028.4511,N,08353.5214,W,0.08,130.44,130620,,,D*70
$GPRMC,150134.000,A,4028.4512,N,08353.5215,W,0.03,114.65,130620,,,D*7B
$GPRMC,150135.000,A,4028.4512,N,08353.5215,W,0.06,131.11,130620,,,D*7B
$GPRMC,150136.000,A,4028.4512,N,08353.5215,W,0.24,110.90,130620,,,D*72
$GPRMC,150137.000,A,4028.4512,N,08353.5214,W,0.55,106.34,130620,,,D*7D
$GPRMC,150138.000,A,4028.4512,N,08353.5213,W,0.53,114.84,130620,,,D*7B
$GPRMC,150139.000,A,4028.4511,N,08353.5212,W,0.47,122.46,130620,,,D*76
$GPRMC,150140.000,A,4028.4510,N,08353.5211,W,0.52,141.24,130620,,,D*7F
$GPRMC,150141.000,A,4028.4510,N,08353.5210,W,0.32,113.74,130620,,,D*7B
$GPRMC,150142.000,A,4028.4510,N,08353.5209,W,0.20,85.35,130620,,,D*48
$GPRMC,150143.000,A,4028.4510,N,08353.5209,W,0.33,65.73,130620,,,D*47
$GPRMC,150144.000,A,4028.4510,N,08353.5208,W,0.41,76.90,130620,,,D*4B
$GPRMC,150145.000,A,4028.4510,N,08353.5206,W,0.50,93.40,130620,,,D*42
$GPRMC,150146.000,A,4028.4511,N,08353.5204,W,0.57,101.39,130620,,,D*71
$GPRMC,150147.000,A,4028.4511,N,08353.5202,W,0.70,97.10,130620,,,D*46
$GPRMC,150148.000,A,4028.4511,N,08353.5200,W,0.65,89.03,130620,,,D*42
$GPRMC,150149.000,A,4028.4511,N,08353.5198,W,0.57,91.46,130620,,,D*48
$GPRMC,150150.000,A,4028.4511,N,08353.5196,W,0.56,88.04,130620,,,D*41
$GPRMC,150151.000,A,4028.4512,N,08353.5194,W,0.48,83.93,130620,,,D*4B
$GPRMC,150152.000,A,4028.4512,N,08353.5192,W,0.39,102.48,130620,,,D*76
$GPRMC,150153.000,A,4028.4513,N,08353.5191,W,0.23,132.81,130620,,,D*78
$GPRMC,150154.000,A,4028.4512,N,08353.5191,W,0.27,166.56,130620,,,D*71
$GPRMC,150155.000,A,4028.4512,N,08353.5191,W,0.27,179.34,130620,,,D*7A
$GPRMC,150156.000,A,4028.4512,N,08353.5190,W,0.16,122.01,130620,,,D*72
$GPRMC,150157.000,A,4028.4512,N,08353.5190,W,0.38,133.75,130620,,,D*7C
$GPRMC,150158.000,A,4028.4512,N,08353.5189,W,0.24,135.87,130620,,,D*7D
$GPRMC,150159.000,A,4028.4513,N,08353.5189,W,0.41,285.20,130620,,,D*7B
$GPRMC,150200.000,A,4028.4513,N,08353.5190,W,0.34,239.16,130620,,,D*7C
$GPRMC,150201.000,A,4028.4513,N,08353.5191,W,0.15,176.37,130620,,,D*74
$GPRMC,150202.000,A,4028.4513,N,08353.5190,W,0.45,118.60,130620,,,D*79
$GPRMC,150203.000,A,4028.4513,N,08353.5189,W,0.48,105.32,130620,,,D*76
$GPRMC,150204.000,A,4028.4513,N,08353.5187,W,0.49,87.18,130620,,,D*4D
$GPRMC,150205.000,A,4028.4514,N,08353.5185,W,0.49,63.98,130620,,,D*4B
$GPRMC,150206.000,A,4028.4515,N,08353.5183,W,0.82,55.35,130620,,,D*4A
$GPRMC,150207.000,A,4028.4518,N,08353.5180,W,1.16,63.35,130620,,,D*4C
$GPRMC,150208.000,A,4028.4520,N,08353.5176,W,1.16,66.53,130620,,,D*44
$GPRMC,150209.000,A,4028.4522,N,08353.5171,W,1.24,70.03,130620,,,D*43
$GPRMC,150210.000,A,4028.4525,N,08353.5166,W,1.86,56.17,130620,,,D*43
$GPRMC,150211.000,A,4028.4528,N,08353.5160,W,1.84,65.24,130620,,,D*4B
$GPRMC,150212.000,A,4028.4531,N,08353.5154,W,2.03,57.11,130620,,,D*4C
$GPRMC,150213.000,A,4028.4535,N,08353.5147,W,2.00,68.27,130620,,,D*41
$GPRMC,150214.000,A,4028.4538,N,08353.5141,W,1.86,61.68,130620,,,D*42
$GPRMC,150215.000,A,4028.4541,N,08353.5135,W,1.89,70.09,130620,,,D*46
$GPRMC,150216.000,A,4028.4544,N,08353.5129,W,1.91,73.46,130620,,,D*4C
$GPRMC,150217.000,A,4028.4546,N,08353.5123,W,1.85,79.43,130620,,,D*4F
$GPRMC,150218.000,A,4028.4547,N,08353.5116,W,1.93,81.53,130620,,,D*46
$GPRMC,150219.000,A,4028.4547,N,08353.5108,W,2.03,88.91,130620,,,D*45
$GPRMC,150220.000,A,4028.4547,N,08353.5100,W,1.93,92.38,130620,,,D*45
$GPRMC,150221.000,A,4028.4547,N,08353.5092,W,2.14,96.81,130620,,,D*44
$GPRMC,150222.000,A,4028.4546,N,08353.5085,W,2.10,96.87,130620,,,D*42
$GPRMC,150223.000,A,4028.4545,N,08353.5077,W,2.15,101.24,130620,,,D*7E
$GPRMC,150224.000,A,4028.4544,N,08353.5069,W,2.15,104.44,130620,,,D*74
$GPRMC,150225.000,A,4028.4543,N,08353.5061,W,2.12,105.71,130620,,,D*7A
$GPRMC,150226.000,A,4028.4541,N,08353.5054,W,2.13,108.38,130620,,,D*7C
$GPRMC,150227.000,A,4028.4539,N,08353.5047,W,2.08,110.55,130620,,,D*78
$GPRMC,150228.000,A,4028.4537,N,08353.5040,W,2.09,113.17,130620,,,D*7A
$GPRMC,150229.000,A,4028.4535,N,08353.5033,W,2.16,114.11,130620,,,D*72
$GPRMC,150230.000,A,4028.4532,N,08353.5026,W,2.22,118.38,130620,,,D*79
$GPRMC,150231.000,A,4028.4530,N,08353.5019,W,2.20,121.99,130620,,,D*75
$GPRMC,150232.000,A,4028.4526,N,08353.5012,W,2.25,121.42,130620,,,D*79
$GPRMC,150233.000,A,4028.4523,N,08353.5005,W,2.30,125.90,130620,,,D*74
$GPRMC,150234.000,A,4028.4520,N,08353.4999,W,2.17,128.65,130620,,,D*7F
$GPRMC,150235.000,A,4028.4516,N,08353.4993,W,2.13,132.41,130620,,,D*78
$GPRMC,150236.000,A,4028.4512,N,08353.4988,W,2.10,131.72,130620,,,D*75
$GPRMC,150237.000,A,4028.4509,N,08353.4982,W,2.15,131.02,130620,,,D*76
$GPRMC,150238.000,A,4028.4505,N,08353.4976,W,2.11,126.77,130620,,,D*7E
$GPRMC,150239.000,A,4028.4502,N,08353.4970,W,2.10,131.56,130620,,,D*7A
$GPRMC,150240.000,A,4028.4498,N,08353.4965,W,2.09,126.75,130620,,,D*7D
$GPRMC,150241.000,A,4028.4495,N,08353.4959,W,2.15,127.22,130620,,,D*70
$GPRMC,150242.000,A,4028.4492,N,08353.4953,W,2.10,124.49,130620,,,D*75
$GPRMC,150243.000,A,4028.4488,N,08353.4947,W,2.11,130.20,130620,,,D*71
$GPRMC,150244.000,A,4028.4485,N,08353.4941,W,2.14,124.50,130620,,,D*7A
$GPRMC,150245.000,A,4028.4481,N,08353.4936,W,2.19,130.28,130620,,,D*78
$GPRMC,150246.000,A,4028.4477,N,08353.4930,W,2.12,125.06,130620,,,D*77
$GPRMC,150247.000,A,4028.4474,N,08353.4924,W,2.06,125.04,130620,,,D*77
$GPRMC,150248.000,A,4028.4471,N,08353.4918,W,2.15,120.89,130620,,,D*70
$GPRMC,150249.000,A,4028.4469,N,08353.4912,W,2.06,119.65,130620,,,D*78
$GPRMC,150250.000,A,4028.4466,N,08353.4906,W,2.12,117.12,130620,,,D*71
$GPRMC,150251.000,A,4028.4464,N,08353.4900,W,1.94,116.31,130620,,,D*79
$GPRMC,150252.000,A,4028.4461,N,08353.4895,W,2.06,116.17,130620,,,D*7E
$GPRMC,150253.000,A,4028.4459,N,08353.4889,W,2.05,116.23,130620,,,D*7D
$GPRMC,150254.000,A,4028.4456,N,08353.4882,W,2.07,112.52,130620,,,D*7E
$GPRMC,150255.000,A,4028.4454,N,08353.4876,W,2.06,108.92,130620,,,D*70
$GPRMC,150256.000,A,4028.4452,N,08353.4870,W,2.08,107.37,130620,,,D*7D
$GPRMC,150257.000,A,4028.4450,N,08353.4863,W,2.16,106.01,130620,,,D*77
$GPRMC,150258.000,A,4028.4449,N,08353.4856,W,2.13,104.74,130620,,,D*73
$GPRMC,150259.000,A,4028.4448,N,08353.4849,W,2.09,101.76,130620,,,D*71
$GPRMC,150300.000,A,4028.4447,N,08353.4842,W,2.08,104.36,130620,,,D*78
$GPRMC,150301.000,A,4028.4445,N,08353.4835,W,2.13,102.74,130620,,,D*71
$GPRMC,150302.000,A,4028.4444,N,08353.4828,W,2.08,106.48,130620,,,D*7E
$GPRMC,150303.000,A,4028.4443,N,08353.4822,W,2.00,101.81,130620,,,D*78
$GPRMC,150304.000,A,4028.4441,N,08353.4815,W,1.94,109.41,130620,,,D*73
$GPRMC,150305.000,A,4028.4439,N,08353.4809,W,1.91,106.50,130620,,,D*7A
$GPRMC,150306.000,A,4028.4438,N,08353.4803,W,1.91,108.21,130620,,,D*7A
$GPRMC,150307.000,A,4028.4437,N,08353.4797,W,1.92,104.26,130620,,,D*7E
$GPRMC,150308.000,A,4028.4435,N,08353.4791,W,1.94,105.17,130620,,,D*70
$GPRMC,150309.000,A,4028.4434,N,08353.4785,W,1.91,102.40,130620,,,D*75
$GPRMC,150310.000,A,4028.4433,N,08353.4778,W,1.88,98.32,130620,,,D*47
$GPRMC,150311.000,A,4028.4433,N,08353.4772,W,1.84,96.30,130620,,,D*4C
$GPRMC,150312.000,A,4028.4432,N,08353.4766,W,1.89,96.03,130620,,,D*46
$GPRMC,150313.000,A,4028.4432,N,08353.4759,W,1.89,95.33,130620,,,D*4B
$GPRMC,150314.000,A,4028.4432,N,08353.4753,W,1.90,92.47,130620,,,D*4A
$GPRMC,150315.000,A,4028.4432,N,08353.4746,W,1.97,93.51,130620,,,D*4E
$GPRMC,150316.000,A,4028.4432,N,08353.4739,W,2.04,91.94,130620,,,D*47
$GPRMC,150317.000,A,4028.4432,N,08353.4732,W,1.99,92.66,130620,,,D*44
$GPRMC,150318.000,A,4028.4432,N,08353.4725,W,2.00,88.69,130620,,,D*4A
$GPRMC,150319.000,A,4028.4432,N,08353.4718,W,1.96,91.68,130620,,,D*40
$GPRMC,150320.000,A,4028.4432,N,08353.4712,W,1.92,87.15,130620,,,D*49
$GPRMC,150321.000,A,4028.4432,N,08353.4705,W,1.97,90.97,130620,,,D*47
$GPRMC,150322.000,A,4028.4432,N,08353.4698,W,2.04,88.68,130620,,,D*41
$GPRMC,150323.000,A,4028.4432,N,08353.4690,W,2.01,90.81,130620,,,D*43
$GPRMC,150324.000,A,4028.4432,N,08353.4683,W,1.97,94.66,130620,,,D*47
$GPRMC,150325.000,A,4028.4432,N,08353.4676,W,2.00,94.39,130620,,,D*4B
$GPRMC,150326.000,A,4028.4431,N,08353.4669,W,1.99,97.58,130620,,,D*42
$GPRMC,150327.000,A,4028.4431,N,08353.4663,W,1.87,97.42,130620,,,D*4D
$GPRMC,150328.000,A,4028.4430,N,08353.4656,W,1.84,101.61,130620,,,D*79
$GPRMC,150329.000,A,4028.4429,N,08353.4650,W,1.89,103.37,130620,,,D*7A
$GPRMC,150330.000,A,4028.4428,N,08353.4644,W,1.77,107.02,130620,,,D*75
$GPRMC,150331.000,A,4028.4427,N,08353.4638,W,1.84,107.20,130620,,,D*7C
$GPRMC,150332.000,A,4028.4425,N,08353.4632,W,1.80,110.07,130620,,,D*70
$GPRMC,150333.000,A,4028.4423,N,08353.4626,W,1.86,111.45,130620,,,D*73
$GPRMC,150334.000,A,4028.4422,N,08353.4620,W,1.74,109.95,130620,,,D*7A
$GPRMC,150335.000,A,4028.4420,N,08353.4615,W,1.74,108.22,130620,,,D*72
$GPRMC,150336.000,A,4028.4419,N,08353.4609,W,1.76,108.91,130620,,,D*7C
$GPRMC,150337.000,A,4028.4418,N,08353.4603,W,1.73,103.53,130620,,,D*76
$GPRMC,150338.000,A,4028.4417,N,08353.4597,W,1.76,104.79,130620,,,D*72
$GPRMC,150339.000,A,4028.4416,N,08353.4591,W,1.63,98.24,130620,,,D*4C
$GPRMC,150340.000,A,4028.4416,N,08353.4586,W,1.67,103.30,130620,,,D*76
$GPRMC,150341.000,A,4028.4415,N,08353.4581,W,1.54,97.29,130620,,,D*47
$GPRMC,150342.000,A,4028.4414,N,08353.4575,W,1.63,97.35,130620,,,D*47
$GPRMC,150343.000,A,4028.4414,N,08353.4570,W,1.66,90.41,130620,,,D*42
$GPRMC,150344.000,A,4028.4414,N,08353.4564,W,1.60,90.46,130620,,,D*41
$GPRMC,150345.000,A,4028.4414,N,08353.4558,W,1.73,91.50,130620,,,D*4B
$GPRMC,150346.000,A,4028.4415,N,08353.4553,W,1.68,89.30,130620,,,D*47
$GPRMC,150347.000,A,4028.4415,N,08353.4547,W,1.75,92.44,130620,,,D*46
$GPRMC,150348.000,A,4028.4415,N,08353.4541,W,1.73,92.26,130620,,,D*4D
$GPRMC,150349.000,A,4028.4415,N,08353.4535,W,1.76,96.11,130620,,,D*4A
$GPRMC,150350.000,A,4028.4414,N,08353.4528,W,1.72,94.52,130620,,,D*4E
$GPRMC,150351.000,A,4028.4414,N,08353.4523,W,1.72,96.23,130620,,,D*40
$GPRMC,150352.000,A,4028.4414,N,08353.4517,W,1.68,100.76,130620,,,D*71
$GPRMC,150353.000,A,4028.4413,N,08353.4511,W,1.75,103.48,130620,,,D*73
$GPRMC,150354.000,A,4028.4412,N,08353.4505,W,1.73,105.47,130620,,,D*7F
$GPRMC,150355.000,A,4028.4411,N,08353.4500,W,1.75,106.14,130620,,,D*7B
$GPRMC,150356.000,A,4028.4409,N,08353.4494,W,1.79,110.66,130620,,,D*73
$GPRMC,150357.000,A,4028.4407,N,08353.4488,W,1.82,109.24,130620,,,D*7B
$GPRMC,150358.000,A,4028.4405,N,08353.4482,W,1.86,114.57,130620,,,D*70
$GPRMC,150359.000,A,4028.4403,N,08353.4476,W,1.83,113.90,130620,,,D*75
$GPRMC,150400.000,A,4028.4401,N,08353.4470,W,1.85,117.72,130620,,,D*74
$GPRMC,150401.000,A,4028.4399,N,08353.4465,W,1.79,118.62,130620,,,D*7A
$GPRMC,150402.000,A,4028.4396,N,08353.4459,W,1.91,119.64,130620,,,D*78
$GPRMC,150403.000,A,4028.4394,N,08353.4453,W,1.76,121.21,130620,,,D*72
$GPRMC,150404.000,A,4028.4391,N,08353.4448,W,1.72,136.91,130620,,,D*73
$GPRMC,150405.000,A,4028.4388,N,08353.4444,W,1.62,133.29,130620,,,D*71
$GPRMC,150406.000,A,4028.4386,N,08353.4440,W,1.63,131.54,130620,,,D*71
$GPRMC,150407.000,A,4028.4383,N,08353.4435,W,1.62,124.27,130620,,,D*76
$GPRMC,150408.000,A,4028.4381,N,08353.4431,W,1.58,129.96,130620,,,D*71
$GPRMC,150409.000,A,4028.4378,N,08353.4426,W,1.72,120.16,130620,,,D*79
$GPRMC,150410.000,A,4028.4376,N,08353.4421,W,1.60,124.16,130620,,,D*7F
$GPRMC,150411.000,A,4028.4374,N,08353.4417,W,1.80,111.46,130620,,,D*74
$GPRMC,150412.000,A,4028.4372,N,08353.4412,W,1.62,122.35,130620,,,D*7C
$GPRMC,150413.000,A,4028.4370,N,08353.4407,W,1.65,116.19,130620,,,D*75
$GPRMC,150414.000,A,4028.4368,N,08353.4402,W,1.70,116.93,130620,,,D*78
$GPRMC,150415.000,A,4028.4366,N,08353.4396,W,1.69,112.03,130620,,,D*78
$GPRMC,150416.000,A,4028.4364,N,08353.4391,W,1.86,117.58,130620,,,D*74
$GPRMC,150417.000,A,4028.4363,N,08353.4385,W,1.76,111.47,130620,,,D*70
$GPRMC,150418.000,A,4028.4361,N,08353.4380,W,1.71,118.22,130620,,,D*75
$GPRMC,150419.000,A,4028.4359,N,08353.4374,W,1.69,115.02,130620,,,D*72
$GPRMC,150420.000,A,4028.4356,N,08353.4370,W,1.64,121.12,130620,,,D*78
$GPRMC,150421.000,A,4028.4354,N,08353.4365,W,1.54,114.29,130620,,,D*72
$GPRMC,150422.000,A,4028.4353,N,08353.4361,W,1.43,117.21,130620,,,D*7F
$GPRMC,150423.000,A,4028.4351,N,08353.4357,W,1.46,109.80,130620,,,D*78
$GPRMC,150424.000,A,4028.4350,N,08353.4354,W,1.40,113.56,130620,,,D*7B
$GPRMC,150425.000,A,4028.4348,N,08353.4350,W,1.31,115.77,130620,,,D*74
$GPRMC,150426.000,A,4028.4347,N,08353.4346,W,1.30,115.79,130620,,,D*70
$GPRMC,150427.000,A,4028.4345,N,08353.4343,W,1.27,119.43,130620,,,D*75
$GPRMC,150428.000,A,4028.4344,N,08353.4340,W,1.26,122.43,130620,,,D*71
$GPRMC,150429.000,A,4028.4342,N,08353.4336,W,1.20,122.66,130620,,,D*76
$GPRMC,150430.000,A,4028.4340,N,08353.4333,W,1.19,126.16,130620,,,D*70
$GPRMC,150431.000,A,4028.4338,N,08353.4331,W,1.21,127.47,130620,,,D*72
$GPRMC,150432.000,A,4028.4336,N,08353.4327,W,1.20,123.65,130620,,,D*7D
$GPRMC,150433.000,A,4028.4335,N,08353.4324,W,1.10,121.41,130620,,,D*7B
$GPRMC,150434.000,A,4028.4334,N,08353.4321,W,1.06,124.64,130620,,,D*7D
$GPRMC,150435.000,A,4028.4332,N,08353.4318,W,1.08,129.28,130620,,,D*7B
$GPRMC,150436.000,A,4028.4331,N,08353.4315,W,1.08,119.19,130620,,,D*77
$GPRMC,150437.000,A,4028.4330,N,08353.4311,W,1.19,115.91,130620,,,D*7F
$GPRMC,150438.000,A,4028.4329,N,08353.4308,W,1.20,113.14,130620,,,D*71
$GPRMC,150439.000,A,4028.4327,N,08353.4304,W,1.30,112.94,130620,,,D*7A
$GPRMC,150440.000,A,4028.4326,N,08353.4300,W,1.39,110.44,130620,,,D*77
$GPRMC,150441.000,A,4028.4325,N,08353.4296,W,1.36,113.29,130620,,,D*7C
$GPRMC,150442.000,A,4028.4323,N,08353.4292,W,1.37,115.06,130620,,,D*77
$GPRMC,150443.000,A,4028.4322,N,08353.4287,W,1.31,111.71,130620,,,D*71
$GPRMC,150444.000,A,4028.4321,N,08353.4283,W,1.33,110.14,130620,,,D*71
$GPRMC,150445.000,A,4028.4320,N,08353.4279,W,1.38,107.93,130620,,,D*76
$GPRMC,150446.000,A,4028.4319,N,08353.4274,W,1.35,102.78,130620,,,D*7F
$GPRMC,150447.000,A,4028.4318,N,08353.4270,W,1.26,102.53,130620,,,D*70
$GPRMC,150448.000,A,4028.4318,N,08353.4266,W,1.19,99.06,130620,,,D*47
$GPRMC,150449.000,A,4028.4318,N,08353.4262,W,0.93,95.50,130620,,,D*4E
$GPRMC,150450.000,A,4028.4318,N,08353.4259,W,0.80,94.36,130620,,,D*4D
$GPRMC,150451.000,A,4028.4318,N,08353.4257,W,0.60,94.35,130620,,,D*4F
$GPRMC,150452.000,A,4028.4319,N,08353.4255,W,0.55,98.38,130620,,,D*48
$GPRMC,150453.000,A,4028.4319,N,08353.4254,W,0.29,105.76,130620,,,D*7C
$GPRMC,150454.000,A,4028.4318,N,08353.4252,W,0.28,102.84,130620,,,D*77
$GPRMC,150455.000,A,4028.4318,N,08353.4252,W,0.26,178.60,130620,,,D*7F
$GPRMC,150456.000,A,4028.4317,N,08353.4253,W,0.11,180.20,130620,,,D*75
$GPRMC,150457.000,A,4028.4317,N,08353.4254,W,0.20,228.64,130620,,,D*70
$GPRMC,150458.000,A,4028.4317,N,08353.4254,W,0.24,251.96,130620,,,D*78
$GPRMC,150459.000,A,4028.4318,N,08353.4256,W,0.29,279.69,130620,,,D*73
$GPRMC,150500.000,A,4028.4318,N,08353.4257,W,0.21,252.38,130620,,,D*7A
$GPRMC,150501.000,A,4028.4318,N,08353.4258,W,0.13,325.69,130620,,,D*70
$GPRMC,150502.000,A,4028.4319,N,08353.4259,W,0.14,322.84,130620,,,D*70
$GPRMC,150503.000,A,4028.4320,N,08353.4260,W,0.35,17.82,130620,,,D*41
$GPRMC,150504.000,A,4028.4322,N,08353.4260,W,0.28,36.17,130620,,,D*47
$GPRMC,150505.000,A,4028.4323,N,08353.4260,W,0.33,25.93,130620,,,D*43
$GPRMC,150506.000,A,4028.4324,N,08353.4260,W,0.35,39.35,130620,,,D*40
$GPRMC,150507.000,A,4028.4325,N,08353.4259,W,0.49,40.78,130620,,,D*46
$GPRMC,150508.000,A,4028.4326,N,08353.4259,W,0.41,41.86,130620,,,D*42
$GPRMC,150509.000,A,4028.4327,N,08353.4258,W,0.40,59.12,130620,,,D*46
$GPRMC,150510.000,A,4028.4328,N,08353.4257,W,0.60,36.89,130620,,,D*47
$GPRMC,150511.000,A,4028.4330,N,08353.4256,W,0.64,43.93,130620,,,D*43
$GPRMC,150512.000,A,4028.4332,N,08353.4254,W,0.73,32.26,130620,,,D*4E
$GPRMC,150513.000,A,4028.4334,N,08353.4253,W,0.77,38.43,130620,,,D*43
$GPRMC,150514.000,A,4028.4336,N,08353.4251,W,0.73,28.35,130620,,,D*40
$GPRMC,150515.000,A,4028.4338,N,08353.4249,W,0.75,31.93,130620,,,D*44
$GPRMC,150516.000,A,4028.4340,N,08353.4248,W,0.75,34.80,130620,,,D*4E
$GPRMC,150517.000,A,4028.4342,N,08353.4246,W,0.81,44.77,130620,,,D*47
$GPRMC,150518.000,A,4028.4344,N,08353.4244,W,0.81,40.49,130620,,,D*45
$GPRMC,150519.000,A,4028.4346,N,08353.4242,W,0.82,45.43,130620,,,D*4C
$GPRMC,150520.000,A,4028.4348,N,08353.4240,W,0.84,36.92,130620,,,D*44
$GPRMC,150521.000,A,4028.4350,N,08353.4238,W,0.88,40.48,130620,,,D*49
$GPRMC,150522.000,A,4028.4353,N,08353.4236,W,0.95,23.66,130620,,,D*42
$GPRMC,150523.000,A,4028.4355,N,08353.4234,W,0.96,29.03,130620,,,D*4D
$GPRMC,150524.000,A,4028.4358,N,08353.4233,W,0.91,22.43,130620,,,D*48
$GPRMC,150525.000,A,4028.4361,N,08353.4231,W,1.03,26.44,130620,,,D*48
$GPRMC,150526.000,A,4028.4364,N,08353.4230,W,1.02,23.51,130620,,,D*4F
$GPRMC,150527.000,A,4028.4367,N,08353.4228,W,1.03,27.98,130620,,,D*44
$GPRMC,150528.000,A,4028.4369,N,08353.4226,W,0.91,30.05,130620,,,D*43
$GPRMC,150529.000,A,4028.4371,N,08353.4224,W,0.88,34.40,130620,,,D*44
$GPRMC,150530.000,A,4028.4374,N,08353.4223,W,0.88,29.15,130620,,,D*42
$GPRMC,150531.000,A,4028.4376,N,08353.4221,W,0.90,34.10,130620,,,D*43
$GPRMC,150532.000,A,4028.4378,N,08353.4219,W,0.82,31.62,130620,,,D*46
$GPRMC,150533.000,A,4028.4381,N,08353.4217,W,0.84,37.70,130620,,,D*4C
$GPRMC,150534.000,A,4028.4383,N,08353.4216,W,0.69,33.39,130620,,,D*42
$GPRMC,150535.000,A,4028.4384,N,08353.4214,W,0.55,43.35,130620,,,D*42
$GPRMC,150536.000,A,4028.4385,N,08353.4213,W,0.27,107.01,130620,,,D*74
$GPRMC,150537.000,A,4028.4385,N,08353.4212,W,0.27,87.32,130620,,,D*4D
$GPRMC,150538.000,A,4028.4385,N,08353.4211,W,0.26,94.24,130620,,,D*45
$GPRMC,150539.000,A,4028.4385,N,08353.4211,W,0.14,86.94,130620,,,D*4D
$GPRMC,150540.000,A,4028.4385,N,08353.4210,W,0.26,97.79,130620,,,D*40
$GPRMC,150541.000,A,4028.4386,N,08353.4210,W,0.16,47.61,130620,,,D*45
$GPRMC,150542.000,A,4028.4386,N,08353.4209,W,0.18,80.10,130620,,,D*4D
$GPRMC,150543.000,A,4028.4386,N,08353.4209,W,0.16,44.96,130620,,,D*44
$GPRMC,150544.000,A,4028.4387,N,08353.4208,W,0.17,56.30,130620,,,D*4D
$GPRMC,150545.000,A,4028.4387,N,08353.4208,W,0.18,65.86,130620,,,D*4E
$GPRMC,150546.000,A,4028.4387,N,08353.4208,W,0.14,135.99,130620,,,D*7B
$GPRMC,150547.000,A,4028.4387,N,08353.4208,W,0.12,199.87,130620,,,D*75
$GPRMC,150548.000,A,4028.4386,N,08353.4208,W,0.13,163.18,130620,,,D*79
$GPRMC,150549.000,A,4028.4386,N,08353.4208,W,0.10,172.09,130620,,,D*7B
$GPRMC,150550.000,A,4028.4385,N,08353.4208,W,0.11,146.69,130620,,,D*70
$GPRMC,150551.000,A,4028.4385,N,08353.4208,W,0.10,203.52,130620,,,D*7A
$GPRMC,150552.000,A,4028.4385,N,08353.4208,W,0.11,59.18,130620,,,D*4B
$GPRMC,150553.000,A,4028.4385,N,08353.4208,W,0.04,101.63,130620,,,D*7E
$GPRMC,150554.000,A,4028.4386,N,08353.4207,W,0.14,66.20,130620,,,D*43
$GPRMC,150555.000,A,4028.4386,N,08353.4207,W,0.16,74.24,130620,,,D*47
$GPRMC,150556.000,A,4028.4387,N,08353.4206,W,0.13,63.12,130620,,,D*42
$GPRMC,150557.000,A,4028.4387,N,08353.4206,W,0.12,89.01,130620,,,D*44
$GPRMC,150558.000,A,4028.4387,N,08353.4206,W,0.07,150.75,130620,,,D*79
$GPRMC,150559.000,A,4028.4387,N,08353.4206,W,0.12,146.41,130620,,,D*7C
$GPRMC,150600.000,A,4028.4386,N,08353.4205,W,0.10,151.62,130620,,,D*74
$GPRMC,150601.000,A,4028.4386,N,08353.4205,W,0.13,140.06,130620,,,D*74
$GPRMC,150602.000,A,4028.4386,N,08353.4205,W,0.13,152.01,130620,,,D*73
$GPRMC,150603.000,A,4028.4386,N,08353.4204,W,0.12,152.02,130620,,,D*71
$GPRMC,150604.000,A,4028.4386,N,08353.4204,W,0.14,122.66,130620,,,D*75
$GPRMC,150605.000,A,4028.4386,N,08353.4203,W,0.12,141.95,130620,,,D*7C
$GPRMC,150606.000,A,4028.4386,N,08353.4203,W,0.13,108.48,130620,,,D*73
$GPRMC,150607.000,A,4028.4386,N,08353.4202,W,0.11,97.95,130620,,,D*46
$GPRMC,150608.000,A,4028.4386,N,08353.4202,W,0.12,97.53,130620,,,D*40
$GPRMC,150609.000,A,4028.4386,N,08353.4202,W,0.09,107.00,130620,,,D*75
$GPRMC,150606.000,A,4028.4386,N,08353.4201,W,0.09,197.90,130620,,,D*79
$GPRMC,150607.000,A,4028.4386,N,08353.4202,W,0.16,161.11,130620,,,D*75
$GPRMC,150608.000,A,4028.4386,N,08353.4202,W,0.07,116.80,130620,,,D*72
$GPRMC,150609.000,A,4028.4386,N,08353.4202,W,0.20,164.26,130620,,,D*7F
$GPRMC,150610.000,A,4028.4385,N,08353.4202,W,0.17,182.62,130620,,,D*78
$GPRMC,150611.000,A,4028.4384,N,08353.4203,W,0.09,202.34,130620,,,D*7E
$GPRMC,150612.000,A,4028.4384,N,08353.4203,W,0.05,125.69,130620,,,D*7F
$GPRMC,150613.000,A,4028.4383,N,08353.4203,W,0.02,196.96,130620,,,D*76
$GPRMC,150614.000,A,4028.4383,N,08353.4203,W,0.20,140.84,130620,,,D*79
$GPRMC,150615.000,A,4028.4382,N,08353.4203,W,0.06,154.22,130620,,,D*74
$GPRMC,150616.000,A,4028.4382,N,08353.4204,W,0.15,132.54,130620,,,D*73
$GPRMC,150617.000,A,4028.4381,N,08353.4204,W,0.08,139.04,130620,,,D*73
$GPRMC,150618.000,A,4028.4381,N,08353.4204,W,0.07,190.49,130620,,,D*79
$GPRMC,150619.000,A,4028.4381,N,08353.4205,W,0.07,167.94,130620,,,D*71
$GPRMC,150620.000,A,4028.4381,N,08353.4205,W,0.04,154.33,130620,,,D*75
$GPRMC,150621.000,A,4028.4381,N,08353.4205,W,0.07,176.69,130620,,,D*78
$GPRMC,150622.000,A,4028.4381,N,08353.4205,W,0.03,134.44,130620,,,D*76
$GPRMC,150623.000,A,4028.4381,N,08353.4206,W,0.04,164.31,130620,,,D*74
$GPRMC,150624.000,A,4028.4381,N,08353.4206,W,0.10,60.74,130620,,,D*42
$GPRMC,150625.000,A,4028.4381,N,08353.4206,W,0.09,67.86,130620,,,D*41
$GPRMC,150626.000,A,4028.4381,N,08353.4206,W,0.09,70.78,130620,,,D*45
$GPRMC,150627.000,A,4028.4381,N,08353.4205,W,0.10,65.49,130620,,,D*49
$GPRMC,150628.000,A,4028.4381,N,08353.4205,W,0.08,87.80,130620,,,D*46
$GPRMC,150629.000,A,4028.4382,N,08353.4205,W,0.12,40.81,130620,,,D*45
$GPRMC,150630.000,A,4028.4382,N,08353.4205,W,0.10,53.05,130620,,,D*41
$GPRMC,150631.000,A,4028.4382,N,08353.4205,W,0.13,61.84,130620,,,D*4B
$GPRMC,150632.000,A,4028.4383,N,08353.4205,W,0.11,61.67,130620,,,D*46
$GPRMC,150633.000,A,4028.4383,N,08353.4204,W,0.20,67.36,130620,,,D*46
$GPRMC,150634.000,A,4028.4384,N,08353.4203,W,0.08,62.57,130620,,,D*49
$GPRMC,150635.000,A,4028.4384,N,08353.4203,W,0.12,58.04,130620,,,D*4C
$GPRMC,150636.000,A,4028.4384,N,08353.4203,W,0.10,49.10,130620,,,D*48
$GPRMC,150637.000,A,4028.4384,N,08353.4203,W,0.13,63.74,130620,,,D*40
$GPRMC,150638.000,A,4028.4385,N,08353.4203,W,0.11,54.90,130620,,,D*42
$GPRMC,150639.000,A,4028.4385,N,08353.4203,W,0.11,63.57,130620,,,D*4C
$GPRMC,150640.000,A,4028.4385,N,08353.4203,W,0.09,70.00,130620,,,D*4B
$GPRMC,150641.000,A,4028.4385,N,08353.4202,W,0.09,57.71,130620,,,D*48
$GPRMC,150642.000,A,4028.4384,N,08353.4202,W,0.05,124.76,130620,,,D*74
$GPRMC,150643.000,A,4028.4384,N,08353.4202,W,0.06,130.43,130620,,,D*75
$GPRMC,150644.000,A,4028.4384,N,08353.4202,W,0.05,125.75,130620,,,D*70
$GPRMC,150645.000,A,4028.4384,N,08353.4202,W,0.03,46.66,130620,,,D*41
$GPRMC,150646.000,A,4028.4384,N,08353.4202,W,0.08,137.91,130620,,,D*76
$GPRMC,150647.000,A,4028.4384,N,08353.4202,W,0.03,316.80,130620,,,D*7D
$GPRMC,150648.000,A,4028.4384,N,08353.4202,W,0.04,40.18,130620,,,D*44
$GPRMC,150649.000,A,4028.4384,N,08353.4202,W,0.05,13.95,130620,,,D*47
$GPRMC,150650.000,A,4028.4384,N,08353.4202,W,0.06,358.46,130620,,,D*7E
$GPRMC,150651.000,A,4028.4385,N,08353.4202,W,0.05,332.50,130620,,,D*76
$GPRMC,150652.000,A,4028.4385,N,08353.4203,W,0.08,7.14,130620,,,D*7C
$GPRMC,150653.000,A,4028.4385,N,08353.4202,W,0.04,103.85,130620,,,D*7D
$GPRMC,150654.000,A,4028.4385,N,08353.4202,W,0.11,152.53,130620,,,D*71
$GPRMC,150655.000,A,4028.4384,N,08353.4202,W,0.14,150.10,130620,,,D*71
$GPRMC,150656.000,A,4028.4384,N,08353.4202,W,0.12,145.82,130620,,,D*7B
$GPRMC,150657.000,A,4028.4384,N,08353.4202,W,0.13,152.62,130620,,,D*73
$GPRMC,150658.000,A,4028.4383,N,08353.4201,W,0.19,143.84,130620,,,D*7A
$GPRMC,150659.000,A,4028.4383,N,08353.4201,W,0.13,149.68,130620,,,D*79
$GPRMC,150700.000,A,4028.4382,N,08353.4201,W,0.09,168.44,130620,,,D*73
$GPRMC,150701.000,A,4028.4382,N,08353.4200,W,0.06,192.27,130620,,,D*7C
$GPRMC,150702.000,A,4028.4382,N,08353.4200,W,0.07,179.76,130620,,,D*7F
$GPRMC,150703.000,A,4028.4382,N,08353.4200,W,0.09,193.15,130620,,,D*71
$GPRMC,150704.000,A,4028.4382,N,08353.4200,W,0.06,187.81,130620,,,D*71
$GPRMC,150705.000,A,4028.4381,N,08353.4200,W,0.10,164.16,130620,,,D*77
$GPRMC,150706.000,A,4028.4381,N,08353.4200,W,0.04,71.15,130620,,,D*47
$GPRMC,150707.000,A,4028.4381,N,08353.4200,W,0.04,114.75,130620,,,D*72
$GPRMC,150708.000,A,4028.4381,N,08353.4199,W,0.06,81.73,130620,,,D*47
$GPRMC,150709.000,A,4028.4381,N,08353.4199,W,0.04,104.61,130620,,,D*7B
$GPRMC,150710.000,A,4028.4381,N,08353.4198,W,0.12,85.23,130620,,,D*4B
$GPRMC,150711.000,A,4028.4382,N,08353.4198,W,0.04,109.71,130620,,,D*7C
$GPRMC,150712.000,A,4028.4383,N,08353.4199,W,0.06,31.09,130620,,,D*48
$GPRMC,150713.000,A,4028.4383,N,08353.4199,W,0.03,31.98,130620,,,D*44
$GPRMC,150714.000,A,4028.4384,N,08353.4200,W,0.03,6.75,130620,,,D*70
$GPRMC,150715.000,A,4028.4384,N,08353.4200,W,0.03,73.23,130620,,,D*40
$GPRMC,150716.000,A,4028.4384,N,08353.4201,W,0.02,291.31,130620,,,D*7E
$GPRMC,150717.000,A,4028.4385,N,08353.4202,W,0.02,277.60,130620,,,D*71
$GPRMC,150718.000,A,4028.4385,N,08353.4202,W,0.13,183.25,130620,,,D*77
$GPRMC,150719.000,A,4028.4384,N,08353.4203,W,0.17,160.58,130620,,,D*75
$GPRMC,150720.000,A,4028.4384,N,08353.4203,W,0.20,140.18,130620,,,D*7D
$GPRMC,150721.000,A,4028.4384,N,08353.4203,W,0.18,149.00,130620,,,D*77
$GPRMC,150722.000,A,4028.4384,N,08353.4203,W,0.10,142.50,130620,,,D*72
$GPRMC,150723.000,A,4028.4383,N,08353.4203,W,0.20,144.51,130620,,,D*70
$GPRMC,150724.000,A,4028.4383,N,08353.4203,W,0.10,74.91,130620,,,D*4A
$GPRMC,150725.000,A,4028.4384,N,08353.4203,W,0.13,55.92,130620,,,D*4F
$GPRMC,150726.000,A,4028.4384,N,08353.4203,W,0.10,23.14,130620,,,D*40
$GPRMC,150727.000,A,4028.4384,N,08353.4203,W,0.13,43.75,130620,,,D*43
$GPRMC,150728.000,A,4028.4384,N,08353.4203,W,0.14,28.42,130620,,,D*42
$GPRMC,150729.000,A,4028.4385,N,08353.4203,W,0.20,26.51,130620,,,D*49
$GPRMC,150730.000,A,4028.4385,N,08353.4203,W,0.19,104.35,130620,,,D*78
$GPRMC,150731.000,A,4028.4385,N,08353.4203,W,0.19,95.72,130620,,,D*43
$GPRMC,150732.000,A,4028.4385,N,08353.4202,W,0.13,93.78,130620,,,D*47
$GPRMC,150733.000,A,4028.4385,N,08353.4202,W,0.18,94.90,130620,,,D*4C
$GPRMC,150734.000,A,4028.4385,N,08353.4202,W,0.24,95.70,130620,,,D*4B
$GPRMC,150735.000,A,4028.4385,N,08353.4201,W,0.16,98.27,130620,,,D*47
$GPRMC,150736.000,A,4028.4385,N,08353.4201,W,0.13,56.95,130620,,,D*4A
$GPRMC,150737.000,A,4028.4385,N,08353.4201,W,0.12,51.38,130620,,,D*4A
$GPRMC,150738.000,A,4028.4385,N,08353.4201,W,0.09,62.32,130620,,,D*45
$GPRMC,150739.000,A,4028.4385,N,08353.4201,W,0.04,50.44,130620,,,D*49
$GPRMC,150740.000,A,4028.4385,N,08353.4201,W,0.18,131.65,130620,,,D*7F
$GPRMC,150741.000,A,4028.4385,N,08353.4201,W,0.04,111.52,130620,,,D*75
$GPRMC,150742.000,A,4028.4385,N,08353.4201,W,0.11,70.07,130620,,,D*44
$GPRMC,150743.000,A,4028.4385,N,08353.4200,W,0.09,101.34,130620,,,D*7A
$GPRMC,150744.000,A,4028.4385,N,08353.4200,W,0.06,66.90,130620,,,D*4C
$GPRMC,150745.000,A,4028.4385,N,08353.4200,W,0.06,98.11,130620,,,D*45
$GPRMC,150746.000,A,4028.4385,N,08353.4200,W,0.14,101.72,130620,,,D*71
$GPRMC,150747.000,A,4028.4385,N,08353.4200,W,0.05,121.66,130620,,,D*77
$GPRMC,150748.000,A,4028.4385,N,08353.4200,W,0.15,179.42,130620,,,D*72
$GPRMC,150749.000,A,4028.4384,N,08353.4200,W,0.13,184.60,130620,,,D*76
$GPRMC,150750.000,A,4028.4384,N,08353.4200,W,0.24,163.31,130620,,,D*77
$GPRMC,150751.000,A,4028.4383,N,08353.4201,W,0.14,193.91,130620,,,D*76
$GPRMC,150752.000,A,4028.4383,N,08353.4201,W,0.22,165.12,130620,,,D*72
$GPRMC,150753.000,A,4028.4382,N,08353.4201,W,0.15,178.07,130620,,,D*7E
$GPRMC,150754.000,A,4028.4382,N,08353.4201,W,0.05,107.64,130620,,,D*75
$GPRMC,150755.000,A,4028.4382,N,08353.4201,W,0.06,95.04,130620,,,D*4B
$GPRMC,150756.000,A,4028.4382,N,08353.4201,W,0.15,127.70,130620,,,D*71
$GPRMC,150757.000,A,4028.4382,N,08353.4201,W,0.05,126.27,130620,,,D*72
$GPRMC,150758.000,A,4028.4382,N,08353.4201,W,0.15,123.27,130620,,,D*79
$GPRMC,150759.000,A,4028.4382,N,08353.4201,W,0.13,114.08,130620,,,D*77
$GPRMC,150800.000,A,4028.4382,N,08353.4201,W,0.11,153.95,130620,,,D*71
$GPRMC,150801.000,A,4028.4381,N,08353.4201,W,0.21,143.93,130620,,,D*77
$GPRMC,150802.000,A,4028.4381,N,08353.4201,W,0.25,147.71,130620,,,D*78
$GPRMC,150803.000,A,4028.4380,N,08353.4201,W,0.11,161.33,130620,,,D*7D
$GPRMC,150804.000,A,4028.4380,N,08353.4201,W,0.10,176.49,130620,,,D*70
