$ADVER,3080,2.2
$GPRMC,150752.921,A,4028.4407,N,08353.4039,W,0.05,110.47,130620,,,A*78
$GPRMC,150753.921,A,4028.4407,N,08353.4039,W,0.05,20.89,130620,,,A*49
$GPRMC,150754.921,A,4028.4408,N,08353.4038,W,0.02,40.08,130620,,,A*48
$GPRMC,150756.000,A,4028.4408,N,08353.4038,W,0.09,15.18,130620,,,A*4A
$GPRMC,150757.000,A,4028.4408,N,08353.4038,W,0.04,7.16,130620,,,A*7B
$GPRMC,150758.000,A,4028.4422,N,08353.4039,W,0.05,62.13,130620,,,A*4A
$GPRMC,150759.000,A,4028.4426,N,08353.4039,W,0.05,323.26,130620,,,A*7F
$GPRMC,150800.000,A,4028.4428,N,08353.4039,W,0.07,131.38,130620,,,A*7E
$GPRMC,150801.000,A,4028.4429,N,08353.4038,W,0.05,128.25,130620,,,A*79
$GPRMC,150802.000,A,4028.4430,N,08353.4038,W,0.11,357.87,130620,,,A*75
$GPRMC,150803.000,A,4028.4431,N,08353.4038,W,0.05,310.91,130620,,,A*74
$GPRMC,150804.000,A,4028.4431,N,08353.4038,W,0.04,114.78,130620,,,A*73
$GPRMC,150805.000,A,4028.4432,N,08353.4038,W,0.08,146.28,130620,,,A*7F
$GPRMC,150806.000,A,4028.4432,N,08353.4038,W,0.08,324.04,130620,,,A*74
$GPRMC,150807.000,A,4028.4432,N,08353.4037,W,0.02,125.47,130620,,,A*74
$GPRMC,150808.000,A,4028.4433,N,08353.4037,W,0.02,126.27,130620,,,A*7F
$GPRMC,150809.000,A,4028.4433,N,08353.4037,W,0.04,113.47,130620,,,A*78
$GPRMC,150810.000,A,4028.4433,N,08353.4037,W,0.04,346.04,130620,,,A*75
$GPRMC,150811.000,A,4028.4433,N,08353.4037,W,0.00,62.36,130620,,,A*44
$GPRMC,150812.000,A,4028.4434,N,08353.4036,W,0.08,198.72,130620,,,A*7D
$GPRMC,150813.000,A,4028.4434,N,08353.4036,W,0.05,78.06,130620,,,A*4D
$GPRMC,150814.000,A,4028.4434,N,08353.4036,W,0.10,330.47,130620,,,A*74
$GPRMC,150815.000,A,4028.4434,N,08353.4036,W,0.18,170.01,130620,,,A*79
$GPRMC,150816.000,A,4028.4434,N,08353.4036,W,0.08,355.71,130620,,,A*79
$GPRMC,150817.000,A,4028.4434,N,08353.4036,W,0.04,270.69,130620,,,A*7B
$GPRMC,150818.000,A,4028.4434,N,08353.4035,W,0.03,60.97,130620,,,A*42
$GPRMC,150819.000,A,4028.4435,N,08353.4035,W,0.15,332.88,130620,,,D*7A
$GPRMC,150820.000,A,4028.4435,N,08353.4035,W,0.08,222.63,130620,,,D*79
$GPRMC,150821.000,A,4028.4435,N,08353.4035,W,0.09,95.65,130620,,,D*41
$GPRMC,150822.000,A,4028.4435,N,08353.4035,W,0.08,2.16,130620,,,D*79
$GPRMC,150823.000,A,4028.4435,N,08353.4034,W,0.05,111.46,130620,,,D*72
$GPRMC,150824.000,A,4028.4435,N,08353.4034,W,0.15,142.89,130620,,,D*71
$GPRMC,150825.000,A,4028.4435,N,08353.4033,W,0.09,1.18,130620,,,D*74
$GPRMC,150826.000,A,4028.4434,N,08353.4033,W,0.12,147.51,130620,,,D*72
$GPRMC,150827.000,A,4028.4434,N,08353.4033,W,0.08,323.03,130620,,,D*7F
$GPRMC,150828.000,A,4028.4434,N,08353.4032,W,0.08,326.27,130620,,,D*72
$GPRMC,150829.000,A,4028.4434,N,08353.4032,W,0.03,212.67,130620,,,D*7A
$GPRMC,150830.000,A,4028.4434,N,08353.4032,W,0.03,331.99,130620,,,D*73
$GPRMC,150831.000,A,4028.4434,N,08353.4032,W,0.07,304.47,130620,,,D*73
$GPRMC,150832.000,A,4028.4434,N,08353.4032,W,0.05,228.20,130620,,,D*7C
$GPRMC,150833.000,A,4028.4434,N,08353.4032,W,0.04,70.55,130620,,,D*41
$GPRMC,150834.000,A,4028.4433,N,08353.4031,W,0.14,97.20,130620,,,D*48
$GPRMC,150835.000,A,4028.4433,N,08353.4031,W,0.08,98.08,130620,,,D*41
$GPRMC,150836.000,A,4028.4433,N,08353.4030,W,0.07,90.29,130620,,,D*47
$GPRMC,150837.000,A,4028.4433,N,08353.4030,W,0.12,99.53,130620,,,D*46
$GPRMC,150838.000,A,4028.4433,N,08353.4029,W,0.08,65.28,130620,,,D*45
$GPRMC,150839.000,A,4028.4433,N,08353.4029,W,0.11,326.93,130620,,,D*78
$GPRMC,150840.000,A,4028.4433,N,08353.4029,W,0.04,259.29,130620,,,D*7A
$GPRMC,150841.000,A,4028.4433,N,08353.4029,W,0.04,222.60,130620,,,D*7A
$GPRMC,150842.000,A,4028.4433,N,08353.4029,W,0.06,291.63,130620,,,D*70
$GPRMC,150843.000,A,4028.4433,N,08353.4029,W,0.08,236.44,130620,,,D*77
$GPRMC,150844.000,A,4028.4432,N,08353.4029,W,0.05,226.42,130620,,,D*7B
$GPRMC,150845.000,A,4028.4432,N,08353.4028,W,0.07,122.49,130620,,,D*75
$GPRMC,150846.000,A,4028.4432,N,08353.4028,W,0.11,108.28,130620,,,D*7E
$GPRMC,150847.000,A,4028.4432,N,08353.4027,W,0.12,38.81,130620,,,D*42
$GPRMC,150848.000,A,4028.4433,N,08353.4027,W,0.12,91.67,130620,,,D*47
$GPRMC,150849.000,A,4028.4433,N,08353.4026,W,0.09,86.27,130620,,,D*4F
$GPRMC,150850.000,A,4028.4433,N,08353.4026,W,0.13,120.27,130620,,,D*71
$GPRMC,150851.000,A,4028.4433,N,08353.4025,W,0.08,352.99,130620,,,D*7B
$GPRMC,150852.000,A,4028.4433,N,08353.4025,W,0.07,297.93,130620,,,D*75
$GPRMC,150853.000,A,4028.4433,N,08353.4025,W,0.08,188.97,130620,,,D*72
$GPRMC,150854.000,A,4028.4432,N,08353.4025,W,0.04,304.90,130620,,,D*79
$GPRMC,150855.000,A,4028.4432,N,08353.4025,W,0.03,270.82,130620,,,D*7E
$GPRMC,150856.000,A,4028.4432,N,08353.4025,W,0.04,233.32,130620,,,D*76
$GPRMC,150857.000,A,4028.4432,N,08353.4024,W,0.04,70.65,130620,,,D*41
$GPRMC,150858.000,A,4028.4432,N,08353.4024,W,0.10,106.55,130620,,,D*78
$GPRMC,150859.000,A,4028.4432,N,08353.4023,W,0.15,49.92,130620,,,D*4A
$GPRMC,150900.000,A,4028.4432,N,08353.4022,W,0.11,122.12,130620,,,D*76
$GPRMC,150901.000,A,4028.4432,N,08353.4022,W,0.10,82.79,130620,,,D*40
$GPRMC,150902.000,A,4028.4432,N,08353.4021,W,0.18,128.61,130620,,,D*70
$GPRMC,150903.000,A,4028.4431,N,08353.4021,W,0.25,167.47,130620,,,D*73
$GPRMC,150904.000,A,4028.4431,N,08353.4021,W,0.09,288.52,130620,,,D*7C
$GPRMC,150905.000,A,4028.4431,N,08353.4021,W,0.04,314.82,130620,,,D*79
$GPRMC,150906.000,A,4028.4432,N,08353.4020,W,0.12,319.22,130620,,,D*78
$GPRMC,150907.000,A,4028.4432,N,08353.4020,W,0.06,252.35,130620,,,D*74
$GPRMC,150908.000,A,4028.4432,N,08353.4021,W,0.15,317.03,130620,,,D*7D
$GPRMC,150909.000,A,4028.4432,N,08353.4022,W,0.08,172.83,130620,,,D*7A
$GPRMC,150910.000,A,4028.4433,N,08353.4022,W,0.08,7.55,130620,,,D*7B
$GPRMC,150911.000,A,4028.4433,N,08353.4022,W,0.15,160.76,130620,,,D*77
$GPRMC,150912.000,A,4028.4433,N,08353.4022,W,0.10,334.03,130620,,,D*70
$GPRMC,150913.000,A,4028.4432,N,08353.4023,W,0.08,349.11,130620,,,D*71
$GPRMC,150914.000,A,4028.4431,N,08353.4024,W,0.12,175.50,130620,,,D*71
$GPRMC,150915.000,A,4028.4431,N,08353.4025,W,0.13,314.98,130620,,,D*71
$GPRMC,150916.000,A,4028.4430,N,08353.4026,W,0.10,311.28,130620,,,D*7D
$GPRMC,150917.000,A,4028.4430,N,08353.4027,W,0.08,298.30,130620,,,D*7D
$GPRMC,150918.000,A,4028.4429,N,08353.4028,W,0.09,301.70,130620,,,D*71
$GPRMC,150919.000,A,4028.4429,N,08353.4028,W,0.09,187.24,130620,,,D*7D
$GPRMC,150920.000,A,4028.4428,N,08353.4029,W,0.14,317.12,130620,,,D*75
$GPRMC,150921.000,A,4028.4428,N,08353.4030,W,0.06,169.90,130620,,,D*7E
$GPRMC,150922.000,A,4028.4427,N,08353.4031,W,0.14,118.00,130620,,,D*7F
$GPRMC,150923.000,A,4028.4426,N,08353.4031,W,0.09,85.83,130620,,,D*4D
$GPRMC,150924.000,A,4028.4426,N,08353.4031,W,0.09,128.47,130620,,,D*74
$GPRMC,150925.000,A,4028.4425,N,08353.4031,W,0.11,108.61,130620,,,D*79
$GPRMC,150926.000,A,4028.4425,N,08353.4032,W,0.05,118.62,130620,,,D*7E
$GPRMC,150927.000,A,4028.4425,N,08353.4032,W,0.04,291.35,130620,,,D*7E
$GPRMC,150928.000,A,4028.4424,N,08353.4033,W,0.12,302.27,130620,,,D*7E
$GPRMC,150929.000,A,4028.4424,N,08353.4034,W,0.10,276.90,130620,,,D*74
$GPRMC,150930.000,A,4028.4424,N,08353.4035,W,0.16,302.69,130620,,,D*7F
$GPRMC,150931.000,A,4028.4424,N,08353.4035,W,0.12,298.17,130620,,,D*71
$GPRMC,150932.000,A,4028.4424,N,08353.4036,W,0.10,252.38,130620,,,D*78
$GPRMC,150933.000,A,4028.4424,N,08353.4037,W,0.04,235.95,130620,,,D*7B
$GPRMC,150934.000,A,4028.4423,N,08353.4037,W,0.10,130.37,130620,,,D*70
$GPRMC,150935.000,A,4028.4423,N,08353.4037,W,0.10,61.23,130620,,,D*41
$GPRMC,150936.000,A,4028.4423,N,08353.4037,W,0.08,109.91,130620,,,D*7D
$GPRMC,150937.000,A,4028.4422,N,08353.4037,W,0.17,152.24,130620,,,D*73
$GPRMC,150938.000,A,4028.4422,N,08353.4037,W,0.09,117.70,130620,,,D*73
$GPRMC,150939.000,A,4028.4422,N,08353.4038,W,0.05,282.59,130620,,,D*75
$GPRMC,150940.000,A,4028.4422,N,08353.4038,W,0.11,309.85,130620,,,D*7D
$GPRMC,150941.000,A,4028.4422,N,08353.4039,W,0.12,260.86,130620,,,D*73
$GPRMC,150942.000,A,4028.4422,N,08353.4040,W,0.15,303.63,130620,,,D*76
$GPRMC,150943.000,A,4028.4422,N,08353.4040,W,0.14,304.95,130620,,,D*78
$GPRMC,150944.000,A,4028.4422,N,08353.4041,W,0.16,308.68,130620,,,D*72
$GPRMC,150945.000,A,4028.4422,N,08353.4041,W,0.03,177.24,130620,,,D*75
$GPRMC,150946.000,A,4028.4422,N,08353.4041,W,0.07,107.09,130620,,,D*7A
$GPRMC,150947.000,A,4028.4421,N,08353.4041,W,0.11,106.63,130620,,,D*72
$GPRMC,150948.000,A,4028.4421,N,08353.4041,W,0.09,125.54,130620,,,D*71
$GPRMC,150949.000,A,4028.4421,N,08353.4041,W,0.09,122.31,130620,,,D*74
$GPRMC,150950.000,A,4028.4421,N,08353.4040,W,0.11,122.35,130620,,,D*70
$GPRMC,150951.000,A,4028.4420,N,08353.4040,W,0.04,273.29,130620,,,D*7E
$GPRMC,150952.000,A,4028.4420,N,08353.4041,W,0.05,271.92,130620,,,D*7F
$GPRMC,150953.000,A,4028.4420,N,08353.4041,W,0.21,309.79,130620,,,D*73
$GPRMC,150954.000,A,4028.4420,N,08353.4042,W,0.13,280.66,130620,,,D*78
$GPRMC,150955.000,A,4028.4421,N,08353.4042,W,0.18,312.19,130620,,,D*71
$GPRMC,150956.000,A,4028.4421,N,08353.4042,W,0.11,283.78,130620,,,D*75
$GPRMC,150957.000,A,4028.4421,N,08353.4043,W,0.03,334.70,130620,,,D*73
$GPRMC,150958.000,A,4028.4421,N,08353.4043,W,0.04,113.26,130620,,,D*7F
$GPRMC,150959.000,A,4028.4420,N,08353.4042,W,0.21,127.98,130620,,,D*7B
$GPRMC,151000.000,A,4028.4420,N,08353.4042,W,0.04,83.29,130620,,,D*4D
$GPRMC,151001.000,A,4028.4420,N,08353.4042,W,0.08,88.46,130620,,,D*42
$GPRMC,151002.000,A,4028.4420,N,08353.4041,W,0.15,125.85,130620,,,D*77
$GPRMC,151003.000,A,4028.4419,N,08353.4041,W,0.04,132.74,130620,,,D*74
$GPRMC,151004.000,A,4028.4419,N,08353.4041,W,0.14,309.77,130620,,,D*7B
$GPRMC,151005.000,A,4028.4419,N,08353.4041,W,0.16,314.82,130620,,,D*7E
$GPRMC,151006.000,A,4028.4419,N,08353.4042,W,0.09,196.24,130620,,,D*74
$GPRMC,151007.000,A,4028.4419,N,08353.4042,W,0.11,316.06,130620,,,D*76
$GPRMC,151008.000,A,4028.4419,N,08353.4042,W,0.07,243.65,130620,,,D*7A
$GPRMC,151009.000,A,4028.4419,N,08353.4042,W,0.14,325.85,130620,,,D*76
$GPRMC,151010.000,A,4028.4419,N,08353.4042,W,0.01,90.25,130620,,,D*4D
$GPRMC,151011.000,A,4028.4419,N,08353.4042,W,0.07,139.24,130620,,,D*79
$GPRMC,151012.000,A,4028.4419,N,08353.4042,W,0.04,113.39,130620,,,D*7D
$GPRMC,151013.000,A,4028.4418,N,08353.4042,W,0.01,15.17,130620,,,D*43
$GPRMC,151014.000,A,4028.4418,N,08353.4042,W,0.04,86.38,130620,,,D*46
$GPRMC,151015.000,A,4028.4418,N,08353.4041,W,0.05,131.34,130620,,,D*74
$GPRMC,151016.000,A,4028.4418,N,08353.4041,W,0.08,263.84,130620,,,D*75
$GPRMC,151017.000,A,4028.4418,N,08353.4042,W,0.11,309.40,130620,,,D*7A
$GPRMC,151018.000,A,4028.4418,N,08353.4042,W,0.07,303.94,130620,,,D*71
$GPRMC,151019.000,A,4028.4418,N,08353.4042,W,0.06,305.00,130620,,,D*7A
$GPRMC,151020.000,A,4028.4418,N,08353.4042,W,0.09,307.27,130620,,,D*78
$GPRMC,151021.000,A,4028.4418,N,08353.4042,W,0.12,303.35,130620,,,D*74
$GPRMC,151022.000,A,4028.4418,N,08353.4042,W,0.07,130.89,130620,,,D*76
$GPRMC,151023.000,A,4028.4418,N,08353.4042,W,0.04,110.43,130620,,,D*70
$GPRMC,151024.000,A,4028.4418,N,08353.4042,W,0.04,34.88,130620,,,D*47
$GPRMC,151025.000,A,4028.4418,N,08353.4042,W,0.13,143.06,130620,,,D*77
$GPRMC,151026.000,A,4028.4418,N,08353.4042,W,0.02,89.74,130620,,,D*46
$GPRMC,151027.000,A,4028.4418,N,08353.4042,W,0.05,325.45,130620,,,D*77
$GPRMC,151028.000,A,4028.4418,N,08353.4042,W,0.13,296.23,130620,,,D*76
$GPRMC,151029.000,A,4028.4418,N,08353.4042,W,0.17,309.68,130620,,,D*7B
$GPRMC,151030.000,A,4028.4418,N,08353.4043,W,0.11,245.59,130620,,,D*7F
$GPRMC,151031.000,A,4028.4418,N,08353.4043,W,0.08,285.81,130620,,,D*7F
$GPRMC,151032.000,A,4028.4418,N,08353.4043,W,0.18,316.57,130620,,,D*7D
$GPRMC,151033.000,A,4028.4418,N,08353.4044,W,0.03,338.98,130620,,,D*7E
$GPRMC,151034.000,A,4028.4418,N,08353.4043,W,0.09,112.82,130620,,,D*75
$GPRMC,151035.000,A,4028.4418,N,08353.4043,W,0.09,93.25,130620,,,D*41
$GPRMC,151036.000,A,4028.4418,N,08353.4043,W,0.16,132.66,130620,,,D*71
$GPRMC,151037.000,A,4028.4418,N,08353.4042,W,0.08,82.99,130620,,,D*44
$GPRMC,151038.000,A,4028.4417,N,08353.4042,W,0.11,131.57,130620,,,D*77
$GPRMC,151039.000,A,4028.4417,N,08353.4042,W,0.04,39.23,130620,,,D*48
$GPRMC,151040.000,A,4028.4417,N,08353.4042,W,0.09,312.63,130620,,,D*75
$GPRMC,151041.000,A,4028.4417,N,08353.4042,W,0.10,284.99,130620,,,D*77
$GPRMC,151042.000,A,4028.4418,N,08353.4043,W,0.10,316.91,130620,,,D*78
$GPRMC,151043.000,A,4028.4418,N,08353.4043,W,0.06,275.84,130620,,,D*7E
$GPRMC,151044.000,A,4028.4418,N,08353.4043,W,0.07,301.85,130620,,,D*7B
$GPRMC,151045.000,A,4028.4418,N,08353.4043,W,0.14,301.89,130620,,,D*74
$GPRMC,151046.000,A,4028.4418,N,08353.4044,W,0.13,309.17,130620,,,D*78
$GPRMC,151047.000,A,4028.4418,N,08353.4044,W,0.14,288.17,130620,,,D*76
$GPRMC,151048.000,A,4028.4418,N,08353.4045,W,0.14,309.03,130620,,,D*75
$GPRMC,151049.000,A,4028.4418,N,08353.4045,W,0.07,244.48,130620,,,D*71
$GPRMC,151050.000,A,4028.4419,N,08353.4045,W,0.20,310.97,130620,,,D*7F
$GPRMC,151051.000,A,4028.4419,N,08353.4046,W,0.05,353.54,130620,,,D*72
$GPRMC,151052.000,A,4028.4419,N,08353.4046,W,0.07,122.08,130620,,,D*7E
$GPRMC,151053.000,A,4028.4419,N,08353.4046,W,0.04,22.91,130620,,,D*4D
$GPRMC,151054.000,A,4028.4419,N,08353.4045,W,0.10,135.38,130620,,,D*78
$GPRMC,151055.000,A,4028.4419,N,08353.4045,W,0.09,36.24,130620,,,D*4E
$GPRMC,151056.000,A,4028.4419,N,08353.4045,W,0.06,349.49,130620,,,D*72
$GPRMC,151057.000,A,4028.4419,N,08353.4045,W,0.05,306.27,130620,,,D*73
$GPRMC,151058.000,A,4028.4419,N,08353.4045,W,0.09,210.26,130620,,,D*77
$GPRMC,151059.000,A,4028.4419,N,08353.4045,W,0.05,262.72,130620,,,D*7E
$GPRMC,151100.000,A,4028.4419,N,08353.4045,W,0.10,186.75,130620,,,D*79
$GPRMC,151101.000,A,4028.4418,N,08353.4045,W,0.09,189.61,130620,,,D*7B
$GPRMC,151102.000,A,4028.4418,N,08353.4045,W,0.03,230.28,130620,,,D*7E
$GPRMC,151103.000,A,4028.4418,N,08353.4045,W,0.18,149.79,130620,,,D*7C
$GPRMC,151104.000,A,4028.4417,N,08353.4045,W,0.06,158.02,130620,,,D*77
$GPRMC,151105.000,A,4028.4417,N,08353.4045,W,0.09,351.09,130620,,,D*79
$GPRMC,151106.000,A,4028.4418,N,08353.4045,W,0.03,136.35,130620,,,D*73
$GPRMC,151107.000,A,4028.4418,N,08353.4045,W,0.08,318.67,130620,,,D*70
$GPRMC,151108.000,A,4028.4418,N,08353.4045,W,0.06,334.18,130620,,,D*77
$GPRMC,151109.000,A,4028.4418,N,08353.4045,W,0.03,197.31,130620,,,D*73
$GPRMC,151110.000,A,4028.4418,N,08353.4045,W,0.05,68.31,130620,,,D*4C
$GPRMC,151111.000,A,4028.4418,N,08353.4044,W,0.03,87.02,130620,,,D*4B
$GPRMC,151112.000,A,4028.4418,N,08353.4046,W,0.07,104.52,130620,,,D*71
$GPRMC,151113.000,A,4028.4422,N,08353.4057,W,0.09,143.56,130620,,,D*70
$GPRMC,151114.000,A,4028.4422,N,08353.4057,W,0.04,18.23,130620,,,D*47
$GPRMC,151115.000,A,4028.4421,N,08353.4054,W,0.02,125.71,130620,,,D*78
$GPRMC,151116.000,A,4028.4420,N,08353.4051,W,0.05,323.77,130620,,,D*7A
$GPRMC,151117.000,A,4028.4420,N,08353.4049,W,0.03,183.77,130620,,,D*7C
$GPRMC,151118.000,A,4028.4419,N,08353.4047,W,0.03,327.22,130620,,,D*7B
$GPRMC,151119.000,A,4028.4419,N,08353.4046,W,0.06,310.01,130620,,,D*7B
$GPRMC,151120.000,A,4028.4419,N,08353.4045,W,0.06,333.38,130620,,,D*79
$GPRMC,151121.000,A,4028.4419,N,08353.4045,W,0.03,305.66,130620,,,D*73
$GPRMC,151122.000,A,4028.4418,N,08353.4043,W,0.08,90.35,130620,,,D*45
$GPRMC,151123.000,A,4028.4418,N,08353.4042,W,0.04,119.92,130620,,,D*74
$GPRMC,151124.000,A,4028.4418,N,08353.4042,W,0.08,92.55,130620,,,D*46
$GPRMC,151125.000,A,4028.4417,N,08353.4041,W,0.05,122.83,130620,,,D*77
$GPRMC,151126.000,A,4028.4417,N,08353.4040,W,0.07,114.23,130620,,,D*78
$GPRMC,151127.000,A,4028.4417,N,08353.4040,W,0.06,90.53,130620,,,D*42
$GPRMC,151128.000,A,4028.4417,N,08353.4040,W,0.06,315.81,130620,,,D*7C
$GPRMC,151129.000,A,4028.4417,N,08353.4040,W,0.03,305.04,130620,,,D*74
$GPRMC,151130.000,A,4028.4418,N,08353.4040,W,0.05,354.74,130620,,,D*76
$GPRMC,151131.000,A,4028.4418,N,08353.4041,W,0.05,264.19,130620,,,D*7F
$GPRMC,151132.000,A,4028.4418,N,08353.4041,W,0.05,312.17,130620,,,D*72
$GPRMC,151133.000,A,4028.4418,N,08353.4042,W,0.01,304.60,130620,,,D*73
$GPRMC,151134.000,A,4028.4418,N,08353.4042,W,0.06,146.90,130620,,,D*78
$GPRMC,151135.000,A,4028.4418,N,08353.4042,W,0.07,94.95,130620,,,D*43
$GPRMC,151136.000,A,4028.4418,N,08353.4042,W,0.11,132.57,130620,,,D*74
$GPRMC,151137.000,A,4028.4418,N,08353.4042,W,0.06,118.16,130620,,,D*7E
$GPRMC,151138.000,A,4028.4418,N,08353.4042,W,0.05,97.51,130620,,,D*47
$GPRMC,151139.000,A,4028.4418,N,08353.4042,W,0.06,124.95,130620,,,D*74
$GPRMC,151140.000,A,4028.4418,N,08353.4042,W,0.03,226.41,130620,,,D*77
$GPRMC,151141.000,A,4028.4418,N,08353.4042,W,0.07,181.24,130620,,,D*7F
$GPRMC,151142.000,A,4028.4419,N,08353.4043,W,0.04,243.74,130620,,,D*77
$GPRMC,151143.000,A,4028.4419,N,08353.4043,W,0.08,215.94,130620,,,D*77
$GPRMC,151144.000,A,4028.4419,N,08353.4044,W,0.07,191.91,130620,,,D*72
$GPRMC,151145.000,A,4028.4419,N,08353.4044,W,0.04,310.16,130620,,,D*74
$GPRMC,151146.000,A,4028.4419,N,08353.4044,W,0.04,354.14,130620,,,D*75
$GPRMC,151147.000,A,4028.4419,N,08353.4044,W,0.09,100.45,130620,,,D*7E
$GPRMC,151148.000,A,4028.4420,N,08353.4044,W,0.06,31.04,130620,,,D*42
$GPRMC,151149.000,A,4028.4420,N,08353.4045,W,0.02,105.65,130620,,,D*77
$GPRMC,151150.000,A,4028.4420,N,08353.4045,W,0.07,54.20,130620,,,D*4E
$GPRMC,151151.000,A,4028.4421,N,08353.4045,W,0.03,97.96,130620,,,D*48
$GPRMC,151152.000,A,4028.4421,N,08353.4045,W,0.04,283.11,130620,,,D*74
$GPRMC,151153.000,A,4028.4421,N,08353.4045,W,0.03,245.91,130620,,,D*70
$GPRMC,151154.000,A,4028.4421,N,08353.4045,W,0.07,192.98,130620,,,D*73
$GPRMC,151155.000,A,4028.4421,N,08353.4045,W,0.04,217.93,130620,,,D*74
$GPRMC,151156.000,A,4028.4421,N,08353.4046,W,0.09,163.38,130620,,,D*78
$GPRMC,151157.000,A,4028.4421,N,08353.4046,W,0.06,249.41,130620,,,D*73
$GPRMC,151158.000,A,4028.4422,N,08353.4046,W,0.03,330.24,130620,,,D*76
$GPRMC,151159.000,A,4028.4422,N,08353.4046,W,0.03,53.49,130620,,,D*4A
$GPRMC,151200.000,A,4028.4422,N,08353.4046,W,0.04,344.38,130620,,,D*71
$GPRMC,151201.000,A,4028.4423,N,08353.4047,W,0.05,308.09,130620,,,D*7B
$GPRMC,151202.000,A,4028.4423,N,08353.4047,W,0.04,358.09,130620,,,D*7C
$GPRMC,151203.000,A,4028.4424,N,08353.4047,W,0.02,304.03,130620,,,D*7F
$GPRMC,151204.000,A,4028.4424,N,08353.4047,W,0.10,150.55,130620,,,D*7B
$GPRMC,151205.000,A,4028.4424,N,08353.4047,W,0.08,153.64,130620,,,D*72
$GPRMC,151206.000,A,4028.4424,N,08353.4046,W,0.07,164.70,130620,,,D*7E
$GPRMC,151207.000,A,4028.4424,N,08353.4046,W,0.11,135.11,130620,,,D*7B
$GPRMC,151208.000,A,4028.4424,N,08353.4046,W,0.10,161.85,130620,,,D*79
$GPRMC,151209.000,A,4028.4424,N,08353.4046,W,0.15,149.00,130620,,,D*7A
$GPRMC,151210.000,A,4028.4424,N,08353.4046,W,0.12,346.72,130620,,,D*7D
$GPRMC,151211.000,A,4028.4425,N,08353.4046,W,0.09,346.01,130620,,,D*73
$GPRMC,151212.000,A,4028.4425,N,08353.4046,W,0.09,343.16,130620,,,D*73
$GPRMC,151213.000,A,4028.4426,N,08353.4046,W,0.10,353.62,130620,,,D*7B
$GPRMC,151214.000,A,4028.4426,N,08353.4046,W,0.06,347.46,130620,,,D*78
$GPRMC,151215.000,A,4028.4427,N,08353.4046,W,0.11,341.58,130620,,,D*77
$GPRMC,151216.000,A,4028.4427,N,08353.4046,W,0.05,147.85,130620,,,D*75
$GPRMC,151217.000,A,4028.4427,N,08353.4046,W,0.13,154.84,130620,,,D*70
$GPRMC,151218.000,A,4028.4427,N,08353.4046,W,0.08,160.11,130620,,,D*7E
$GPRMC,151219.000,A,4028.4427,N,08353.4046,W,0.09,166.80,130620,,,D*70
$GPRMC,151220.000,A,4028.4427,N,08353.4045,W,0.07,150.99,130620,,,D*7A
$GPRMC,151221.000,A,4028.4426,N,08353.4045,W,0.13,156.92,130620,,,D*72
$GPRMC,151222.000,A,4028.4426,N,08353.4045,W,0.09,169.55,130620,,,D*7D
$GPRMC,151223.000,A,4028.4426,N,08353.4045,W,0.09,140.81,130620,,,D*7E
$GPRMC,151224.000,A,4028.4426,N,08353.4044,W,0.10,153.51,130620,,,D*7F
$GPRMC,151225.000,A,4028.4426,N,08353.4044,W,0.10,161.78,130620,,,D*74
$GPRMC,151226.000,A,4028.4426,N,08353.4044,W,0.09,166.82,130620,,,D*7D
$GPRMC,151227.000,A,4028.4426,N,08353.4044,W,0.06,202.01,130620,,,D*79
$GPRMC,151228.000,A,4028.4426,N,08353.4044,W,0.11,160.02,130620,,,D*74
$GPRMC,151229.000,A,4028.4426,N,08353.4044,W,0.07,328.50,130620,,,D*7B
$GPRMC,151230.000,A,4028.4426,N,08353.4044,W,0.05,338.88,130620,,,D*75
$GPRMC,151231.000,A,4028.4426,N,08353.4044,W,0.04,292.49,130620,,,D*79
$GPRMC,151232.000,A,4028.4427,N,08353.4044,W,0.03,108.66,130620,,,D*71
$GPRMC,151233.000,A,4028.4427,N,08353.4044,W,0.05,87.82,130620,,,D*4A
$GPRMC,151234.000,A,4028.4427,N,08353.4044,W,0.08,52.20,130620,,,D*40
$GPRMC,151235.000,A,4028.4428,N,08353.4044,W,0.10,64.93,130620,,,D*4A
$GPRMC,151236.000,A,4028.4428,N,08353.4044,W,0.07,85.35,130620,,,D*4C
$GPRMC,151237.000,A,4028.4429,N,08353.4044,W,0.12,48.80,130620,,,D*47
$GPRMC,151238.000,A,4028.4429,N,08353.4044,W,0.04,44.75,130620,,,D*49
$GPRMC,151239.000,A,4028.4430,N,08353.4044,W,0.10,1.61,130620,,,D*71
$GPRMC,151240.000,A,4028.4430,N,08353.4044,W,0.12,164.20,130620,,,D*7A
$GPRMC,151241.000,A,4028.4430,N,08353.4044,W,0.07,184.65,130620,,,D*70
$GPRMC,151242.000,A,4028.4429,N,08353.4044,W,0.10,161.61,130620,,,D*72
$GPRMC,151243.000,A,4028.4429,N,08353.4043,W,0.10,170.59,130620,,,D*7F
$GPRMC,151244.000,A,4028.4429,N,08353.4043,W,0.06,175.75,130620,,,D*74
$GPRMC,151245.000,A,4028.4429,N,08353.4043,W,0.18,146.03,130620,,,D*7B
$GPRMC,151246.000,A,4028.4429,N,08353.4043,W,0.07,37.08,130620,,,D*4A
$GPRMC,151247.000,A,4028.4429,N,08353.4043,W,0.11,59.82,130620,,,D*46
$GPRMC,151248.000,A,4028.4429,N,08353.4042,W,0.08,77.24,130620,,,D*40
$GPRMC,151249.000,A,4028.4429,N,08353.4042,W,0.10,32.23,130620,,,D*4E
$GPRMC,151250.000,A,4028.4430,N,08353.4042,W,0.06,49.26,130620,,,D*40
$GPRMC,151251.000,A,4028.4430,N,08353.4042,W,0.11,19.79,130620,,,D*48
$GPRMC,151252.000,A,4028.4430,N,08353.4042,W,0.14,160.85,130620,,,D*72
$GPRMC,151253.000,A,4028.4430,N,08353.4042,W,0.13,152.87,130620,,,D*77
$GPRMC,151254.000,A,4028.4429,N,08353.4041,W,0.09,162.88,130620,,,D*7C
$GPRMC,151255.000,A,4028.4429,N,08353.4041,W,0.12,157.65,130620,,,D*72
$GPRMC,151256.000,A,4028.4429,N,08353.4041,W,0.12,156.48,130620,,,D*7F
$GPRMC,151257.000,A,4028.4429,N,08353.4041,W,0.09,168.54,130620,,,D*74
$GPRMC,151258.000,A,4028.4429,N,08353.4041,W,0.04,38.06,130620,,,D*45
$GPRMC,151259.000,A,4028.4429,N,08353.4041,W,0.08,21.27,130620,,,D*43
$GPRMC,151300.000,A,4028.4429,N,08353.4041,W,0.07,358.12,130620,,,D*7A
$GPRMC,151301.000,A,4028.4430,N,08353.4041,W,0.09,13.60,130620,,,D*44
$GPRMC,151302.000,A,4028.4430,N,08353.4041,W,0.05,50.95,130620,,,D*46
$GPRMC,151303.000,A,4028.4430,N,08353.4041,W,0.08,322.17,130620,,,D*76
$GPRMC,151304.000,A,4028.4430,N,08353.4041,W,0.06,143.14,130620,,,D*79
$GPRMC,151305.000,A,4028.4430,N,08353.4041,W,0.13,178.80,130620,,,D*79
$GPRMC,151306.000,A,4028.4430,N,08353.4041,W,0.09,166.21,130620,,,D*75
$GPRMC,151307.000,A,4028.4429,N,08353.4041,W,0.09,186.62,130620,,,D*75
$GPRMC,151308.000,A,4028.4429,N,08353.4041,W,0.07,162.44,130620,,,D*7A
$GPRMC,151309.000,A,4028.4429,N,08353.4041,W,0.17,143.45,130620,,,D*78
$GPRMC,151310.000,A,4028.4429,N,08353.4041,W,0.09,48.78,130620,,,D*4B
$GPRMC,151311.000,A,4028.4429,N,08353.4041,W,0.04,45.98,130620,,,D*44
$GPRMC,151312.000,A,4028.4429,N,08353.4041,W,0.08,67.32,130620,,,D*4B
$GPRMC,151313.000,A,4028.4430,N,08353.4041,W,0.03,32.30,130620,,,D*4B
$GPRMC,151314.000,A,4028.4430,N,08353.4041,W,0.06,22.20,130620,,,D*49
$GPRMC,151315.000,A,4028.4430,N,08353.4041,W,0.01,272.30,130620,,,D*79
$GPRMC,151316.000,A,4028.4430,N,08353.4041,W,0.10,178.82,130620,,,D*7A
$GPRMC,151317.000,A,4028.4430,N,08353.4041,W,0.10,191.44,130620,,,D*76
$GPRMC,151318.000,A,4028.4430,N,08353.4041,W,0.09,163.48,130620,,,D*70
$GPRMC,151319.000,A,4028.4429,N,08353.4041,W,0.07,189.07,130620,,,D*78
$GPRMC,151320.000,A,4028.4429,N,08353.4041,W,0.17,159.50,130620,,,D*7C
$GPRMC,151321.000,A,4028.4429,N,08353.4041,W,0.16,146.30,130620,,,D*74
$GPRMC,151322.000,A,4028.4429,N,08353.4040,W,0.12,77.13,130620,,,D*40
$GPRMC,151323.000,A,4028.4429,N,08353.4040,W,0.12,51.97,130620,,,D*49
$GPRMC,151324.000,A,4028.4429,N,08353.4040,W,0.11,40.22,130620,,,D*43
$GPRMC,151325.000,A,4028.4430,N,08353.4040,W,0.11,64.47,130620,,,D*4F
$GPRMC,151326.000,A,4028.4430,N,08353.4040,W,0.14,56.82,130620,,,D*41
$GPRMC,151327.000,A,4028.4431,N,08353.4040,W,0.09,358.20,130620,,,D*78
$GPRMC,151328.000,A,4028.4431,N,08353.4040,W,0.13,131.81,130620,,,D*7A
$GPRMC,151329.000,A,4028.4431,N,08353.4040,W,0.04,318.56,130620,,,D*7E
$GPRMC,151330.000,A,4028.4431,N,08353.4040,W,0.08,122.32,130620,,,D*73
$GPRMC,151331.000,A,4028.4431,N,08353.4040,W,0.01,172.95,130620,,,D*73
$GPRMC,151332.000,A,4028.4431,N,08353.4040,W,0.08,140.20,130620,,,D*76
$GPRMC,151333.000,A,4028.4430,N,08353.4040,W,0.22,133.71,130620,,,D*7E
$GPRMC,151334.000,A,4028.4430,N,08353.4040,W,0.07,142.39,130620,,,D*74
$GPRMC,151335.000,A,4028.4430,N,08353.4040,W,0.09,145.17,130620,,,D*70
$GPRMC,151336.000,A,4028.4430,N,08353.4040,W,0.06,160.64,130620,,,D*7F
$GPRMC,151337.000,A,4028.4430,N,08353.4040,W,0.06,183.55,130620,,,D*71
$GPRMC,151338.000,A,4028.4430,N,08353.4040,W,0.06,180.84,130620,,,D*71
$GPRMC,151339.000,A,4028.4430,N,08353.4040,W,0.05,188.36,130620,,,D*72
$GPRMC,151340.000,A,4028.4430,N,08353.4040,W,0.05,69.71,130620,,,D*41
$GPRMC,151341.000,A,4028.4430,N,08353.4040,W,0.06,119.32,130620,,,D*72
$GPRMC,151342.000,A,4028.4430,N,08353.4040,W,0.07,60.32,130620,,,D*4F
$GPRMC,151343.000,A,4028.4430,N,08353.4040,W,0.02,349.85,130620,,,D*7F
$GPRMC,151344.000,A,4028.4430,N,08353.4040,W,0.05,131.36,130620,,,D*7A
$GPRMC,151345.000,A,4028.4431,N,08353.4040,W,0.05,30.91,130620,,,D*47
$GPRMC,151346.000,A,4028.4430,N,08353.4041,W,0.11,197.82,130620,,,D*7F
$GPRMC,151347.000,A,4028.4430,N,08353.4041,W,0.11,191.66,130620,,,D*72
$GPRMC,151348.000,A,4028.4430,N,08353.4041,W,0.04,175.76,130620,,,D*72
$GPRMC,151349.000,A,4028.4430,N,08353.4041,W,0.06,259.69,130620,,,D*72
$GPRMC,151350.000,A,4028.4430,N,08353.4042,W,0.16,164.18,130620,,,D*73
$GPRMC,151351.000,A,4028.4429,N,08353.4043,W,1.00,242.69,130620,,,D*7C
$GPRMC,151352.000,A,4028.4429,N,08353.4045,W,0.05,349.35,130620,,,D*7E
$GPRMC,151353.000,A,4028.4429,N,08353.4045,W,0.09,297.41,130620,,,D*72
$GPRMC,151354.000,A,4028.4429,N,08353.4046,W,0.05,190.36,130620,,,D*7E
$GPRMC,151355.000,A,4028.4429,N,08353.4047,W,0.07,150.36,130620,,,D*70
$GPRMC,151356.000,A,4028.4430,N,08353.4047,W,0.09,50.01,130620,,,D*40
$GPRMC,151357.000,A,4028.4430,N,08353.4047,W,0.12,94.19,130620,,,D*4A
$GPRMC,151358.000,A,4028.4430,N,08353.4047,W,0.09,117.85,130620,,,D*70
$GPRMC,151359.000,A,4028.4430,N,08353.4047,W,0.21,151.26,130620,,,D*70
$GPRMC,151400.000,A,4028.4430,N,08353.4046,W,0.08,79.11,130620,,,D*4E
$GPRMC,151401.000,A,4028.4430,N,08353.4046,W,0.20,91.18,130620,,,D*4A
$GPRMC,151402.000,A,4028.4430,N,08353.4045,W,0.10,92.68,130620,,,D*4D
$GPRMC,151403.000,A,4028.4430,N,08353.4045,W,0.09,357.80,130620,,,D*78
$GPRMC,151404.000,A,4028.4430,N,08353.4045,W,0.16,305.55,130620,,,D*7E
$GPRMC,151405.000,A,4028.4430,N,08353.4045,W,0.04,232.96,130620,,,D*76
$GPRMC,151406.000,A,4028.4430,N,08353.4045,W,0.10,176.92,130620,,,D*77
$GPRMC,151407.000,A,4028.4430,N,08353.4045,W,0.09,165.22,130620,,,D*77
$GPRMC,151408.000,A,4028.4430,N,08353.4045,W,0.09,285.58,130620,,,D*78
$GPRMC,151409.000,A,4028.4430,N,08353.4045,W,0.02,74.51,130620,,,D*47
$GPRMC,151410.000,A,4028.4430,N,08353.4046,W,0.06,290.58,130620,,,D*79
$GPRMC,151411.000,A,4028.4430,N,08353.4046,W,0.08,71.05,130620,,,D*43
$GPRMC,151412.000,A,4028.4430,N,08353.4046,W,0.03,149.12,130620,,,D*77
$GPRMC,151413.000,A,4028.4430,N,08353.4046,W,0.07,220.68,130620,,,D*73
$GPRMC,151414.000,A,4028.4430,N,08353.4046,W,0.05,90.86,130620,,,D*4F
$GPRMC,151415.000,A,4028.4430,N,08353.4046,W,0.04,335.52,130620,,,D*7A
$GPRMC,151416.000,A,4028.4430,N,08353.4046,W,0.07,187.57,130620,,,D*74
$GPRMC,151417.000,A,4028.4430,N,08353.4046,W,0.06,153.16,130620,,,D*78
$GPRMC,151418.000,A,4028.4430,N,08353.4046,W,0.04,186.97,130620,,,D*74
$GPRMC,151419.000,A,4028.4430,N,08353.4046,W,0.05,174.85,130620,,,D*7A
$GPRMC,151420.000,A,4028.4430,N,08353.4046,W,0.05,70.61,130620,,,D*4F
$GPRMC,151421.000,A,4028.4430,N,08353.4046,W,0.13,143.73,130620,,,D*7B
$GPRMC,151422.000,A,4028.4430,N,08353.4046,W,0.04,180.11,130620,,,D*75
$GPRMC,151423.000,A,4028.4430,N,08353.4046,W,0.04,153.76,130620,,,D*7B
$GPRMC,151424.000,A,4028.4430,N,08353.4046,W,0.02,247.09,130620,,,D*74
$GPRMC,151425.000,A,4028.4430,N,08353.4046,W,0.07,191.08,130620,,,D*79
$GPRMC,151426.000,A,4028.4430,N,08353.4046,W,0.02,146.93,130620,,,D*77
$GPRMC,151427.000,A,4028.4430,N,08353.4046,W,0.07,225.15,130620,,,D*7B
$GPRMC,151428.000,A,4028.4429,N,08353.4046,W,0.06,160.39,130620,,,D*71
$GPRMC,151429.000,A,4028.4429,N,08353.4046,W,0.04,178.18,130620,,,D*78
$GPRMC,151430.000,A,4028.4429,N,08353.4046,W,0.05,169.24,130620,,,D*7E
$GPRMC,151431.000,A,4028.4429,N,08353.4046,W,0.02,142.87,130620,,,D*78
$GPRMC,151432.000,A,4028.4429,N,08353.4046,W,0.08,159.82,130620,,,D*7E
$GPRMC,151433.000,A,4028.4429,N,08353.4046,W,0.09,148.02,130620,,,D*76
$GPRMC,151434.000,A,4028.4429,N,08353.4046,W,0.04,72.76,130620,,,D*47
$GPRMC,151435.000,A,4028.4429,N,08353.4046,W,0.06,189.70,130620,,,D*77
$GPRMC,151436.000,A,4028.4429,N,08353.4046,W,0.02,122.85,130620,,,D*7B
$GPRMC,151437.000,A,4028.4429,N,08353.4046,W,0.03,86.32,130620,,,D*48
$GPRMC,151438.000,A,4028.4429,N,08353.4046,W,0.03,143.69,130620,,,D*71
$GPRMC,151439.000,A,4028.4429,N,08353.4046,W,0.09,311.65,130620,,,D*73
$GPRMC,151440.000,A,4028.4429,N,08353.4046,W,0.06,147.15,130620,,,D*74
$GPRMC,151441.000,A,4028.4429,N,08353.4046,W,0.06,213.02,130620,,,D*71
$GPRMC,151442.000,A,4028.4429,N,08353.4046,W,0.06,153.77,130620,,,D*77
$GPRMC,151443.000,A,4028.4429,N,08353.4046,W,0.06,192.84,130620,,,D*77
$GPRMC,151444.000,A,4028.4429,N,08353.4046,W,0.07,182.09,130620,,,D*75
$GPRMC,151445.000,A,4028.4429,N,08353.4046,W,0.14,147.95,130620,,,D*7A
$GPRMC,151446.000,A,4028.4429,N,08353.4046,W,0.08,334.83,130620,,,D*75
$GPRMC,151447.000,A,4028.4429,N,08353.4046,W,0.10,358.42,130620,,,D*7A
$GPRMC,151448.000,A,4028.4429,N,08353.4046,W,0.03,24.15,130620,,,D*4D
$GPRMC,151449.000,A,4028.4430,N,08353.4045,W,0.02,122.94,130620,,,D*78
$GPRMC,151450.000,A,4028.4430,N,08353.4045,W,0.04,309.45,130620,,,D*71
$GPRMC,151451.000,A,4028.4430,N,08353.4046,W,0.05,274.54,130620,,,D*79
$GPRMC,151452.000,A,4028.4430,N,08353.4046,W,0.17,163.70,130620,,,D*7A
$GPRMC,151453.000,A,4028.4430,N,08353.4046,W,0.12,174.53,130620,,,D*79
$GPRMC,151454.000,A,4028.4429,N,08353.4046,W,0.09,185.27,130620,,,D*71
$GPRMC,151455.000,A,4028.4429,N,08353.4046,W,0.05,291.45,130620,,,D*7E
$GPRMC,151456.000,A,4028.4429,N,08353.4046,W,0.20,164.54,130620,,,D*73
$GPRMC,151457.000,A,4028.4429,N,08353.4046,W,0.12,144.00,130620,,,D*70
$GPRMC,151458.000,A,4028.4429,N,08353.4045,W,0.04,143.42,130620,,,D*7A
$GPRMC,151459.000,A,4028.4429,N,08353.4045,W,0.04,339.74,130620,,,D*71
$GPRMC,151500.000,A,4028.4429,N,08353.4045,W,0.06,65.75,130620,,,D*45
$GPRMC,151501.000,A,4028.4429,N,08353.4045,W,0.07,275.09,130620,,,D*7D
$GPRMC,151502.000,A,4028.4430,N,08353.4046,W,0.05,93.79,130620,,,D*4A
$GPRMC,151503.000,A,4028.4430,N,08353.4045,W,0.09,197.47,130620,,,D*7C
$GPRMC,151504.000,A,4028.4430,N,08353.4046,W,0.12,196.18,130620,,,D*79
$GPRMC,151505.000,A,4028.4430,N,08353.4046,W,0.07,107.79,130620,,,D*73
$GPRMC,151506.000,A,4028.4429,N,08353.4046,W,0.10,169.85,130620,,,D*75
$GPRMC,151507.000,A,4028.4429,N,08353.4046,W,0.12,179.02,130620,,,D*78
$GPRMC,151508.000,A,4028.4429,N,08353.4046,W,0.12,174.14,130620,,,D*7D
$GPRMC,151509.000,A,4028.4429,N,08353.4046,W,0.14,160.21,130620,,,D*79
$GPRMC,151510.000,A,4028.4429,N,08353.4045,W,0.06,129.64,130620,,,D*7D
$GPRMC,151511.000,A,4028.4429,N,08353.4047,W,0.03,253.58,130620,,,D*7A
$GPRMC,151512.000,A,4028.4430,N,08353.4048,W,0.04,359.79,130620,,,D*71
$GPRMC,151513.000,A,4028.4431,N,08353.4049,W,0.09,24.32,130620,,,D*4B
$GPRMC,151514.000,A,4028.4432,N,08353.4049,W,0.05,66.64,130620,,,D*46
$GPRMC,151515.000,A,4028.4433,N,08353.4050,W,0.14,321.97,130620,,,D*72
$GPRMC,151516.000,A,4028.4433,N,08353.4051,W,0.12,169.58,130620,,,D*7B
$GPRMC,151517.000,A,4028.4433,N,08353.4051,W,0.10,200.38,130620,,,D*72
$GPRMC,151518.000,A,4028.4433,N,08353.4052,W,0.10,201.13,130620,,,D*76
$GPRMC,151519.000,A,4028.4432,N,08353.4052,W,0.11,151.07,130620,,,D*74
$GPRMC,151520.000,A,4028.4432,N,08353.4053,W,0.12,203.67,130620,,,D*7E
$GPRMC,151521.000,A,4028.4432,N,08353.4053,W,0.12,149.43,130620,,,D*74
$GPRMC,151522.000,A,4028.4432,N,08353.4053,W,0.05,46.61,130620,,,D*4F
$GPRMC,151523.000,A,4028.4433,N,08353.4054,W,0.06,13.95,130620,,,D*40
$GPRMC,151524.000,A,4028.4433,N,08353.4054,W,0.07,4.34,130620,,,D*7B
$GPRMC,151525.000,A,4028.4433,N,08353.4054,W,0.07,339.06,130620,,,D*76
$GPRMC,151526.000,A,4028.4434,N,08353.4054,W,0.06,7.06,130620,,,D*7D
$GPRMC,151527.000,A,4028.4434,N,08353.4055,W,0.10,327.67,130620,,,D*7C
$GPRMC,151528.000,A,4028.4434,N,08353.4055,W,0.10,171.47,130620,,,D*70
$GPRMC,151529.000,A,4028.4434,N,08353.4055,W,0.11,191.05,130620,,,D*78
$GPRMC,151530.000,A,4028.4434,N,08353.4055,W,0.06,194.62,130620,,,D*72
$GPRMC,151531.000,A,4028.4434,N,08353.4055,W,0.10,169.79,130620,,,D*7C
$GPRMC,151532.000,A,4028.4433,N,08353.4055,W,0.11,164.43,130620,,,D*7D
$GPRMC,151533.000,A,4028.4433,N,08353.4055,W,0.17,142.74,130620,,,D*7A
$GPRMC,151534.000,A,4028.4433,N,08353.4055,W,0.17,144.14,130620,,,D*7D
$GPRMC,151535.000,A,4028.4432,N,08353.4054,W,0.14,149.02,130620,,,D*75
$GPRMC,151536.000,A,4028.4432,N,08353.4054,W,0.14,144.53,130620,,,D*7F
$GPRMC,151537.000,A,4028.4432,N,08353.4054,W,0.16,142.82,130620,,,D*76
$GPRMC,151538.000,A,4028.4431,N,08353.4053,W,0.14,142.51,130620,,,D*71
$GPRMC,151539.000,A,4028.4431,N,08353.4053,W,0.09,166.06,130620,,,D*78
$GPRMC,151540.000,A,4028.4431,N,08353.4053,W,0.09,183.00,130620,,,D*7B
$GPRMC,151541.000,A,4028.4431,N,08353.4053,W,0.06,297.25,130620,,,D*74
$GPRMC,151542.000,A,4028.4431,N,08353.4053,W,0.05,280.57,130620,,,D*77
$GPRMC,151543.000,A,4028.4431,N,08353.4053,W,0.08,321.66,130620,,,D*73
$GPRMC,151544.000,A,4028.4432,N,08353.4053,W,0.02,208.80,130620,,,D*7F
$GPRMC,151545.000,A,4028.4432,N,08353.4053,W,0.03,82.79,130620,,,D*49
$GPRMC,151546.000,A,4028.4432,N,08353.4053,W,0.08,20.04,130620,,,D*43
$GPRMC,151547.000,A,4028.4432,N,08353.4053,W,0.06,18.22,130620,,,D*43
$GPRMC,151548.000,A,4028.4432,N,08353.4053,W,0.10,346.91,130620,,,D*7B
$GPRMC,151549.000,A,4028.4433,N,08353.4053,W,0.03,19.75,130620,,,D*4A
$GPRMC,151550.000,A,4028.4433,N,08353.4053,W,0.11,3.75,130620,,,D*7A
$GPRMC,151551.000,A,4028.4434,N,08353.4054,W,0.11,314.09,130620,,,D*75
$GPRMC,151552.000,A,4028.4434,N,08353.4054,W,0.08,212.08,130620,,,D*78
$GPRMC,151553.000,A,4028.4434,N,08353.4054,W,0.06,187.15,130620,,,D*74
$GPRMC,151554.000,A,4028.4433,N,08353.4054,W,0.08,189.38,130620,,,D*7B
$GPRMC,151555.000,A,4028.4433,N,08353.4054,W,0.09,182.89,130620,,,D*7A
$GPRMC,151556.000,A,4028.4433,N,08353.4054,W,0.07,179.80,130620,,,D*7A
$GPRMC,151557.000,A,4028.4433,N,08353.4054,W,0.13,149.45,130620,,,D*74
$GPRMC,151558.000,A,4028.4433,N,08353.4054,W,0.09,70.04,130620,,,D*4E
$GPRMC,151559.000,A,4028.4433,N,08353.4054,W,0.11,84.36,130620,,,D*4C
$GPRMC,151600.000,A,4028.4434,N,08353.4054,W,0.07,7.55,130620,,,D*7D
$GPRMC,151601.000,A,4028.4434,N,08353.4054,W,0.09,37.01,130620,,,D*40
$GPRMC,151602.000,A,4028.4434,N,08353.4054,W,0.08,83.80,130620,,,D*44
$GPRMC,151603.000,A,4028.4435,N,08353.4054,W,0.05,329.61,130620,,,D*75
$GPRMC,151604.000,A,4028.4435,N,08353.4054,W,0.08,210.69,130620,,,D*7C
$GPRMC,151605.000,A,4028.4434,N,08353.4054,W,0.11,210.70,130620,,,D*7C
$GPRMC,151606.000,A,4028.4434,N,08353.4055,W,0.10,249.92,130620,,,D*7F
$GPRMC,151607.000,A,4028.4434,N,08353.4055,W,0.07,195.52,130620,,,D*76
$GPRMC,151608.000,A,4028.4434,N,08353.4055,W,0.12,217.78,130620,,,D*7C
$GPRMC,151609.000,A,4028.4434,N,08353.4055,W,0.12,183.87,130620,,,D*73
$GPRMC,151610.000,A,4028.4434,N,08353.4055,W,0.07,78.30,130620,,,D*46
$GPRMC,151611.000,A,4028.4434,N,08353.4055,W,0.07,31.42,130620,,,D*4F
$GPRMC,151612.000,A,4028.4434,N,08353.4055,W,0.07,38.25,130620,,,D*44
$GPRMC,151613.000,A,4028.4435,N,08353.4055,W,0.06,10.56,130620,,,D*4B
$GPRMC,151614.000,A,4028.4435,N,08353.4055,W,0.07,49.90,130620,,,D*4B
$GPRMC,151615.000,A,4028.4435,N,08353.4055,W,0.06,338.75,130620,,,D*75
$GPRMC,151616.000,A,4028.4435,N,08353.4055,W,0.03,59.59,130620,,,D*49
$GPRMC,151617.000,A,4028.4435,N,08353.4055,W,0.04,153.18,130620,,,D*71
$GPRMC,151618.000,A,4028.4435,N,08353.4055,W,0.04,123.12,130620,,,D*73
$GPRMC,151619.000,A,4028.4435,N,08353.4055,W,0.02,238.29,130620,,,D*75
$GPRMC,151620.000,A,4028.4435,N,08353.4055,W,0.02,283.80,130620,,,D*7C
$GPRMC,151621.000,A,4028.4435,N,08353.4055,W,0.08,91.18,130620,,,D*47
$GPRMC,151622.000,A,4028.4436,N,08353.4055,W,0.01,235.20,130620,,,D*79
$GPRMC,151623.000,A,4028.4436,N,08353.4055,W,0.06,91.49,130620,,,D*4C
$GPRMC,151624.000,A,4028.4436,N,08353.4055,W,0.05,94.34,130620,,,D*47
$GPRMC,151625.000,A,4028.4436,N,08353.4055,W,0.03,199.84,130620,,,D*77
$GPRMC,151626.000,A,4028.4436,N,08353.4055,W,0.06,118.89,130620,,,D*75
$GPRMC,151627.000,A,4028.4436,N,08353.4055,W,0.02,298.59,130620,,,D*76
$GPRMC,151628.000,A,4028.4435,N,08353.4055,W,0.07,196.06,130620,,,D*78
$GPRMC,151629.000,A,4028.4435,N,08353.4055,W,0.07,193.02,130620,,,D*78
$GPRMC,151630.000,A,4028.4435,N,08353.4055,W,0.05,201.29,130620,,,D*73
$GPRMC,151631.000,A,4028.4435,N,08353.4055,W,0.06,169.28,130620,,,D*7D
$GPRMC,151632.000,A,4028.4434,N,08353.4055,W,0.10,167.28,130620,,,D*76
$GPRMC,151633.000,A,4028.4434,N,08353.4055,W,0.09,139.67,130620,,,D*7F
$GPRMC,151634.000,A,4028.4434,N,08353.4054,W,0.07,42.06,130620,,,D*4D
$GPRMC,151635.000,A,4028.4434,N,08353.4054,W,0.06,40.10,130620,,,D*48
$GPRMC,151636.000,A,4028.4434,N,08353.4054,W,0.10,49.27,130620,,,D*41
$GPRMC,151637.000,A,4028.4435,N,08353.4054,W,0.03,72.63,130620,,,D*4B
$GPRMC,151638.000,A,4028.4435,N,08353.4054,W,0.10,31.06,130620,,,D*42
$GPRMC,151639.000,A,4028.4435,N,08353.4054,W,0.09,2.25,130620,,,D*7A
$GPRMC,151640.000,A,4028.4435,N,08353.4054,W,0.09,168.43,130620,,,D*79
$GPRMC,151641.000,A,4028.4435,N,08353.4054,W,0.08,185.68,130620,,,D*73
$GPRMC,151642.000,A,4028.4434,N,08353.4054,W,0.10,149.61,130620,,,D*71
$GPRMC,151643.000,A,4028.4434,N,08353.4053,W,0.07,176.12,130620,,,D*79
$GPRMC,151644.000,A,4028.4434,N,08353.4053,W,0.06,155.83,130620,,,D*76
$GPRMC,151645.000,A,4028.4433,N,08353.4053,W,0.09,138.68,130620,,,D*71
$GPRMC,151646.000,A,4028.4433,N,08353.4053,W,0.07,26.05,130620,,,D*49
$GPRMC,151647.000,A,4028.4434,N,08353.4053,W,0.10,37.48,130620,,,D*40
$GPRMC,151648.000,A,4028.4434,N,08353.4053,W,0.06,33.87,130620,,,D*4F
$GPRMC,151649.000,A,4028.4434,N,08353.4053,W,0.09,36.99,130620,,,D*4B
$GPRMC,151650.000,A,4028.4434,N,08353.4052,W,0.06,42.43,130620,,,D*49
$GPRMC,151651.000,A,4028.4434,N,08353.4052,W,0.09,351.78,130620,,,D*7E
$GPRMC,151652.000,A,4028.4434,N,08353.4052,W,0.07,158.38,130620,,,D*7C
$GPRMC,151653.000,A,4028.4434,N,08353.4052,W,0.09,196.87,130620,,,D*75
$GPRMC,151654.000,A,4028.4433,N,08353.4052,W,0.08,159.27,130620,,,D*7D
$GPRMC,151655.000,A,4028.4433,N,08353.4052,W,0.08,156.28,130620,,,D*7C
$GPRMC,151656.000,A,4028.4433,N,08353.4052,W,0.08,174.13,130620,,,D*77
$GPRMC,151657.000,A,4028.4432,N,08353.4052,W,0.10,152.74,130620,,,D*7B
$GPRMC,151658.000,A,4028.4432,N,08353.4051,W,0.09,50.15,130620,,,D*4B
$GPRMC,151659.000,A,4028.4432,N,08353.4051,W,0.06,78.07,130620,,,D*4C
$GPRMC,151700.000,A,4028.4432,N,08353.4051,W,0.12,36.90,130620,,,D*40
$GPRMC,151701.000,A,4028.4433,N,08353.4050,W,0.08,40.39,130620,,,D*48
$GPRMC,151702.000,A,4028.4433,N,08353.4050,W,0.09,37.69,130620,,,D*4F
$GPRMC,151703.000,A,4028.4433,N,08353.4050,W,0.06,1.75,130620,,,D*79
$GPRMC,151704.000,A,4028.4433,N,08353.4050,W,0.09,199.05,130620,,,D*76
$GPRMC,151705.000,A,4028.4432,N,08353.4050,W,0.06,174.69,130620,,,D*70
$GPRMC,151706.000,A,4028.4432,N,08353.4050,W,0.09,152.02,130620,,,D*75
$GPRMC,151707.000,A,4028.4432,N,08353.4050,W,0.08,171.45,130620,,,D*77
$GPRMC,151708.000,A,4028.4431,N,08353.4050,W,0.06,175.62,130620,,,D*74
$GPRMC,151709.000,A,4028.4431,N,08353.4049,W,0.10,151.60,130620,,,D*7E
$GPRMC,151710.000,A,4028.4431,N,08353.4049,W,0.09,156.25,130620,,,D*78
$GPRMC,151711.000,A,4028.4430,N,08353.4049,W,0.08,161.66,130620,,,D*7A
$GPRMC,151712.000,A,4028.4430,N,08353.4048,W,0.09,147.25,130620,,,D*7A
$GPRMC,151713.000,A,4028.4429,N,08353.4048,W,0.10,150.01,130620,,,D*7B
$GPRMC,151714.000,A,4028.4429,N,08353.4047,W,0.11,156.58,130620,,,D*78
$GPRMC,151715.000,A,4028.4428,N,08353.4046,W,0.08,178.52,130620,,,D*77
$GPRMC,151716.000,A,4028.4428,N,08353.4046,W,0.01,66.68,130620,,,D*4A
$GPRMC,151717.000,A,4028.4428,N,08353.4046,W,0.01,81.29,130620,,,D*47
$GPRMC,151718.000,A,4028.4428,N,08353.4045,W,0.02,328.64,130620,,,D*71
$GPRMC,151719.000,A,4028.4428,N,08353.4045,W,0.07,99.14,130620,,,D*4B
$GPRMC,151720.000,A,4028.4428,N,08353.4045,W,0.02,264.76,130620,,,D*70
$GPRMC,151721.000,A,4028.4428,N,08353.4044,W,0.07,107.64,130620,,,D*70
$GPRMC,151722.000,A,4028.4428,N,08353.4044,W,0.09,57.83,130620,,,D*40
$GPRMC,151723.000,A,4028.4428,N,08353.4043,W,0.07,46.69,130620,,,D*4C
$GPRMC,151724.000,A,4028.4428,N,08353.4043,W,0.08,66.33,130620,,,D*49
$GPRMC,151725.000,A,4028.4428,N,08353.4043,W,0.10,46.31,130620,,,D*41
$GPRMC,151726.000,A,4028.4429,N,08353.4042,W,0.09,53.23,130620,,,D*4D
$GPRMC,151727.000,A,4028.4429,N,08353.4042,W,0.07,58.41,130620,,,D*4D
$GPRMC,151728.000,A,4028.4429,N,08353.4042,W,0.08,170.19,130620,,,D*7B
$GPRMC,151729.000,A,4028.4428,N,08353.4041,W,0.07,157.70,130620,,,D*7D
$GPRMC,151730.000,A,4028.4428,N,08353.4041,W,0.07,168.11,130620,,,D*7E
$GPRMC,151731.000,A,4028.4428,N,08353.4041,W,0.09,163.06,130620,,,D*7C
$GPRMC,151732.000,A,4028.4428,N,08353.4041,W,0.07,173.46,130620,,,D*74
$GPRMC,151733.000,A,4028.4427,N,08353.4041,W,0.10,180.43,130620,,,D*75
$GPRMC,151734.000,A,4028.4427,N,08353.4041,W,0.02,357.89,130620,,,D*7F
$GPRMC,151735.000,A,4028.4427,N,08353.4041,W,0.01,3.58,130620,,,D*73
$GPRMC,151736.000,A,4028.4427,N,08353.4041,W,0.04,139.12,130620,,,D*73
$GPRMC,151737.000,A,4028.4427,N,08353.4040,W,0.01,17.98,130620,,,D*49
$GPRMC,151738.000,A,4028.4427,N,08353.4040,W,0.02,90.91,130620,,,D*43
$GPRMC,151739.000,A,4028.4427,N,08353.4040,W,0.03,200.74,130620,,,D*73
$GPRMC,151740.000,A,4028.4427,N,08353.4040,W,0.07,87.46,130620,,,D*45
$GPRMC,151741.000,A,4028.4427,N,08353.4040,W,0.05,102.46,130620,,,D*7A
$GPRMC,151742.000,A,4028.4427,N,08353.4039,W,0.07,114.29,130620,,,D*7B
$GPRMC,151743.000,A,4028.4427,N,08353.4039,W,0.08,99.59,130620,,,D*46
$GPRMC,151744.000,A,4028.4427,N,08353.4039,W,0.05,90.23,130620,,,D*48
$GPRMC,151745.000,A,4028.4427,N,08353.4038,W,0.09,126.42,130620,,,D*7F
$GPRMC,151746.000,A,4028.4427,N,08353.4038,W,0.04,54.08,130620,,,D*4B
$GPRMC,151747.000,A,4028.4427,N,08353.4038,W,0.02,203.02,130620,,,D*76
$GPRMC,151748.000,A,4028.4427,N,08353.4038,W,0.03,95.99,130620,,,D*47
$GPRMC,151749.000,A,4028.4427,N,08353.4038,W,0.01,116.31,130620,,,D*7C
$GPRMC,151750.000,A,4028.4427,N,08353.4038,W,0.01,150.11,130620,,,D*74
$GPRMC,151751.000,A,4028.4426,N,08353.4037,W,0.01,80.84,130620,,,D*4B
$GPRMC,151752.000,A,4028.4426,N,08353.4036,W,0.03,122.43,130620,,,D*79
$GPRMC,151753.000,A,4028.4426,N,08353.4036,W,0.05,100.99,130620,,,D*79
$GPRMC,151754.000,A,4028.4426,N,08353.4036,W,0.03,107.84,130620,,,D*73
$GPRMC,151755.000,A,4028.4426,N,08353.4035,W,0.04,153.66,130620,,,D*7B
$GPRMC,151756.000,A,4028.4426,N,08353.4035,W,0.05,71.89,130620,,,D*49
$GPRMC,151757.000,A,4028.4426,N,08353.4035,W,0.08,121.58,130620,,,D*7D
$GPRMC,151758.000,A,4028.4426,N,08353.4034,W,0.02,322.26,130620,,,D*71
$GPRMC,151759.000,A,4028.4426,N,08353.4034,W,0.03,95.77,130620,,,D*4A
$GPRMC,151800.000,A,4028.4426,N,08353.4034,W,0.01,277.70,130620,,,D*72
$GPRMC,151801.000,A,4028.4426,N,08353.4034,W,0.03,36.93,130620,,,D*4B
$GPRMC,151802.000,A,4028.4426,N,08353.4033,W,0.02,128.61,130620,,,D*7D
$GPRMC,151803.000,A,4028.4426,N,08353.4033,W,0.06,129.56,130620,,,D*7D
$GPRMC,151804.000,A,4028.4426,N,08353.4033,W,0.06,71.07,130620,,,D*42
$GPRMC,151805.000,A,4028.4426,N,08353.4033,W,0.11,120.92,130620,,,D*7C
$GPRMC,151806.000,A,4028.4426,N,08353.4032,W,0.06,92.70,130620,,,D*4C
$GPRMC,151807.000,A,4028.4426,N,08353.4032,W,0.08,112.05,130620,,,D*78
$GPRMC,151808.000,A,4028.4426,N,08353.4032,W,0.08,112.84,130620,,,D*7E
$GPRMC,151809.000,A,4028.4426,N,08353.4032,W,0.07,88.67,130620,,,D*4F
$GPRMC,151810.000,A,4028.4427,N,08353.4032,W,0.03,285.75,130620,,,D*7E
$GPRMC,151811.000,A,4028.4427,N,08353.4033,W,0.02,315.71,130620,,,D*73
$GPRMC,151812.000,A,4028.4427,N,08353.4033,W,0.04,205.84,130620,,,D*7C
$GPRMC,151813.000,A,4028.4427,N,08353.4033,W,0.05,356.23,130620,,,D*76
$GPRMC,151814.000,A,4028.4427,N,08353.4033,W,0.03,120.23,130620,,,D*74
$GPRMC,151815.000,A,4028.4427,N,08353.4033,W,0.03,65.51,130620,,,D*40
$GPRMC,151816.000,A,4028.4427,N,08353.4033,W,0.09,125.09,130620,,,D*71
$GPRMC,151817.000,A,4028.4427,N,08353.4033,W,0.11,99.96,130620,,,D*49
$GPRMC,151818.000,A,4028.4427,N,08353.4033,W,0.10,122.93,130620,,,D*73
$GPRMC,151819.000,A,4028.4427,N,08353.4033,W,0.10,114.39,130620,,,D*77
$GPRMC,151820.000,A,4028.4427,N,08353.4033,W,0.16,101.84,130620,,,D*79
$GPRMC,151821.000,A,4028.4427,N,08353.4032,W,0.03,255.03,130620,,,D*70
$GPRMC,151822.000,A,4028.4427,N,08353.4032,W,0.03,76.92,130620,,,D*48
$GPRMC,151823.000,A,4028.4427,N,08353.4032,W,0.07,108.73,130620,,,D*7A
$GPRMC,151824.000,A,4028.4427,N,08353.4032,W,0.08,94.80,130620,,,D*4A
$GPRMC,151825.000,A,4028.4427,N,08353.4031,W,0.08,117.42,130620,,,D*7C
$GPRMC,151826.000,A,4028.4427,N,08353.4030,W,0.06,85.19,130620,,,D*44
$GPRMC,151827.000,A,4028.4427,N,08353.4029,W,0.10,90.04,130620,,,D*42
$GPRMC,151828.000,A,4028.4427,N,08353.4028,W,0.17,118.78,130620,,,D*71
$GPRMC,151829.000,A,4028.4427,N,08353.4027,W,0.12,101.11,130620,,,D*7D
$GPRMC,151830.000,A,4028.4426,N,08353.4026,W,0.12,102.86,130620,,,D*78
$GPRMC,151831.000,A,4028.4426,N,08353.4025,W,0.12,109.95,130620,,,D*73
$GPRMC,151832.000,A,4028.4426,N,08353.4024,W,0.11,98.18,130620,,,D*4E
$GPRMC,151833.000,A,4028.4426,N,08353.4024,W,0.10,116.62,130620,,,D*74
$GPRMC,151834.000,A,4028.4426,N,08353.4023,W,0.02,62.52,130620,,,D*46
$GPRMC,151835.000,A,4028.4426,N,08353.4023,W,0.08,95.52,130620,,,D*45
$GPRMC,151836.000,A,4028.4426,N,08353.4023,W,0.07,97.73,130620,,,D*48
$GPRMC,151837.000,A,4028.4426,N,08353.4023,W,0.09,100.20,130620,,,D*7E
$GPRMC,151838.000,A,4028.4426,N,08353.4023,W,0.08,80.10,130620,,,D*4A
$GPRMC,151839.000,A,4028.4427,N,08353.4023,W,0.05,71.81,130620,,,D*41
$GPRMC,151836.000,A,4028.4427,N,08353.4023,W,0.16,105.38,130620,,,D*7C
$GPRMC,151837.000,A,4028.4427,N,08353.4022,W,0.11,99.19,130620,,,D*4C
$GPRMC,151838.000,A,4028.4427,N,08353.4022,W,0.09,92.56,130620,,,D*4A
$GPRMC,151839.000,A,4028.4427,N,08353.4022,W,0.11,117.82,130620,,,D*77
$GPRMC,151840.000,A,4028.4427,N,08353.4022,W,0.08,93.98,130620,,,D*47
$GPRMC,151841.000,A,4028.4428,N,08353.4022,W,0.09,111.10,130620,,,D*73
$GPRMC,151842.000,A,4028.4428,N,08353.4022,W,0.12,106.09,130620,,,D*74
$GPRMC,151843.000,A,4028.4428,N,08353.4021,W,0.15,105.93,130620,,,D*71
$GPRMC,151844.000,A,4028.4427,N,08353.4021,W,0.16,110.52,130620,,,D*73
$GPRMC,151845.000,A,4028.4427,N,08353.4020,W,0.17,102.31,130620,,,D*74
$GPRMC,151846.000,A,4028.4427,N,08353.4020,W,0.15,116.06,130620,,,D*74
$GPRMC,151847.000,A,4028.4427,N,08353.4019,W,0.15,100.61,130620,,,D*79
$GPRMC,151848.000,A,4028.4427,N,08353.4019,W,0.12,115.58,130620,,,D*7F
$GPRMC,151849.000,A,4028.4427,N,08353.4018,W,0.04,117.41,130620,,,D*72
$GPRMC,151850.000,A,4028.4427,N,08353.4018,W,0.06,108.60,130620,,,D*75
$GPRMC,151851.000,A,4028.4427,N,08353.4018,W,0.06,116.07,130620,,,D*7A
$GPRMC,151852.000,A,4028.4427,N,08353.4018,W,0.05,110.77,130620,,,D*7B
$GPRMC,151853.000,A,4028.4427,N,08353.4018,W,0.05,110.68,130620,,,D*74
$GPRMC,151854.000,A,4028.4427,N,08353.4018,W,0.04,127.50,130620,,,D*7D
$GPRMC,151855.000,A,4028.4427,N,08353.4018,W,0.08,97.71,130620,,,D*49
$GPRMC,151856.000,A,4028.4426,N,08353.4018,W,0.09,107.51,130620,,,D*70
$GPRMC,151857.000,A,4028.4426,N,08353.4018,W,0.08,102.12,130620,,,D*72
$GPRMC,151858.000,A,4028.4426,N,08353.4017,W,0.10,102.04,130620,,,D*7C
$GPRMC,151859.000,A,4028.4426,N,08353.4017,W,0.06,80.95,130620,,,D*49
$GPRMC,151900.000,A,4028.4426,N,08353.4017,W,0.15,111.82,130620,,,D*79
$GPRMC,151901.000,A,4028.4426,N,08353.4017,W,0.09,96.62,130620,,,D*45
$GPRMC,151902.000,A,4028.4426,N,08353.4017,W,0.06,83.69,130620,,,D*46
$GPRMC,151903.000,A,4028.4426,N,08353.4017,W,0.10,113.42,130620,,,D*71
$GPRMC,151904.000,A,4028.4426,N,08353.4016,W,0.08,105.63,130620,,,D*7A
$GPRMC,151905.000,A,4028.4426,N,08353.4017,W,0.11,116.23,130620,,,D*74
$GPRMC,151906.000,A,4028.4427,N,08353.4017,W,0.03,69.81,130620,,,D*44
$GPRMC,151907.000,A,4028.4427,N,08353.4017,W,0.08,102.46,130620,,,D*79
$GPRMC,151908.000,A,4028.4427,N,08353.4018,W,0.09,100.70,130620,,,D*7F
$GPRMC,151909.000,A,4028.4428,N,08353.4018,W,0.07,97.19,130620,,,D*4F
$GPRMC,151910.000,A,4028.4428,N,08353.4018,W,0.07,90.12,130620,,,D*4B
$GPRMC,151911.000,A,4028.4428,N,08353.4018,W,0.06,72.82,130620,,,D*4E
$GPRMC,151912.000,A,4028.4428,N,08353.4018,W,0.16,107.15,130620,,,D*71
$GPRMC,151913.000,A,4028.4428,N,08353.4018,W,0.08,103.91,130620,,,D*77
$GPRMC,151914.000,A,4028.4429,N,08353.4019,W,0.09,105.87,130620,,,D*70
$GPRMC,151915.000,A,4028.4429,N,08353.4019,W,0.09,115.97,130620,,,D*71
$GPRMC,151916.000,A,4028.4429,N,08353.4019,W,0.10,107.67,130620,,,D*76
$GPRMC,151917.000,A,4028.4429,N,08353.4019,W,0.08,109.04,130620,,,D*75
$GPRMC,151918.000,A,4028.4429,N,08353.4019,W,0.02,63.46,130620,,,D*4B
$GPRMC,151919.000,A,4028.4429,N,08353.4019,W,0.05,83.56,130620,,,D*42
$GPRMC,151920.000,A,4028.4429,N,08353.4019,W,0.06,78.31,130620,,,D*4E
$GPRMC,151921.000,A,4028.4429,N,08353.4020,W,0.05,109.16,130620,,,D*74
$GPRMC,151922.000,A,4028.4429,N,08353.4020,W,0.06,91.35,130620,,,D*45
$GPRMC,151923.000,A,4028.4429,N,08353.4020,W,0.06,78.07,130620,,,D*42
$GPRMC,151924.000,A,4028.4429,N,08353.4020,W,0.12,102.99,130620,,,D*7B
$GPRMC,151925.000,A,4028.4429,N,08353.4020,W,0.11,114.64,130620,,,D*7C
$GPRMC,151926.000,A,4028.4429,N,08353.4020,W,0.10,108.30,130620,,,D*72
$GPRMC,151927.000,A,4028.4429,N,08353.4020,W,0.09,103.63,130620,,,D*76
$GPRMC,151928.000,A,4028.4429,N,08353.4020,W,0.11,120.72,130620,,,D*71
$GPRMC,151929.000,A,4028.4429,N,08353.4020,W,0.08,99.19,130620,,,D*46
$GPRMC,151930.000,A,4028.4429,N,08353.4020,W,0.02,27.53,130620,,,D*4F
$GPRMC,151931.000,A,4028.4429,N,08353.4020,W,0.08,124.98,130620,,,D*71
$GPRMC,151932.000,A,4028.4429,N,08353.4020,W,0.06,73.37,130620,,,D*4A
$GPRMC,151933.000,A,4028.4429,N,08353.4021,W,0.05,58.91,130620,,,D*4C
$GPRMC,151934.000,A,4028.4429,N,08353.4021,W,0.06,73.14,130620,,,D*4C
$GPRMC,151935.000,A,4028.4429,N,08353.4021,W,0.04,56.61,130620,,,D*4A
$GPRMC,151936.000,A,4028.4429,N,08353.4021,W,0.16,112.31,130620,,,D*7E
$GPRMC,151937.000,A,4028.4429,N,08353.4021,W,0.09,100.99,130620,,,D*70
$GPRMC,151938.000,A,4028.4429,N,08353.4021,W,0.09,101.90,130620,,,D*77
$GPRMC,151939.000,A,4028.4429,N,08353.4021,W,0.10,105.47,130620,,,D*70
$GPRMC,151940.000,A,4028.4429,N,08353.4021,W,0.08,107.56,130620,,,D*75
$GPRMC,151941.000,A,4028.4429,N,08353.4021,W,0.11,118.37,130620,,,D*75
$GPRMC,151942.000,A,4028.4429,N,08353.4021,W,0.02,61.13,130620,,,D*4D
$GPRMC,151943.000,A,4028.4429,N,08353.4022,W,0.06,84.82,130620,,,D*48
$GPRMC,151944.000,A,4028.4429,N,08353.4022,W,0.02,74.77,130620,,,D*4E
$GPRMC,151945.000,A,4028.4429,N,08353.4022,W,0.06,79.04,130620,,,D*42
$GPRMC,151946.000,A,4028.4429,N,08353.4022,W,0.05,98.97,130620,,,D*47
$GPRMC,151947.000,A,4028.4429,N,08353.4023,W,0.04,64.41,130620,,,D*4E
$GPRMC,151948.000,A,4028.4429,N,08353.4023,W,0.13,100.92,130620,,,D*7A
$GPRMC,151949.000,A,4028.4429,N,08353.4022,W,0.10,109.13,130620,,,D*79
$GPRMC,151950.000,A,4028.4429,N,08353.4022,W,0.08,129.87,130620,,,D*77
$GPRMC,151951.000,A,4028.4429,N,08353.4022,W,0.12,104.23,130620,,,D*7C
$GPRMC,151952.000,A,4028.4429,N,08353.4022,W,0.10,120.37,130620,,,D*7E
$GPRMC,151953.000,A,4028.4429,N,08353.4022,W,0.10,102.36,130620,,,D*7E
$GPRMC,151954.000,A,4028.4429,N,08353.4022,W,0.07,111.20,130620,,,D*7A
$GPRMC,151955.000,A,4028.4429,N,08353.4022,W,0.11,95.87,130620,,,D*4C
$GPRMC,151956.000,A,4028.4429,N,08353.4022,W,0.14,71.18,130620,,,D*46
$GPRMC,151957.000,A,4028.4429,N,08353.4022,W,0.09,92.03,130620,,,D*4C
$GPRMC,151958.000,A,4028.4429,N,08353.4022,W,0.07,100.51,130620,,,D*70
$GPRMC,151959.000,A,4028.4429,N,08353.4023,W,0.10,109.63,130620,,,D*7E
$GPRMC,152000.000,A,4028.4430,N,08353.4022,W,0.08,92.26,130620,,,D*4A
$GPRMC,152001.000,A,4028.4430,N,08353.4022,W,0.07,122.81,130620,,,D*73
$GPRMC,152002.000,A,4028.4430,N,08353.4022,W,0.06,114.18,130620,,,D*74
$GPRMC,152003.000,A,4028.4430,N,08353.4022,W,0.08,86.16,130620,,,D*4F
$GPRMC,152004.000,A,4028.4430,N,08353.4023,W,0.06,121.70,130620,,,D*7B
$GPRMC,152005.000,A,4028.4430,N,08353.4023,W,0.10,97.50,130620,,,D*43
$GPRMC,152006.000,A,4028.4430,N,08353.4023,W,0.08,156.60,130620,,,D*76
$GPRMC,152007.000,A,4028.4430,N,08353.4023,W,0.10,87.52,130620,,,D*42
$GPRMC,152008.000,A,4028.4430,N,08353.4023,W,0.10,90.47,130620,,,D*4F
$GPRMC,152009.000,A,4028.4430,N,08353.4023,W,0.10,99.15,130620,,,D*40
$GPRMC,152010.000,A,4028.4429,N,08353.4023,W,0.10,104.93,130620,,,D*7B
$GPRMC,152011.000,A,4028.4429,N,08353.4024,W,0.05,88.25,130620,,,D*41
$GPRMC,152012.000,A,4028.4429,N,08353.4024,W,0.11,102.93,130620,,,D*79
$GPRMC,152013.000,A,4028.4429,N,08353.4024,W,0.10,120.37,130620,,,D*77
$GPRMC,152014.000,A,4028.4429,N,08353.4024,W,0.09,115.94,130620,,,D*77
$GPRMC,152015.000,A,4028.4429,N,08353.4024,W,0.09,137.28,130620,,,D*71
$GPRMC,152016.000,A,4028.4429,N,08353.4024,W,0.09,120.22,130620,,,D*7E
$GPRMC,152017.000,A,4028.4429,N,08353.4024,W,0.14,133.39,130620,,,D*7B
$GPRMC,152018.000,A,4028.4429,N,08353.4024,W,0.12,125.30,130620,,,D*7C
$GPRMC,152019.000,A,4028.4429,N,08353.4024,W,0.18,114.36,130620,,,D*73
$GPRMC,152020.000,A,4028.4429,N,08353.4024,W,0.17,122.35,130620,,,D*70
$GPRMC,152021.000,A,4028.4428,N,08353.4024,W,0.16,114.31,130620,,,D*70
$GPRMC,152022.000,A,4028.4428,N,08353.4024,W,0.18,125.42,130620,,,D*7B
$GPRMC,152023.000,A,4028.4428,N,08353.4024,W,0.12,115.12,130620,,,D*76
$GPRMC,152024.000,A,4028.4428,N,08353.4024,W,0.09,103.92,130620,,,D*74
$GPRMC,152025.000,A,4028.4428,N,08353.4024,W,0.11,105.63,130620,,,D*74
$GPRMC,152026.000,A,4028.4428,N,08353.4024,W,0.08,106.40,130620,,,D*7D
$GPRMC,152027.000,A,4028.4428,N,08353.4024,W,0.11,109.26,130620,,,D*7B
$GPRMC,152028.000,A,4028.4428,N,08353.4024,W,0.08,104.25,130620,,,D*72
$GPRMC,152029.000,A,4028.4428,N,08353.4024,W,0.13,107.33,130620,,,D*7D
$GPRMC,152030.000,A,4028.4428,N,08353.4024,W,0.10,63.84,130620,,,D*49
$GPRMC,152031.000,A,4028.4428,N,08353.4024,W,0.09,25.93,130620,,,D*44
$GPRMC,152032.000,A,4028.4428,N,08353.4024,W,0.08,51.33,130620,,,D*4F
$GPRMC,152033.000,A,4028.4429,N,08353.4024,W,0.08,32.90,130620,,,D*43
$GPRMC,152034.000,A,4028.4429,N,08353.4025,W,0.09,27.17,130620,,,D*4F
$GPRMC,152035.000,A,4028.4430,N,08353.4025,W,0.08,22.44,130620,,,D*44
$GPRMC,152036.000,A,4028.4430,N,08353.4026,W,0.06,105.38,130620,,,D*75
$GPRMC,152037.000,A,4028.4430,N,08353.4026,W,0.12,117.46,130620,,,D*7B
$GPRMC,152038.000,A,4028.4430,N,08353.4026,W,0.11,121.48,130620,,,D*7C
$GPRMC,152039.000,A,4028.4430,N,08353.4026,W,0.13,121.05,130620,,,D*76
$GPRMC,152040.000,A,4028.4430,N,08353.4027,W,0.10,117.35,130620,,,D*7C
$GPRMC,152041.000,A,4028.4430,N,08353.4027,W,0.13,116.24,130620,,,D*7F
$GPRMC,152042.000,A,4028.4430,N,08353.4027,W,0.13,114.65,130620,,,D*7B
$GPRMC,152043.000,A,4028.4430,N,08353.4027,W,0.08,146.97,130620,,,D*7A
$GPRMC,152044.000,A,4028.4430,N,08353.4027,W,0.07,139.07,130620,,,D*73
$GPRMC,152045.000,A,4028.4430,N,08353.4027,W,0.09,140.85,130620,,,D*78
$GPRMC,152046.000,A,4028.4430,N,08353.4028,W,0.08,143.06,130620,,,D*7D
$GPRMC,152047.000,A,4028.4430,N,08353.4028,W,0.06,131.64,130620,,,D*73
$GPRMC,152048.000,A,4028.4430,N,08353.4028,W,0.07,38.02,130620,,,D*45
$GPRMC,152049.000,A,4028.4430,N,08353.4028,W,0.10,73.36,130620,,,D*4A
$GPRMC,152050.000,A,4028.4430,N,08353.4028,W,0.12,68.19,130620,,,D*47
$GPRMC,152051.000,A,4028.4431,N,08353.4029,W,0.08,50.00,130620,,,D*4E
$GPRMC,152052.000,A,4028.4431,N,08353.4029,W,0.11,78.23,130620,,,D*4E
$GPRMC,152053.000,A,4028.4431,N,08353.4029,W,0.09,55.74,130620,,,D*4B
$GPRMC,152054.000,A,4028.4431,N,08353.4029,W,0.15,132.12,130620,,,D*71
$GPRMC,152055.000,A,4028.4431,N,08353.4029,W,0.10,137.07,130620,,,D*74
$GPRMC,152056.000,A,4028.4431,N,08353.4029,W,0.07,161.71,130620,,,D*73
$GPRMC,152057.000,A,4028.4430,N,08353.4029,W,0.10,153.01,130620,,,D*73
$GPRMC,152058.000,A,4028.4430,N,08353.4029,W,0.10,155.21,130620,,,D*78
$GPRMC,152059.000,A,4028.4430,N,08353.4030,W,0.08,157.76,130620,,,D*78
$GPRMC,152100.000,A,4028.4430,N,08353.4030,W,0.08,54.39,130620,,,D*4C
$GPRMC,152101.000,A,4028.4430,N,08353.4030,W,0.10,48.12,130620,,,D*40
$GPRMC,152102.000,A,4028.4430,N,08353.4030,W,0.12,70.82,130620,,,D*43
$GPRMC,152103.000,A,4028.4431,N,08353.4030,W,0.10,96.23,130620,,,D*42
$GPRMC,152104.000,A,4028.4431,N,08353.4030,W,0.10,63.25,130620,,,D*49
$GPRMC,152105.000,A,4028.4431,N,08353.4030,W,0.13,74.99,130620,,,D*4A
$GPRMC,152106.000,A,4028.4431,N,08353.4030,W,0.14,135.97,130620,,,D*74
$GPRMC,152107.000,A,4028.4431,N,08353.4030,W,0.12,143.25,130620,,,D*7B
$GPRMC,152108.000,A,4028.4430,N,08353.4030,W,0.10,149.52,130620,,,D*7D
$GPRMC,152109.000,A,4028.4430,N,08353.4030,W,0.13,151.07,130620,,,D*76
$GPRMC,152110.000,A,4028.4430,N,08353.4030,W,0.11,151.54,130620,,,D*7A
$GPRMC,152111.000,A,4028.4429,N,08353.4030,W,0.09,138.34,130620,,,D*73
$GPRMC,152112.000,A,4028.4429,N,08353.4030,W,0.09,74.62,130620,,,D*4A
$GPRMC,152113.000,A,4028.4429,N,08353.4030,W,0.10,76.45,130620,,,D*44
$GPRMC,152114.000,A,4028.4429,N,08353.4029,W,0.10,91.38,130620,,,D*48
$GPRMC,152115.000,A,4028.4429,N,08353.4029,W,0.11,78.18,130620,,,D*4D
$GPRMC,152116.000,A,4028.4430,N,08353.4029,W,0.10,74.99,130620,,,D*42
$GPRMC,152117.000,A,4028.4429,N,08353.4029,W,0.14,91.16,130620,,,D*43
$GPRMC,152118.000,A,4028.4429,N,08353.4028,W,0.16,132.48,130620,,,D*7C
$GPRMC,152119.000,A,4028.4429,N,08353.4028,W,0.10,148.86,130620,,,D*74
$GPRMC,152120.000,A,4028.4429,N,08353.4028,W,0.13,147.05,130620,,,D*79
$GPRMC,152121.000,A,4028.4428,N,08353.4028,W,0.13,141.84,130620,,,D*76
$GPRMC,152122.000,A,4028.4428,N,08353.4028,W,0.13,145.21,130620,,,D*7E
$GPRMC,152123.000,A,4028.4427,N,08353.4028,W,0.11,163.27,130620,,,D*70
$GPRMC,152124.000,A,4028.4427,N,08353.4028,W,0.10,91.25,130620,,,D*48
$GPRMC,152125.000,A,4028.4427,N,08353.4028,W,0.12,103.00,130620,,,D*76
$GPRMC,152126.000,A,4028.4427,N,08353.4028,W,0.13,89.92,130620,,,D*4C
$GPRMC,152127.000,A,4028.4427,N,08353.4027,W,0.12,88.01,130620,,,D*48
$GPRMC,152128.000,A,4028.4427,N,08353.4027,W,0.14,95.79,130620,,,D*42
$GPRMC,152129.000,A,4028.4427,N,08353.4027,W,0.16,107.57,130620,,,D*77
$GPRMC,152130.000,A,4028.4427,N,08353.4027,W,0.13,126.87,130620,,,D*74
$GPRMC,152131.000,A,4028.4427,N,08353.4027,W,0.18,150.10,130620,,,D*71
$GPRMC,152132.000,A,4028.4427,N,08353.4027,W,0.15,136.40,130620,,,D*7A
$GPRMC,152133.000,A,4028.4427,N,08353.4027,W,0.15,146.75,130620,,,D*7A
$GPRMC,152134.000,A,4028.4426,N,08353.4027,W,0.15,147.76,130620,,,D*7E
$GPRMC,152135.000,A,4028.4426,N,08353.4027,W,0.11,151.27,130620,,,D*78
$GPRMC,152136.000,A,4028.4426,N,08353.4028,W,0.08,97.97,130620,,,D*4C
$GPRMC,152137.000,A,4028.4427,N,08353.4028,W,0.12,91.02,130620,,,D*4D
$GPRMC,152138.000,A,4028.4427,N,08353.4028,W,0.12,90.55,130620,,,D*41
$GPRMC,152139.000,A,4028.4427,N,08353.4028,W,0.11,92.78,130620,,,D*4E
$GPRMC,152140.000,A,4028.4427,N,08353.4027,W,0.13,92.95,130620,,,D*4E
$GPRMC,152141.000,A,4028.4427,N,08353.4027,W,0.17,103.76,130620,,,D*7F
$GPRMC,152142.000,A,4028.4427,N,08353.4027,W,0.16,140.82,130620,,,D*71
$GPRMC,152143.000,A,4028.4427,N,08353.4027,W,0.15,142.84,130620,,,D*77
$GPRMC,152144.000,A,4028.4427,N,08353.4027,W,0.14,140.48,130620,,,D*73
$GPRMC,152145.000,A,4028.4426,N,08353.4028,W,0.15,149.90,130620,,,D*71
$GPRMC,152146.000,A,4028.4426,N,08353.4028,W,0.14,134.72,130620,,,D*75
$GPRMC,152147.000,A,4028.4426,N,08353.4028,W,0.09,154.46,130620,,,D*79
$GPRMC,152148.000,A,4028.4426,N,08353.4028,W,0.11,98.08,130620,,,D*44
$GPRMC,152149.000,A,4028.4426,N,08353.4028,W,0.12,98.99,130620,,,D*4E
$GPRMC,152150.000,A,4028.4426,N,08353.4028,W,0.11,87.43,130620,,,D*4C
$GPRMC,152151.000,A,4028.4426,N,08353.4028,W,0.13,89.00,130620,,,D*46
$GPRMC,152152.000,A,4028.4426,N,08353.4027,W,0.14,91.76,130620,,,D*45
$GPRMC,152153.000,A,4028.4426,N,08353.4027,W,0.18,101.30,130620,,,D*72
$GPRMC,152154.000,A,4028.4426,N,08353.4027,W,0.15,102.13,130620,,,D*7A
$GPRMC,152155.000,A,4028.4426,N,08353.4026,W,0.13,101.10,130620,,,D*7C
$GPRMC,152156.000,A,4028.4426,N,08353.4026,W,0.16,110.77,130620,,,D*7B
